####################
# TYPE: TEXT
# DATE: 2021/11/11
# TIME: 17:17:29
####################
#
17:17:29.397 [OWL ] SEAOWLA2K-0145	3989	-509	-369	-369	1465	459	1008	1008	2493	2493	259	671	671
17:17:29.278 [OCR3] 00000000
17:17:29.529 [OCR3] 00000001
17:17:29.832 [ECO ] 99/99/99	99:99:99	700	101	595	124	680	177	557
17:17:29.927 [APLA] $GPGGA,171729.922,4828.77157,N,06830.66260,W,4,07,1.2,0.22,M,,,0,0004*16
17:17:29.933 [APLA] $GPVTG,13,T,,M,3.1,N,5.7,K,D*0C
17:17:29.491 [OCR1] 00000002
17:17:29.487 [OCR2] 00000003
17:17:30.004 [DBG ] $STAT,RECORDING
17:17:30.004 [APLA] $UTC,20211111,171730.0047
17:17:29.791 [OCR3] 00000004
17:17:30.212 [OWL ] SEAOWLA2K-0145	4000	214	206	206	1465	654	844	844	2484	2484	431	377	377
17:17:30.043 [OCR3] 00000005
17:17:29.949 [OCR2] 00000006
17:17:29.947 [OCR1] 00000007
17:17:30.295 [OCR3] 00000008
17:17:30.557 [OCR3] 00000009
17:17:30.368 [OCR2] 0000000A
17:17:30.372 [OCR1] 0000000B
17:17:30.927 [APLA] $GPGGA,171730.922,4828.77109,N,06830.66154,W,4,07,1.2,0.22,M,,,0,0004*11
17:17:30.933 [APLA] $GPVTG,124.1,T,,M,3.1,N,5.7,K,D*0E
17:17:30.958 [ECO ] 99/99/99	99:99:99	700	114	595	353	680	185	557
17:17:31.000 [DBG ] $STAT,RECORDING
17:17:31.004 [APLA] $UTC,20211111,171731.0047
17:17:30.809 [OCR3] 0000000C
17:17:31.023 [OWL ] SEAOWLA2K-0145	4000	-371	-571	-571	1465	399	61	61	2488	2488	37	-187	-187
17:17:30.815 [OCR2] 0000000D
17:17:30.820 [OCR1] 0000000E
17:17:31.061 [OCR3] 0000000F
17:17:31.323 [OCR3] 00000010
17:17:31.249 [OCR2] 00000011
17:17:31.254 [OCR1] 00000012
17:17:31.575 [OCR3] 00000013
17:17:31.834 [OWL ] SEAOWLA2K-0145	4001	462	922	922	1465	1272	1123	1123	2485	2485	26	-132	-132
17:17:31.927 [APLA] $GPGGA,171731.922,4828.77062,N,06830.66045,W,4,07,1.2,0.24,M,,,0,0004*1B
17:17:31.933 [APLA] $GPVTG,122.6,T,,M,3.1,N,5.8,K,D*00
17:17:32.000 [DBG ] $STAT,RECORDING
17:17:32.004 [APLA] $UTC,20211111,171732.0047
17:17:31.827 [OCR3] 00000014
17:17:32.085 [ECO ] 99/99/99	99:99:99	700	40	595	6	680	84	557
17:17:31.694 [OCR2] 00000015
17:17:31.702 [OCR1] 00000016
17:17:32.091 [OCR3] 00000017
17:17:32.131 [OCR2] 00000018
17:17:32.135 [OCR1] 00000019
17:17:32.344 [OCR3] 0000001A
17:17:32.648 [OWL ] SEAOWLA2K-0145	3990	13	244	244	1464	875	1377	1377	2487	2487	-145	-355	-355
17:17:32.597 [OCR3] 0000001B
17:17:32.927 [APLA] $GPGGA,171732.922,4828.77018,N,06830.65935,W,4,07,1.2,0.24,M,,,0,0004*18
17:17:32.933 [APLA] $GPV,120.3,T,,M,3.1,N,5.7,K,D*08
17:17:33.000 [DBG ] $STAT,RECORDING
17:17:33.004 [APLA] $UTC,20211111,171733.0047
17:17:32.576 [OCR2] 0000001C
17:17:32.584 [OCR1] 0000001D
17:17:32.861 [OCR3] 0000001E
17:17:33.208 [ECO ] 99/99/99	99:99:99	700	22	595	-51	680	44	557
17:17:33.115 [OCR3] 0000001F
17:17:33.013 [OCR2] 00000020
17:17:33.018 [OCR1] 00000021
17:17:33.462 [OWL ] SEAOWLA2K-0145	3990	-433	-458	-458	1464	1135	2735	2735	2483	2483	301	1003	1003
17:17:33.368 [OCR3] 00000022
17:17:33.632 [OCR3] 00000023
17:17:33.458 [OCR2] 00000024
17:17:33.465 [OCR1] 00000025
17:17:33.927 [APLA] $GPGGA,17173322,4828.76974,N,06830.65825,W,4,07,1.2,0.24,M,,,0,0004*1B
17:17:33.933 [APLA] $GPVTG,122.4,T,,M,3.1,N,5.7,K,D*0D
17:17:34.000 [DBG ] $STAT,RECORDING
17:17:34.004 [APLA] $UTC,20211111,171734.0047
17:17:33.885 [OCR3] 00000026
17:17:33.893 [OCR2] 00000027
17:17:34.279 [OWL ] SEAOWLA2K-0145	4000	237	-38	-38	1464	202	763	763	2481	2481	20	-306	-306
17:17:33.901 [OCR1] 00000028
17:17:34.333 [ECO ] 99/99/99	99:99:99	700	30	595	-175	680	453	557
17:17:34.138 [OCR3] 00000029
17:17:34.402 [OCR3] 0000002A
17:17:34.342 [OCR2] 0000002B
17:17:34.348 [OCR1] 0000002C
17:17:34.655 [OCR3] 0000002D
17:17:34.927 [APLA] $GPGGA,171734.922,4828.76925,N,06830.65723,W,4,07,1.2,0.23,M,,,0,0004*16
17:17:34.933 [APLA] $GPVTG,126.9,T,,M,3.0,N,5.5,D*07
17:17:35.000 [DBG ] $STAT,RECORDING
17:17:35.004 [APLA] $UTC,20211111,171735.0047
17:17:35.090 [OWL ] SEAOWLA2K-0145	3989	178	-349	-349	1465	501	2179	2179	2487	2487	265	914	914
17:17:34.908 [OCR3] 0000002E
17:17:34.775 [OCR2] 0000002F
17:17:34.784 [OCR1] 00000030
17:17:35.172 [OCR3] 00000031
17:17:35.459 [ECO ] 99/99/99	99:99:99	700	30	595	-92	680	89	557
17:17:35.222 [OCR2] 00000032
17:17:35.230 [OCR1] 00000033
17:17:35.425 [OCR3] 00000034
17:17:35.927 [APLA] $GPGGA,171735.922,4828.76875,N,06830.65623,W,4,07,1.2,0.23,M,,,0,0004*12
17:17:35.933 [APLA] $GPVTG,127.7,T,,M,3.0,N,5.5,K,D*08
17:17:35.678 [OCR3] 00000035
17:17:35.904 [OWL ] SEAOWLA2K-0145	3989	36	-204	-204	1464	514	2206	2206	2490	2490	-67	-731	-731
17:17:36.000 [DBG ] $STAT,RECORDING
17:17:36.004 [APLA] $UTC,20211111,171736.0047
17:17:35.657 [OCR2] 00000036
17:17:35.668 [OCR1] 00000037
17:17:35.947 [OCR3] 00000038
17:17:36.195 [OCR3] 00000039
17:17:36.104 [OCR2] 0000003A
17:17:36.113 [OCR1] 0000003B
17:17:36.583 [ECO ] 99/99/99	99:99:99	700	64	595	36	680	357	557
17:17:36.448 [OCR3] 0000003C
17:17:36.718 [OWL ] SEAOWLA2K-0145	4001	-373	-171	-171	1465	632	668	668	2485	2485	-40	-191	-191
17:17:36.927 [APLA] $GPGGA,171736.922,4828.76826,N,06830.65524,W,4,07,1.2,0.24,M,,,0,0004*14
17:17:36.933 [APLA] $GPVTG,127.8,T,,M,3.0,N,5.5,K,D*07
17:17:36.711 [OCR3] 0000003D
17:17:36.541 [OCR2] 0000003E
17:17:36.551 [OCR1] 0000003F
17:17:37.000 [DBG ] $STAT,RECORDING
17:17:37.004 [APLA] $UTC,20211111,171737.0047
17:17:36.964 [OCR3] 00000040
17:17:36.985 [OCR2] 00000041
17:17:36.995 [OCR1] 00000042
17:17:37.217 [OCR3] 00000043
17:17:37.531 [OWL ] SEAOWLA2K-0145	3989	-2	27	27	1465	778	1692	1692	2489	2489	4	152	152
17:17:37.481 [OCR3] 00000044
17:17:37.708 [ECO ] 99/99/99	99:99:99	700	55	595	-114	680	94	557
17:17:37.421 [OCR2] 00000045
17:17:37.433 [OCR1] 00000046
17:17:37.927 [APLA] $GPGGA,171737.922,4828.76774,N,06830.65426,W,4,1.2,0.24,M,,,0,0004*1E
17:17:37.933 [APLA] $GPVTG,129.3,T,,M,3.0,N,5.5,K,D*02
17:17:37.734 [OCR3] 00000047
17:17:38.000 [DBG ] $STAT,RECORDING
17:17:38.004 [APLA] $UTC,20211111,171738.0047
17:17:37.987 [OCR3] 00000048
17:17:37.869 [OCR2] 00000049
17:17:37.877 [OCR1] 0000004A
17:17:38.339 [OWL ] SEAOWLA2K-0145	3999	-675	-894	-894	1464	598	372	372	2490	2490	321	374	374
17:17:38.251 [OCR3] 0000004B
17:17:38.303 [OCR2] 0000004C
17:17:38.504 [OCR3] 0000004D
17:17:38.315 [OCR1] 0000004E
17:17:38.833 [ECO ] 99/99/99	99:99:99	700	50	595	3	680	136	557
17:17:38.927 [APLA] $GPGGA,171738.922,4828.76721,N,06830.65331,W,4,07,1.2,0.23,M,,,0,0004*17
17:17:38.933 [APLA] $GPVTG,130.2,T,,M,2.9,N,5.4,K,D*02
17:17:39.000 [DBG ] $STAT,RECORDING
17:17:39.004 [APLA] $UTC,20211111,171739.0047
17:17:38.757 [OCR3] 0000004F
17:17:38.751 [OCR2] 00000050
17:17:38.760 [OCR1] 00000051
17:17:39.153 [OWL ] SEAOWLA2K-0145	3989	929	1487	1487	1464	-170	-443	-443	2488	2488	60	-273	-273
17:17:39.021 [OCR3] 00000052
17:17:39.274 [OCR3] 00000053
17:17:39.184 [OCR2] 00000054
17:17:39.196 [OCR1] 00000055
17:17:39.527 [OCR3] 00000056
17:17:39.927 [APLA] $GPGGA,171739.922,4828.76672,N,06830.65236,W,4,07,1.2,0.23,M,,,0,0004*17
17:17:39.933 [APLA] $GPVTG,126.8,T,,M,2.8,N,5.3,K,D*09
17:17:39.957 [ECO ] 99/99/99	99:99:99	700	55	595	54	680	78	557
17:17:40.000 [DBG ] $STAT,RECORDING
17:17:40.004 [APLA] $UTC,20211111,171740.0047
17:17:39.968 [OWL ] SEAOWLA2K-0145	3989	-299	-589	-589	1464	542	570	570	2486	2486	228	225	225
17:17:39.791 [OCR3] 00000057
17:17:39.631 [OCR2] 00000058
17:17:39.643 [OCR1] 00000059
17:17:40.044 [OCR3] 0000005A
17:17:40.068 [OCR2] 0000005B
17:17:40.078 [OCR1] 0000005C
17:17:40.297 [OCR3] 0000005D
17:17:40.561 [OCR3] 0000005E
17:17:40.780 [OWL ] SEAOWLA2K-0145	4000	336	1017	1017	1464	323	1151	1151	2485	2485	-155	58	58
17:17:40.927 [APLA] $GPGGA,171740.922,4828.76625,N,06830.65141,W,4,07,1.2,0.24,M,,,0,0004*1F
17:17:40.933 [APLA] $GPVTG,125.5,T,,M,2.9,N,5.3,K,D*06
17:17:40.512 [OCR2] 0000005F
17:17:40.527 [OCR1] 00000060
17:17:41.000 [DBG ] $STAT,RECORDING
17:17:41.004 [APLA] $UTC,20211111,171741.0047
17:17:40.814 [OCR3] 00000061
17:17:41.081 [ECO ] 99/99/99	99:99:99	700	60	595	139	680	237	557
17:17:41.067 [OCR3] 00000062
17:17:40.949 [OCR2] 00000063
17:17:40.961 [OCR1] 00000064
17:17:41.331 [OCR3] 00000065
17:17:41.594 [OWL ] SEAOWLA2K-0145	3989	-4	-318	-318	1464	604	1052	1052	2488	2488	-113	-917	-917
17:17:41.396 [OCR2] 00000066
17:17:41.584 [OCR3] 00000067
17:17:41.410 [OCR1] 00000068
17:17:41.927 [APLA] $GPGGA,171741.922,4828.76578,N,06830.65042,W,4,07,1.2,0.23,M,,,0,0004*10
17:17:41.933 [APLA] $GPVTG,125.7,T,,M,2.9,N,5.4,K,D*03
17:17:42.000 [DBG ] $STAT,RECORDING
17:17:42.004 [APLA] $UTC,20211111,171742.0047
17:17:41.837 [OCR3] 00000069
17:17:42.206 [ECO ] 99/99/99	99:99:99	700	67	595	50	680	210	557
17:17:41.830 [OCR2] 0000006A
17:17:41.844 [OCR1] 0000006B
17:17:42.101 [OCR3] 0000006C
17:17:42.408 [OWL ] SEAOWLA2K-0145	3999	80	603	603	1464	324	1430	1430	2482	2482	-47	281	281
17:17:42.355 [OCR3] 0000006D
17:17:42.279 [OCR2] 0000006E
17:17:42.293 [OCR1] 0000006F
17:17:42.608 [OCR3] 00000070
17:17:42.927 [APLA] $GPGGA,171742.922,4828.76531,N,06830.64944,W,4,07,1.2,0.24,M,0,0004*17
17:17:42.933 [APLA] $GPVTG,126.6,T,,M,2.9,N,5.4,K,D*01
17:17:43.000 [DBG ] $STAT,RECORDING
17:17:43.004 [APLA] $UTC,20211111,171743.0047
17:17:42.872 [OCR3] 00000071
17:17:42.712 [OCR2] 00000072
17:17:42.727 [OCR1] 00000073
17:17:43.220 [OWL ] SEAOWLA2K-0145	3988	85	528	528	1464	433	2607	2607	2486	2486	41	-424	-424
17:17:43.331 [ECO ] 99/99/99	99:99:99	700	50	595	-60	680	139	557
17:17:43.125 [OCR3] 00000074
17:17:43.159 [OCR2] 00000075
17:17:43.176 [OCR1] 00000076
17:17:43.379 [OCR3] 00000077
17:17:43.643 [OCR3] 00000078
17:17:43.927 [APLA] $GPGGA,171743.922,4828.76483,N,06830.64847,W,4,07,1.2,0.23,M,,,0,0004*1B
17:17:43.933 [APLA] $GPVTG,126.0,T,,M,2.9,N,5.4,K,D*07
17:17:44.000 [DBG ] $STAT,RECORDING
17:17:44.004 [APLA] $UTC,20211111,171744.0048
17:17:43.597 [OCR2] 00000079
17:17:43.610 [OCR1] 0000007A
17:17:44.033 [OWL ] SEAOWLA2K-0145	3988	18	-30	-30	1464	477	848	848	2485	2485	-192	-348	-348
17:17:43.896 [OCR3] 0000007B
17:17:44.149 [OCR3] 0000007C
17:17:44.041 [OCR2] 0000007D
17:17:44.456 [ECO ] 99/99/99	99:99:99	700	40	595	128	680	84	557
17:17:44.057 [OCR1] 0000007E
17:17:44.413 [OCR3] 0000007F
17:17:44.845 [OWL ] SEAOWLA2K-0145	3987	476	648	648	1463	690	2658	2658	2493	2493	-275	-276	-276
17:17:44.666 [OCR3] 00000080
17:17:44.477 [OCR2] 00000081
17:17:44.927 [APLA] $GPGGA,171744.922,4828.76437,N,06830.64749,W,4,07,1.2,0.23,M,,,0004*12
17:17:44.933 [APLA] $GPVTG,124.0,T,,M,2.9,N,5.4,K,D*05
17:17:44.492 [OCR1] 00000082
17:17:45.000 [DBG ] $STAT,RECORDING
17:17:45.004 [APLA] $UTC,20211111,171745.0048
17:17:44.919 [OCR3] 00000083
17:17:44.924 [OCR2] 00000084
17:17:44.947 [OCR1] 00000085
17:17:45.183 [OCR3] 00000086
17:17:45.581 [ECO ] 99/99/99	99:99:99	700	80	595	3	680	-46	557
17:17:45.436 [OCR3] 00000087
17:17:45.660 [OWL ] SEAOWLA2K-0145	3997	272	876	876	1464	440	1921	1921	2484	2484	98	504	504
17:17:45.358 [OCR2] 00000088
17:17:45.375 [OCR1] 00000089
17:17:45.927 [APLA] $GPGGA,171745.922,4828.76392,N,06830.64648,W,4,07,1.2,0.24,M,,,0,0004*1C
17:17:45.933 [APLA] $GPVTG,124.6,T,,M,2.9,N,5.4,K,D*03
17:17:45.689 [OCR3] 0000008A
17:17:46.000 [DBG ] $STAT,RECORDING
17:17:46.004 [APLA] $UTC,20211111,171746.0048
17:17:45.952 [OCR3] 0000008B
17:17:45.806 [OCR2] 0000008C
17:17:45.822 [OCR1] 0000008D
17:17:46.206 [OCR3] 0000008E
17:17:46.472 [OWL ] SEAOWLA2K-0145	3988	119	-296	-296	1464	575	3030	3030	2482	2482	-79	-409	-409
17:17:46.240 [OCR2] 0000008F
17:17:46.260 [OCR1] 00000090
17:17:46.459 [OCR3] 00000091
17:17:46.704 [ECO ] 99/99/99	99:99:99	700	72	595	91	680	270	557
17:17:46.927 [APLA] $GPGGA,171746.922,4828.76350,N,06830.64557,W,4,07,1.2,0.25,M,,,0,0004*1D
17:17:46.933 [APLA] $GPVTG,125.2,T,,M,2.5,N,4.6,K,D*09
17:17:46.722 [OCR3] 00000092
17:17:47.000 [DBG ] $STAT,RECORDING
17:17:47.004 [APLA] $UTC,20211111,171747.0048
17:17:46.686 [OCR2] 00000093
17:17:46.705 [OCR1] 00000094
17:17:46.976 [OCR3] 00000095
17:17:47.287 [OWL ] SEAOWLA2K-0145	3988	70	-171	-171	1464	438	1985	1985	2490	2490	233	484	484
17:17:47.123 [OCR2] 00000096
17:17:47.142 [OCR1] 00000097
17:17:47.229 [OCR3] 00000098
17:17:47.829 [ECO ] 99/99/99	99:99:99	700	22	595	125	680	185	557
17:17:47.927 [APLA] $GPGGA,171747.922,4828.76314,N,06830.64477,W,4,07,1.2,0.25,M,,,0,0004*1F
17:17:47.933 [APLA] $GPVTG,122.8,T,,M,2.2,N,4.0,K,D*05
17:17:47.593 [OCR3] 00000099
17:17:48.000 [DBG ] $STAT,RECORDING
17:17:47.568 [OCR2] 0000009A
17:17:48.004 [APLA] $UTC,20211111,171748.8
17:17:47.587 [OCR1] 0000009B
17:17:48.100 [OWL ] SEAOWLA2K-0145	4000	55	127	127	1464	327	465	465	2483	2483	96	275	275
17:17:47.947 [OCR3] 0000009C
17:17:48.004 [OCR2] 0000009D
17:17:48.199 [OCR3] 0000009E
17:17:48.025 [OCR1] 0000009F
17:17:48.463 [OCR3] 000000A0
17:17:48.451 [OCR2] 000000A1
17:17:48.470 [OCR1] 000000A2
17:17:48.927 [APLA] $GPGGA,171748.922,4828.76283,N,06830.64406,W,4,07,1.2,0.24,M,,,0,0004*18
17:17:48.933 [APLA] $GPVTG,122.5,T,,M,1.9,N.5,K,D*02
17:17:48.716 [OCR3] 000000A3
17:17:48.910 [OWL ] SEAOWLA2K-0145	3998	31	-261	-261	1464	113	556	556	2493	2493	130	35	35
17:17:48.954 [ECO ] 99/99/99	99:99:99	700	57	595	91	680	118	557
17:17:49.000 [DBG ] $STAT,RECORDING
17:17:49.004 [APLA] $UTC,20211111,171749.0048
17:17:48.969 [OCR3] 000000A4
17:17:48.885 [OCR2] 000000A5
17:17:48.908 [OCR1] 000000A6
17:17:49.233 [OCR3] 000000A7
17:17:49.486 [OCR3] 000000A8
17:17:49.333 [OCR2] 000000A9
17:17:49.719 [OWL ] SEAOWLA2K-0145	3988	73	-187	-187	1463	309	536	536	2491	2491	-19	-325	-325
17:17:49.353 [OCR1] 000000AA
17:17:49.927 [APLA] $GPGGA,171749.922,4828.76255,N,06830.64344,W,4,07,1.2,0.25,M,,,0,0004*12
17:17:49.933 [APLA] $GPVTG,125.5,T,,M,1.7,N,3.2,K,D*0C
17:17:50.000 [DBG ] $STAT,RECORDING
17:17:49.739 [OCR3] 000000AB
17:17:50.004 [APLA] $UTC,20211111,171750.0048
17:17:50.079 [ECO ] 99/99/99	99:99:99	700	46	595	-55	680	-36	557
17:17:49.767 [OCR2] 000000AC
17:17:49.789 [OCR1] 000000AD
17:17:50.003 [OCR3] 000000AE
17:17:50.255 [OCR3] 000000AF
17:17:50.531 [OWL ] SEAOWLA2K-0145	3998	37	-171	-171	1463	210	991	991	2487	2487	48	-39	-39
17:17:50.213 [OCR2] 000000B0
17:17:50.236 [OCR1] 000000B1
17:17:50.508 [OCR3] 000000B2
17:17:50.927 [APLA] $GPGGA,171750.922,4828.76228,N,06830.64287,W,4,07,1.2,0.26,M,,,0,0004*1D
17:17:50.934 [APLA] $GPVTG,124.3,T,,M,1.6,N,2.9,K,D*00
17:17:51.000 [DBG ] $STAT,RECORDING
17:17:51.004 [APLA] $UTC,20211111,171751.0048
17:17:50.772 [OCR3] 000000B3
17:17:50.651 [OCR2] 000000B4
17:17:50.672 [OCR1] 000000B5
17:17:51.204 [ECO ] 99/99/99	99:99:99	700	50	595	-11	680	-55	557
17:17:51.025 [OCR3] 000000B6
17:17:51.341 [OWL ] SEAOWLA2K-0145	3998	73	176	176	1464	151	1225	1225	2483	2483	54	42	42
17:17:51.095 [OCR2] 000000B7
17:17:51.278 [OCR3] 000000B8
17:17:51.120 [OCR1] 000000B9
17:17:51.542 [OCR3] 000000BA
17:17:51.927 [APLA] $GPGGA,171751.922,4828.76203,N,06830.64228,W,4,07,1.2,0.24,M,,,0,0004*12
17:17:51.934 [APLA] $GPVTG,123.2,T,,M,1.9,N,3.5,K,D*04
17:17:51.531 [OCR2] 000000BB
17:17:52.000 [DBG ] $STAT,RECORDING
17:17:51.555 [OCR1] 000000BC
17:17:52.004 [APLA] $UTC,20211111,171752048
17:17:51.795 [OCR3] 000000BD
17:17:52.150 [OWL ] SEAOWLA2K-0145	3997	40	-50	-50	1464	315	663	663	2486	2486	-17	106	106
17:17:52.048 [OCR3] 000000BE
17:17:52.329 [ECO ] 99/99/99	99:99:99	700	30	595	47	680	85	557
17:17:51.978 [OCR2] 000000BF
17:17:52.004 [OCR1] 000000C0
17:17:52.313 [OCR3] 000000C1
17:17:52.566 [OCR3] 000000C2
17:17:52.412 [OCR2] 000000C3
17:17:52.438 [OCR1] 000000C4
17:17:52.927 [APLA] $GPGGA,171752.922,4828.76172,N,06830.64162,W,4,07,1.2,0.23,M,,,0,0004*1E
17:17:52.934 [APLA] $GPVTG,8.8,T,,M,2.0,N,3.8,K,D*02
17:17:53.000 [DBG ] $STAT,RECORDING
17:17:53.004 [APLA] $UTC,20211111,171753.0048
17:17:52.959 [OWL ] SEAOWLA2K-0145	3987	24	425	425	1463	384	1849	1849	2493	2493	62	326	326
17:17:52.819 [OCR3] 000000C5
17:17:52.860 [OCR2] 000000C6
17:17:52.888 [OCR1] 000000C7
17:17:53.083 [OCR3] 000000C8
17:17:53.453 [ECO ] 99/99/99	99:99:99	700	63	595	52	680	179	557
17:17:53.337 [OCR3] 000000C9
17:17:53.295 [OCR2] 000000CA
17:17:53.322 [OCR1] 000000CB
17:17:53.770 [OWL ] SEAOWLA2K-0145	3987	89	10	10	1463	269	1397	1397	2484	2484	-38	345	345
17:17:53.589 [OCR3] 000000CC
17:17:53.927 [APLA] $GPGGA,171753.922,4828.76135,N,06830.64094,W,4,07,1.2,0.24,M,,,0,0004*13
17:17:53.934 [APLA] $GPVTG,131.2,T,,M,2.2,N,4.1,K,D*0C
17:17:54.000 [DBG ] $STAT,RECORDING
17:17:54.004 [APLA] $UTC,20211111,171754.0048
17:17:53.853 [OCR3] 000000CD
17:17:53.741 [OCR2] 000000CE
17:17:53.770 [OCR1] 000000CF
17:17:54.107 [OCR3] 000000D0
17:17:54.577 [ECO ] 99/99/99	99:99:99	700	62	595	73	680	28	557
17:17:54.178 [OCR2] 000000D1
17:17:54.359 [OCR3] 000000D2
17:17:54.580 [OWL ] SEAOWLA2K-0145	3997	43	-133	-133	1464	366	2057	2057	2489	2489	55	436	436
17:17:54.204 [OCR1] 000000D3
17:17:54.625 [OCR3] 000000D4
17:17:54.927 [APLA] $GPGGA,171754.922,4828.76095,N,06830.64022,W,4,07,1.2,0.24,M,,,0,0004*12
17:17:54.934 [APLA] $GPVTG,129.3,T,,M,2.3,N,4.3,D*07
17:17:55.000 [DBG ] $STAT,RECORDING
17:17:55.004 [APLA] $UTC,20211111,171755.0048
17:17:54.623 [OCR2] 000000D5
17:17:54.651 [OCR1] 000000D6
17:17:54.876 [OCR3] 000000D7
17:17:55.129 [OCR3] 000000D8
17:17:55.392 [OWL ] SEAOWLA2K-0145	3998	34	499	499	1463	483	1460	1460	2488	2488	-25	-291	-291
17:17:55.058 [OCR2] 000000D9
17:17:55.087 [OCR1] 000000DA
17:17:55.393 [OCR3] 000000DB
17:17:55.701 [ECO ] 99/99/99	99:99:99	700	31	595	-74	680	-154	557
17:17:55.646 [OCR3] 000000DC
17:17:55.927 [APLA] $GPGGA,171755.922,4828.76053,N,06830.63945,W,4,07,1.2,0.23,M,,,0,0004*11
17:17:55.934 [APLA] $GPVTG,129.8,T,,M,2.4,N,4.5,K,D*0D
17:17:55.507 [OCR2] 000000DD
17:17:55.534 [OCR1] 000000DE
17:17:56.000 [DBG ] $STAT,RECORDING
17:17:56.004 [APLA] UTC,20211111,171756.0048
17:17:55.899 [OCR3] 000000DF
17:17:56.205 [OWL ] SEAOWLA2K-0145	3987	45	4	4	1463	113	201	201	2486	2486	5	-537	-537
17:17:55.947 [OCR2] 000000E0
17:17:56.163 [OCR3] 000000E1
17:17:55.970 [OCR1] 000000E2
17:17:56.416 [OCR3] 000000E3
17:17:56.386 [OCR2] 000000E4
17:17:56.419 [OCR1] 000000E5
17:17:56.827 [ECO ] 99/99/99	99:99:99	700	44	595	164	680	-33	557
17:17:56.669 [OCR3] 000000E6
17:17:56.927 [APLA] $GPGGA,171756.922,4828.76009,N,06830.63863,W,4,,1.2,0.24,M,,,004*1F
17:17:56.934 [APLA] $GPVTG,127.7,T,,M,2.6,N,4.8,K,D*03
17:17:57.000 [DBG ] $STAT,RECORDING
17:17:57.004 [APLA] $UTC,202111,171757.0048
17:17:57.011 [OWL ] SEAOWLA2K-0145	3986	50	-143	-143	1463	339	2538	2538	2497	2497	-89	-253	-253
17:17:56.933 [OCR3] 000000E7
17:17:56.823 [OCR2] 000000E8
17:17:56.855 [OCR1] 000000E9
17:17:57.186 [OCR3] 000000EA
17:17:57.439 [OCR3] 000000EB
17:17:57.268 [OCR2] 000000EC
17:17:57.300 [OCR1] 000000ED
17:17:57.825 [OWL ] SEAOWLA2K-0145	3998	69	70	70	1463	420	3141	3141	2483	2483	-72	-180	-180
17:17:57.927 [APLA] $GPGGA,171757.922,4828.75965,N,06830.63777,W,4,07,1.2,0.24,M,,,0,0004*14
17:17:57.934 [APLA] $GPVTG,128.0,T,,M,2.7,N,4.9,K,D*0B
17:17:57.703 [OCR3] 000000EE
17:17:57.952 [ECO ] 99/99/99	99:99:99	700	65	595	41	680	11	557
17:17:58.000 [DBG ] $STAT,RECORDING
17:17:58.004 [APLA] $UTC,20211111,171758.0048
17:17:57.705 [OCR2] 000000EF
17:17:57.738 [OCR1] 000000F0
17:17:57.956 [OCR3] 000000F1
17:17:58.209 [OCR3] 000000F2
17:17:58.151 [OCR2] 000000F3
17:17:58.183 [OCR1] 000000F4
17:17:58.636 [OWL ] SEAOWLA2K-0145	3987	22	-119	-119	1462	403	3375	3375	2485	2485	131	-377	-377
17:17:58.473 [OCR3] 000000F5
17:17:58.927 [APLA] $GPGGA,171758.922,4828.75923,N,06830.63696,W,4,07,1.2,0.24,M,,,0,0004*17
17:17:58.934 [APLA] $GPVTG,128.0,T,,M,2.2,N,4.1,K,D*06
17:17:58.725 [OCR3] 000000F6
17:17:59.000 [DBG ] $STAT,RECORDING
17:17:59.004 [APLA] $UTC,20211111,17175948
17:17:58.585 [OCR2] 000000F7
17:17:58.621 [OCR1] 000000F8
17:17:59.076 [ECO ] 99/99/99	99:99:99	700	50	595	160	680	100	557
17:17:58.978 [OCR3] 000000F9
17:17:59.033 [OCR2] 000000FA
17:17:59.242 [OCR3] 000000FB
17:17:59.066 [OCR1] 000000FC
17:17:59.450 [OWL ] SEAOWLA2K-0145	3997	106	222	222	1463	384	2617	2617	2484	2484	65	-8	-8
17:17:59.495 [OCR3] 000000FD
17:17:59.467 [OCR2] 000000FE
17:17:59.927 [APLA] GPGGA,171759.922,4828.75887,N,06830.63627,W,4,07,1.2,0.25,M,,,0,0004*12
17:17:59.934 [APLA] $GPVTG,127.8,T,,M,2.0,N,3.6,K,D*03
17:17:59.504 [OCR1] 000000FF
17:18:00.000 [DBG ] $STAT,RECORDING
17:18:00.004 [APLA] $UTC,20211111,171800.0048
17:17:59.748 [OCR3] 00000100
17:18:00.201 [ECO ] 99/99/99	99:99:99	700	49	595	52	680	124	557
17:18:00.012 [OCR3] 00000101
17:18:00.260 [OWL ] SEAOWLA2K-0145	3986	3	57	57	1463	326	1884	1884	2486	2486	209	-7	-7
17:17:59.913 [OCR2] 00000102
17:17:59.949 [OCR1] 00000103
17:18:00.265 [OCR3] 00000104
17:18:00.518 [OCR3] 00000105
17:18:00.351 [OCR2] 00000106
17:18:00.385 [OCR1] 00000107
17:18:00.927 [APLA] $GPGGA,171800.922,4828.75858,N,06830.63565,W,4,07,1.2,0.25,M,,,0,0004*16
17:18:00.934 [APLA] $GPVTG,125.4,T,,M,1.7,N,3.2,K,D*0D
17:18:01.000 [DBG ] $STAT,RECORDING
17:18:01.004 [APLA] $UTC,20211111,171801.0048
17:18:00.782 [OCR3] 00000108
17:18:01.067 [OWL ] SEAOWLA2K-0145	3994	31	511	511	1463	386	1625	1625	2491	2491	199	39	39
17:18:00.795 [OCR2] 00000109
17:18:00.831 [OCR1] 0000010A
17:18:01.035 [OCR3] 0000010B
17:18:01.326 [ECO ] 99/99/99	99:99:99	700	122	595	13	680	-87	557
17:18:01.288 [OCR3] 0000010C
17:18:01.231 [OCR2] 0000010D
17:18:01.267 [OCR1] 0000010E
17:18:01.552 [OCR3] 0000010F
17:18:01.927 [APLA] $GPGGA,171801.922,4828.75832,N,06830.63510,W,4,07,1.2,0.24,M,,,0,0004*18
17:18:01.877 [OWL ] SEAOWLA2K-0145	3985	124	237	237	1462	325	1557	1557	2488	2488	-36	150	150
17:18:01.934 [APLA] $GPVTG,126.3,T,,M,1.6,N,2.9,K,D*02
17:18:02.000 [DBG ] $STAT,RECORDING
17:18:02.004 [APLA] $UTC,20211111,171802.0048
17:18:01.805 [OCR3] 00000110
17:18:01.679 [OCR2] 00000111
17:18:01.715 [OCR1] 00000112
17:18:02.057 [OCR3] 00000113
17:18:02.451 [ECO ] 99/99/99	99:99:99	700	43	595	89	680	81	557
17:18:02.113 [OCR2] 00000114
17:18:02.321 [OCR3] 00000115
17:18:02.150 [OCR1] 00000116
17:18:02.689 [OWL ] SEAOWLA2K-0145	3985	-60	-280	-280	1462	217	1535	1535	2489	2489	-90	-428	-428
17:18:02.575 [OCR3] 00000117
17:18:02.927 [APLA] $GPGGA,171802.922,4828.75807,N,06830.63459,W,4,07,1.2,0.25,M,,,0,0004*10
17:18:02.934 [APLA] $GPVTG,124.5,T,,M,1.4,N,2.7,K,D*0A
17:18:02.559 [OCR2] 00000118
17:18:03.000 [DBG ] $STAT,RECORDING
17:18:03.004 [APLA] $UTC,20211111,171803.0048
17:18:02.598 [OCR1] 00000119
17:18:02.828 [OCR3] 0000011A
17:18:03.091 [OCR3] 0000011B
17:18:02.997 [OCR2] 0000011C
17:18:03.032 [OCR1] 0000011D
17:18:03.503 [OWL ] SEAOWLA2K-0145	3985	52	173	173	1462	509	3041	3041	2482	2482	63	193	193
17:18:03.344 [OCR3] 0000011E
17:18:03.575 [ECO ] 99/99/99	99:99:99	700	43	595	49	680	26	557
17:18:03.597 [OCR3] 0000011F
17:18:03.441 [OCR2] 00000120
17:18:03.481 [OCR1] 00000121
17:18:03.927 [APLA] $GPGGA,171803.94828.75785,N,06830.63413,W,4,07,1.2,0.24,M,,,0004*1B
17:18:03.934 [APLA] $GPVTG,123.9,T,,M,1.3,N,2.4,K,D*05
17:18:04.000 [DBG ] $STAT,RECORDING
17:18:04.004 [APLA] $UTC,20211111,171804.0048
17:18:03.861 [OCR3] 00000122
17:18:03.877 [OCR2] 00000123
17:18:03.915 [OCR1] 00000124
17:18:04.114 [OCR3] 00000125
17:18:04.314 [OWL ] SEAOWLA2K-0145	3985	61	-107	-107	1462	283	1379	1379	2483	2483	7	-344	-344
17:18:04.367 [OCR3] 00000126
17:18:04.699 [ECO ] 99/99/99	99:99:99	700	50	595	66	680	146	557
17:18:04.325 [OCR2] 00000127
17:18:04.364 [OCR1] 00000128
17:18:04.630 [OCR3] 00000129
17:18:04.927 [APLA] $GPGGA,171804.922,4828.75765,N,06830.63371,W,4,07,1.2,0.24,M,,,0,0004*11
17:18:04.934 [APLA] $GPVTG,122.8,T,,M,1.2,N,2.2,K,D*02
17:18:05.000 [DBG ] $STAT,RECORDING
17:18:05.004 [APLA] $UTC,20211111,171805.0048
17:18:04.883 [OCR3] 0000012A
17:18:05.127 [OWL ] SEAOWLA2K-0145	3985	-21	-77	-77	1462	248	1888	1888	2484	2484	53	9	9
17:18:04.759 [OCR2] 0000012B
17:18:04.798 [OCR1] 0000012C
17:18:05.136 [OCR3] 0000012D
17:18:05.400 [OCR3] 0000012E
17:18:05.205 [OCR2] 0000012F
17:18:05.245 [OCR1] 00000130
17:18:05.824 [ECO ] 99/99/99	99:99:99	700	51	595	56	680	39	557
17:18:05.653 [OCR3] 00000131
17:18:05.927 [APLA] $GPGGA,171805.922,4828.75747,N,06830.63332,W,4,07,1.2,0.25,M,,,0,0016
17:18:05.934 [APLA] $GPVTG,124.5,T,,M,1.1,N,2.1,K,D*09
17:18:05.934 [OWL ] SEAOWLA2K-0145	3994	50	198	198	1462	364	2787	2787	2492	2492	60	176	176
17:18:06.000 [DBG ] $STAT,RECORDING
17:18:06.004 [APLA] $UTC,20211111,171806.0048
17:18:05.906 [OCR3] 00000132
17:18:05.741 [OCR2] 00000133
17:18:05.783 [OCR1] 00000134
17:18:06.170 [OCR3] 00000135
17:18:06.422 [OCR3] 00000136
17:18:06.287 [OCR2] 00000137
17:18:06.327 [OCR1] 00000138
17:18:06.745 [OWL ] SEAOWLA2K-0145	3995	52	388	388	1462	396	1749	1749	2487	2487	68	190	190
17:18:06.927 [APLA] $GPGGA,171806.922,4828.75730,N,06830.63295,W,4,06,1.7,0.25,M,,,0,0004*1D
17:18:06.934 [APLA] $GPVTG,126.8,T,,M,1.0,N,1.9,K,D*0C
17:18:06.676 [OCR3] 00000139
17:18:06.947 [ECO ] 99/99/99	99:99:99	700	48	595	83	680	59	557
17:18:07.000 [DBG ] $STAT,RECORDING
17:18:07.004 [APLA] $UTC,20211111,171807.0048
17:18:06.722 [OCR2] 0000013A
17:18:06.947 [OCR3] 0000013B
17:18:06.764 [OCR1] 0000013C
17:18:07.192 [OCR3] 0000013D
17:18:07.170 [OCR2] 0000013E
17:18:07.556 [OWL ] SEAOWLA2K-0145	3995	44	32	32	1462	273	1854	1854	2482	2482	55	101	101
17:18:07.209 [OCR1] 0000013F
17:18:07.445 [OCR3] 00000140
17:18:07.927 [APLA] $GPGGA,171807.922,4828.75714,N,06830.63262,W,4,06,1.7,0.25,M,,,0,0004*12
17:18:07.934 [APLA] $GPVTG,124.1,T,,M,1.0,N,1.8,K,D*06
17:18:07.709 [OCR3] 00000141
17:18:08.000 [DBG ] $STAT,RECORDING
17:18:08.004 [APLA] $UTC,20211111,171808.0048
17:18:07.604 [OCR2] 00000142
17:18:07.646 [OCR1] 00000143
17:18:08.071 [ECO ] 99/99/99	99:99:99	700	67	595	88	680	90	557
17:18:07.961 [OCR3] 00000144
17:18:08.365 [OWL ] SEAOWLA2K-0145	3995	49	384	384	1462	328	2475	2475	2490	2490	65	63	63
17:18:08.214 [OCR3] 00000145
17:18:08.050 [OCR2] 00000146
17:18:08.092 [OCR1] 00000147
17:18:08.478 [OCR3] 00000148
17:18:08.488 [OCR2] 00000149
17:18:08.927 [APLA] $GPGGA,171808.922,4828.75695,N,06830.63219,W,4,06,1,0.24,M,,,0,0004*18
17:18:08.934 [APLA] $GPVTG,123.5,T,,M,1.4,N,2.6,K,D*0C
17:18:08.528 [OCR1] 0000014A
17:18:08.731 [OCR3] 0000014B
17:18:09.000 [DBG ] $STAT,RECORDING
17:18:09.004 [APLA] $UTC,20211111,171809.0048
17:18:09.195 [ECO ] 99/99/99	99:99:99	700	28	595	59	680	-18	557
17:18:09.175 [OWL ] SEAOWLA2K-0145	3995	22	143	143	1462	499	3839	3839	2485	2485	93	-23	-23
17:18:08.984 [OCR3] 0000014C
17:18:08.932 [OCR2] 0000014D
17:18:08.974 [OCR1] 0000014E
17:18:09.247 [OCR3] 0000014F
17:18:09.500 [OCR3] 00000150
17:18:09.367 [OCR2] 00000151
17:18:09.410 [OCR1] 00000152
17:18:09.927 [APLA] $GPGGA,171809.922,4828.75670,N,06830.63166,W,4,06,1.7,0.24,M,,,0,0004*19
17:18:09.934 [APLA] $GPVT126.2,T,,M,1.7,N,3.2,K,D*08
17:18:10.000 [DBG ] $STAT,RECORDING
17:18:10.004 [APLA] $UTC,20211111,171810.0048
17:18:09.753 [OCR3] 00000153
17:18:09.985 [OWL ] SEAOWLA2K-0145	3995	46	-73	-73	1461	322	2385	2385	2485	2485	51	14	14
17:18:09.815 [OCR2] 00000154
17:18:10.016 [OCR3] 00000155
17:18:09.858 [OCR1] 00000156
17:18:10.320 [ECO ] 99/99/99	99:99:99	700	42	595	97	680	-28	557
17:18:10.270 [OCR3] 00000157
17:18:10.249 [OCR2] 00000158
17:18:10.292 [OCR1] 00000159
17:18:10.522 [OCR3] 0000015A
17:18:10.794 [OWL ] SEAOWLA2K-0145	3994	133	182	182	1462	337	2753	2753	2490	2490	52	28	28
17:18:10.927 [APLA] $GPGGA,171810.922,4828.75639,N,06830.63104,W,4,06,1.7,0.23,M,,,0,0004*1F
17:18:10.934 [APLA] $GPVTG,129.2,T,,M,2.0,N,3.7,K,D*06
17:18:11.000 [DBG ] $STAT,RECORDING
17:18:11.004 [APLA] $UTC,20211111,171811.0048
17:18:10.786 [OCR3] 0000015B
17:18:10.696 [OCR2] 0000015C
17:18:10.740 [OCR1] 0000015D
17:18:11.039 [OCR3] 0000015E
17:18:11.444 [ECO ] 99/99/99	99:99:99	700	51	595	10	680	121	557
17:18:11.292 [OCR3] 0000015F
17:18:11.133 [OCR2] 00000160
17:18:11.173 [OCR1] 00000161
17:18:11.604 [OWL ] SEAOWLA2K-0145	3983	24	-35	-35	1461	364	1499	1499	2483	2483	46	38	38
17:18:11.555 [OCR3] 00000162
17:18:11.927 [APLA] $GPGGA,171811.922,4828.75605,N,06830.63035,W,4,06,1.7,0.24,M,,,0,0004*15
17:18:11.934 [APLA] $GPVTG,125.1,T,,M,2.1,N,4.0,K,D*08
17:18:12.000 [DBG ] $STAT,RECORDING
17:18:12.004 [APLA] $UTC,20211111,171812.0048
17:18:11.577 [OCR2] 00000163
17:18:11.622 [OCR1] 00000164
17:18:11.808 [OCR3] 00000165
17:18:12.061 [OCR3] 00000166
17:18:12.013 [OCR2] 00000167
17:18:12.412 [OWL ] SEAOWLA2K-0145	3984	87	205	205	1461	279	2429	2429	2490	2490	54	105	105
17:18:12.055 [OCR1] 00000168
17:18:12.325 [OCR3] 00000169
17:18:12.568 [ECO ] 99/99/99	99:99:99	700	61	595	85	680	158	557
17:18:12.578 [OCR3] 0000016A
17:18:12.461 [OCR2] 0000016B
17:18:12.927 [APLA] $GPGGA,171812.922,4828.75573,N,06830.62969,W,4,06,1.7,0.23,M,,,0,0004*12
17:18:12.934 [APLA] $GPVTG,127.2,T,,M,1.7,N,3.2,K,D*09
17:18:12.504 [OCR1] 0000016C
17:18:13.000 [DBG ] $STAT,RECORDING
17:18:13.004 [APLA] $UTC,20211111,171813.0048
17:18:12.831 [OCR3] 0000016D
17:18:13.223 [OWL ] SEAOWLA2K-0145	3985	41	27	27	1461	329	2571	2571	2491	2491	63	205	205
17:18:12.895 [OCR2] 0000016E
17:18:13.095 [OCR3] 0000016F
17:18:12.947 [OCR1] 00000170
17:18:13.347 [OCR3] 00000171
17:18:13.693 [ECO ] 99/99/99	99:99:99	700	48	595	74	680	134	557
17:18:13.341 [OCR2] 00000172
17:18:13.384 [OCR1] 00000173
17:18:13.927 [APLA] $GPGGA,171813.922,4828.75547,N,06830.62913,W,4,06,1.7,0.24,M,,,0,0004*1E
17:18:13.934 [APLA] $GPVTG,126.1,T,,M,1.5,N,2.8,K,D*02
17:18:14.000 [DBG ] $STAT,RECORDING
17:18:14.004 [APLA] $UTC,20211111,171814.0048
17:18:13.700 [OCR3] 00000174
17:18:14.033 [OWL ] SEAOWLA2K-0145	3984	5	-40	-40	1461	332	1319	1319	2488	2488	193	428	428
17:18:13.779 [OCR2] 00000175
17:18:13.819 [OCR1] 00000176
17:18:14.064 [OCR3] 00000177
17:18:14.317 [OCR3] 00000178
17:18:14.223 [OCR2] 00000179
17:18:14.266 [OCR1] 0000017A
17:18:14.570 [OCR3] 0000017B
17:18:14.817 [ECO ] 99/99/99	99:99:99	700	49	595	52	680	91	557
17:18:14.843 [OWL ] SEAOWLA2K-0145	3995	9	-179	-179	1461	363	2265	2265	2492	2492	-27	-292	-292
17:18:14.927 [APLA] $GPGGA,171814.922,4828.75526,N,06830.62868,W,4,07,1.2,0.24,M,,,0,0004*17
17:18:14.934 [APLA] $GPVTG,123.2,T,,M,1.2,N,2.2,K,D*09
17:18:15.002 [DBG ] $STAT,RECORDING
17:18:15.004 [APLA] $UTC,20211111,171815.0048
17:18:14.834 [OCR3] 0000017C
17:18:14.659 [OCR2] 0000017D
17:18:14.704 [OCR1] 0000017E
17:18:15.087 [OCR3] 0000017F
17:18:15.107 [OCR2] 00000180
17:18:15.148 [OCR1] 00000181
17:18:15.340 [OCR3] 00000182
17:18:15.656 [OWL ] SEAOWLA2K-0145	3984	67	-118	-118	1461	427	2865	2865	2493	2493	75	242	242
17:18:15.604 [OCR3] 00000183
17:18:15.927 [APLA] $GPGGA,17181922,4828.75509,N,06830.62826,W,4,07,1.2,0.24,M,,,0,0004*11
17:18:15.934 [APLA] $GPVTG,121.1,T,,M,1.1,N,2.1,K,D*08
17:18:15.941 [ECO ] 99/99/99	99:99:99	700	50	595	57	680	47	557
17:18:15.540 [OCR2] 00000184
17:18:16.000 [DBG ] $STAT,RECORDING
17:18:16.004 [APLA] $UTC,20211111,171816.0048
17:18:15.585 [OCR1] 00000185
17:18:15.856 [OCR3] 00000186
17:18:16.109 [OCR3] 00000187
17:18:15.986 [OCR2] 00000188
17:18:16.030 [OCR1] 00000189
17:18:16.468 [OWL ] SEAOWLA2K-0145	3984	27	293	293	1461	363	2572	2572	2482	2482	99	440	440
17:18:16.373 [OCR3] 0000018A
17:18:16.424 [OCR2] 0000018B
17:18:16.626 [OCR3] 0000018C
17:18:16.467 [OCR1] 0000018D
17:18:16.927 [APLA] $GPGGA,171816.922,4828.75493,N,06830.62788,W,4,07,1.2,5,M,,,0,0004*1A
17:18:16.934 [APLA] $GPVTG,122.5,T,,M,1.0,N,1.9,K,D*05
17:18:17.000 [DBG ] $STAT,RECORDING
17:18:17.004 [APLA] $UTC,20211111,171817.0048
17:18:17.065 [ECO ] 99/99/99	99:99:99	700	50	595	44	680	6	557
17:18:16.878 [OCR3] 0000018E
17:18:16.868 [OCR2] 0000018F
17:18:17.280 [OWL ] SEAOWLA2K-0145	3985	85	252	252	1461	347	2299	2299	2483	2483	68	217	217
17:18:16.912 [OCR1] 00000190
17:18:17.142 [OCR3] 00000191
17:18:17.395 [OCR3] 00000192
17:18:17.304 [OCR2] 00000193
17:18:17.349 [OCR1] 00000194
17:18:17.648 [OCR3] 00000195
17:18:17.927 [APLA] $GPGGA,171817.922,4828.75477,N,06830.62753,W,4,07,1.2,0.24,M,,,0,0004*16
17:18:17.934 [APLA] $GPVTG,123.6,T,,M,1.0,N,1.8,K,D*06
17:18:18.000 [DBG ] $STAT,RECORDING
17:18:18.004 [APLA] $UTC,20211111,171818.0048
17:18:18.090 [OWL ] SEAOWLA2K-0145	3985	60	424	424	1460	375	2448	2448	2488	2488	58	132	132
17:18:17.911 [OCR3] 00000196
17:18:17.752 [OCR2] 00000197
17:18:18.188 [ECO ] 99/99/99	99:99:99	700	50	595	48	680	78	557
17:18:17.794 [OCR1] 00000198
17:18:18.165 [OCR3] 00000199
17:18:18.185 [OCR2] 0000019A
17:18:18.229 [OCR1] 0000019B
17:18:18.417 [OCR3] 0000019C
17:18:18.927 [APLA] $GPGGA,171818.922,4828.75463,N,06830.62721,W,4,07,1.2,0.24,M,,,0,0004*1
17:18:18.934 [APLA] $GPVTG,122.4,T,,M,0.9,N,1.7,K,D*02
17:18:18.681 [OCR3] 0000019D
17:18:18.901 [OWL ] SEAOWLA2K-0145	3984	45	-150	-150	1460	335	2347	2347	2486	2486	42	34	34
17:18:19.000 [DBG ] $STAT,RECORDING
17:18:19.004 [APLA] $UTC,20211111,171810048
17:18:18.632 [OCR2] 0000019E
17:18:18.675 [OCR1] 0000019F
17:18:18.947 [OCR3] 000001A0
17:18:19.311 [ECO ] 99/99/99	99:99:99	700	50	595	65	680	16	557
17:18:19.187 [OCR3] 000001A1
17:18:19.069 [OCR2] 000001A2
17:18:19.111 [OCR1] 000001A3
17:18:19.450 [OCR3] 000001A4
17:18:19.711 [OWL ] SEAOWLA2K-0145	3983	49	31	31	1460	291	2205	2205	2483	2483	60	133	133
17:18:19.927 [APLA] $GPGGA,171819.922,4828.75450,N,06830.62689,W,4,07,1.2,0.24,M,,,0,0004*1B
17:18:19.934 [APLA] $GPVTG,120.5,T,,M,0.9,N,1.6,K,D*00
17:18:19.513 [OCR2] 000001A5
17:18:19.703 [OCR3] 000001A6
17:18:19.559 [OCR1] 000001A7
17:18:20.000 [DBG ] $STAT,RECORDING
17:18:20.004 [APLA] $UTC,20211111,171820.0048
17:18:19.956 [OCR3] 000001A8
17:18:19.949 [OCR2] 000001A9
17:18:19.993 [OCR1] 000001AA
17:18:20.436 [ECO ] 99/99/99	99:99:99	700	48	595	45	680	35	557
17:18:20.219 [OCR3] 000001AB
17:18:20.521 [OWL ] SEAOWLA2K-0145	3983	26	-71	-71	1460	415	2534	2534	2485	2485	46	106	106
17:18:20.472 [OCR3] 000001AC
17:18:20.397 [OCR2] 000001AD
17:18:20.441 [OCR1] 000001AE
17:18:20.927 [APLA] $GPGGA,171820.922,4828.75438,N,06830.62659,W,4,07,1.2,0.24,M,,,0,0004*12
17:18:20.934 [APLA] $GPVTG,121.1,T,,M,0.8,N,1.5,K,D*07
17:18:20.725 [OCR3] 000001AF
17:18:21.000 [DBG ] $STAT,RECORDING
17:18:21.004 [APLA] $UTC,20211111,171821.0048
17:18:20.989 [OCR3] 000001B0
17:18:20.830 [OCR2] 000001B1
17:18:20.875 [OCR1] 000001B2
17:18:21.331 [OWL ] SEAOWLA2K-0145	3984	21	-65	-65	1460	364	2807	2807	2492	2492	50	50	50
17:18:21.242 [OCR3] 000001B3
17:18:21.559 [ECO ] 99/99/99	99:99:99	700	50	595	50	680	37	557
17:18:21.277 [OCR2] 000001B4
17:18:21.323 [OCR1] 000001B5
17:18:21.494 [OCR3] 000001B6
17:18:21.927 [APLA] $GPGGA,171821.922,4828.75428,N,06830.62635,W,4,07,1.2,0.25,M,,,0,0004*19
17:18:21.934 [APLA] $GPVTG,117.0,T,,M,0.6,N,1.0,K,D*08
17:18:22.000 [DBG ] $STAT,RECORDING
17:18:22.004 [APLA] $UTC,20211111,171822.0048
17:18:21.759 [OCR3] 000001B7
17:18:22.011 [OCR3] ERR
17:18:21.714 [OCR2] 000001B8
17:18:22.140 [OWL ] SEAOWLA2K-0145	3984	90	196	196	1460	614	4534	4534	2491	2491	52	51	51
17:18:21.757 [OCR1] 000001B9
17:18:22.026 [OCR3] 000001BA
17:18:22.264 [OCR3] 000001BB
17:18:22.159 [OCR2] 000001BC
17:18:22.205 [OCR1] 000001BD
17:18:22.683 [ECO ] 99/99/99	99:99:99	700	49	595	60	680	91	557
17:18:22.528 [OCR3] 000001BE
17:18:22.927 [APLA] $GPGGA,171822.922,4828.75422,N,06830.62620,W,4,07,1.2,0.24,M,,,0,0004*15
17:18:22.934 [APLA] $GPVTG,125.9,T,,M,0.3,N,0.6,K,D*02
17:18:23.000 [DBG ] $STAT,RECORDING
17:18:23.004 [APLA] $UTC,20211111,171823.0048
17:18:22.949 [OWL ] SEAOWLA2K-0145	3983	41	193	193	1460	430	3470	3470	2488	2488	70	50	50
17:18:22.781 [OCR3] 000001BF
17:18:22.595 [OCR2] 000001C0
17:18:22.639 [OCR1] 000001C1
17:18:23.034 [OCR3] 000001C2
17:18:23.043 [OCR2] 000001C3
17:18:23.085 [OCR1] 000001C4
17:18:23.298 [OCR3] 000001C5
17:18:23.551 [OCR3] 000001C6
17:18:23.758 [OWL ] SEAOWLA2K-0145	3983	57	280	280	1460	282	1734	1734	2491	2491	50	141	141
17:18:23.807 [ECO ] 99/99/99	99:99:99	700	47	595	59	680	58	557
17:18:23.476 [OCR2] 000001C7
17:18:23.927 [APLA] $GPGGA,171823.922,4828.75418,N,06830.62609,W,4,07,1.2,0.24,M,,,0,0004*16
17:18:23.934 [APLA] $GPVTG,113.7,T,,M,0.3,N,0.5,K,0A
17:18:23.521 [OCR1] 000001C8
17:18:24.000 [DBG ] $STAT,RECORDING
17:18:24.004 [APLA] $UTC,20211111,171824.0048
17:18:23.803 [OCR3] 000001C9
17:18:24.067 [OCR3] 000001CA
17:18:23.923 [OCR2] 000001CB
17:18:23.967 [OCR1] 000001CC
17:18:24.320 [OCR3] 000001CD
17:18:24.569 [OWL ] SEAOWLA2K-0145	3984	57	139	139	1459	636	4988	4988	2485	2485	70	144	144
17:18:24.360 [OCR2] 000001CE
17:18:24.573 [OCR3] 000001CF
17:18:24.404 [OCR1] 000001D0
17:18:24.927 [APLA] $GPGGA,171824.922,4828.75416,N,06830.62597,W,4,07,1.2,0.25,M,,,0,0004*1A
17:18:24.934 [APLA] $GPVTG,116.7,T,,M,0.3,N,0.5,K,D*0F
17:18:24.931 [ECO ] 99/99/99	99:99:99	700	44	595	50	680	66	557
17:18:25.000 [DBG ] $STAT,RECORDING
17:18:25.004 [APLA] $UTC,20211111,171825.0048
17:18:24.836 [OCR3] 000001D1
17:18:24.804 [OCR2] 000001D2
17:18:24.849 [OCR1] 000001D3
17:18:25.090 [OCR3] 000001D4
17:18:25.380 [OWL ] SEAOWLA2K-0145	3982	-23	10	10	1459	1259	7831	7831	2482	2482	54	95	95
17:18:25.343 [OCR3] 000001D5
17:18:25.240 [OCR2] 000001D6
17:18:25.287 [OCR1] 000001D7
17:18:25.606 [OCR3] 000001D8
17:18:25.927 [APLA] $GPGGA,171825.922,4828.75411,N,06830.62588,4,07,1.2,0.25,M,,,0,0004*12
17:18:25.934 [APLA] $GPVTG,136.4,T,,M,0.3,N,0.5,K,D*0E
17:18:26.000 [DBG ] $STAT,RECORDING
17:18:26.004 [APLA] $UTC,20211111,171826.0048
17:18:26.054 [ECO ] 99/99/99	99:99:99	700	50	595	47	680	96	557
17:18:25.859 [OCR3] 000001D9
17:18:25.688 [OCR2] 000001DA
17:18:25.731 [OCR1] 000001DB
17:18:26.190 [OWL ] SEAOWLA2K-0145	3993	-37	2	2	1460	3389	11484	11484	2487	2487	58	100	100
17:18:26.112 [OCR3] 000001DC
17:18:26.121 [OCR2] 000001DD
17:18:26.169 [OCR1] 000001DE
17:18:26.376 [OCR3] 000001DF
17:18:26.628 [OCR3] 000001E0
17:18:26.927 [APLA] $GPGGA,171826.922,4828.75406,N,06830.62579,W,4,06,1.3,0.25,M,,,0,0004*19
17:18:26.934 [APLA] $GPVTG,118.6,T,,M,0.3,N,0.6,K,D*03
17:18:27.000 [DBG ] $STAT,RECORDING
17:18:26.568 [OCR2] 000001E1
17:18:27.004 [APLA] $UTC,211111,171827.0048
17:18:26.613 [OCR1] 000001E2
17:18:27.000 [OWL ] SEAOWLA2K-0145	3982	72	102	102	1459	5912	15686	59120	2488	2488	255	1870	1870
17:18:26.881 [OCR3] 000001E3
17:18:27.178 [ECO ] 99/99/99	99:99:99	700	219	595	58	680	46	557
17:18:27.145 [OCR3] 000001E4
17:18:27.005 [OCR2] 000001E5
17:18:27.051 [OCR1] 000001E6
17:18:27.398 [OCR3] 000001E7
17:18:27.450 [OCR2] 000001E8
17:18:27.817 [OWL ] SEAOWLA2K-0145	3982	269	186	186	1459	2196	10807	10807	2482	2482	574	1225	1225
17:18:27.651 [OCR3] 000001E9
17:18:27.495 [OCR1] 000001EA
17:18:27.927 [APLA] $GPGGA,171827.2,4828.75404,N,06862570,W,4,06,1.3,0.25,M,,,0,0004*13
17:18:27.934 [APLA] $GPVTG,113.0,T,,M,0.2,N,0.4,K,D*0D
17:18:28.000 [DBG ] $STAT,RECORDING
17:18:28.004 [APLA] $UTC,202111,171828.0048
17:18:27.915 [OCR3] 000001EB
17:18:27.885 [OCR2] 000001EC
17:18:28.303 [ECO ] 99/99/99	99:99:99	700	30	595	100	680	324	557
17:18:27.931 [OCR1] 000001ED
17:18:28.168 [OCR3] 000001EE
17:18:28.421 [OCR3] ERR
17:18:28.435 [OCR3] 000001EF
17:18:28.635 [OWL ] SEAOWLA2K-0145	3983	133	143	143	1459	1365	7833	7833	2481	2481	-32	15	15
17:18:28.332 [OCR2] 000001F0
17:18:28.377 [OCR1] 000001F1
17:18:28.927 [APLA] $GPGGA,171828.922,4828.75401,N,06830.62562,W,4,06,1.3,0.26,M,,,0,0004*19
17:18:28.934 [APLA] $GPVTG,126.7,T,,M,0.2,N,0.4,K,D*0C
17:18:28.685 [OCR3] 000001F2
17:18:29.000 [DBG ] $STAT,RECORDING
17:18:29.004 [APLA] $UTC,20211111,171829.0048
17:18:28.947 [OCR3] 000001F3
17:18:28.768 [OCR2] 000001F4
17:18:28.812 [OCR1] 000001F5
17:18:29.191 [OCR3] 000001F6
17:18:29.428 [ECO ] 99/99/99	99:99:99	700	53	595	17	680	27	557
17:18:29.446 [OWL ] SEAOWLA2K-0145	3981	318	600	600	1458	5000	7286	7286	2488	2488	14	206	206
17:18:29.213 [OCR2] 000001F7
17:18:29.260 [OCR1] 000001F8
17:18:29.454 [OCR3] 000001F9
17:18:29.927 [APLA] $GPGGA,171829.922,4828.75398,N,06830.62552,W,4,06,1.3,0.27,M,,,0,0004*1D
17:18:29.934 [APLA] $GPVTG,121.0,T,,M,0.3,N,0.5,K,D*0C
17:18:29.707 [OCR3] 000001FA
17:18:30.002 [DBG ] $STAT,RECORDING
17:18:30.004 [APLA] $UTC,20211111,171830.0048
17:18:29.649 [OCR2] 000001FB
17:18:29.695 [OCR1] 000001FC
17:18:29.960 [OCR3] 000001FD
17:18:30.259 [OWL ] SEAOWLA2K-0145	3993	50	214	214	1459	463	2485	2485	2481	2481	181	331	331
17:18:30.223 [OCR3] 000001FE
17:18:30.097 [OCR2] 000001FF
17:18:30.143 [OCR1] 00000200
17:18:30.552 [ECO ] 99/99/99	99:99:99	700	55	595	69	680	7	557
17:18:30.476 [OCR3] 00000201
17:18:30.927 [APLA] $GPGGA,171830.922,4828.75394,N,06830.62542,W,4,06,1.3,0.27,M,,,0,0004*18
17:18:30.934 [APLA] $GPVTG,122.7,T,,M,0.3,N,0.5,K,D*08
17:18:30.530 [OCR2] 00000202
17:18:30.729 [OCR3] 00000203
17:18:31.000 [DBG ] $STAT,RECORDING
17:18:31.004 [APLA] $C,20211111,17183048
17:18:30.576 [OCR1] 00000204
17:18:31.071 [OWL ] SEAOWLA2K-0145	3981	53	80	80	1458	4016	7133	7133	2489	2489	56	109	109
17:18:30.992 [OCR3] 00000205
17:18:30.977 [OCR2] 00000206
17:18:31.025 [OCR1] 00000207
17:18:31.246 [OCR3] 00000208
17:18:31.675 [ECO ] 99/99/99	99:99:99	700	43	595	32	680	33	557
17:18:31.498 [OCR3] 00000209
17:18:31.415 [OCR2] 0000020A
17:18:31.458 [OCR1] 0000020B
17:18:31.927 [APLA] $GPGGA,171831.922,4828.75391,N,06830.62533,W,4,06,1.3,0.27,M,,,0,0004*1
17:18:31.934 [APLA] $GPVTG,122.6,T,,M,,N,0.3,K,D*0E
17:18:31.882 [OWL ] SEAOWLA2K-0145	3981	56	-284	-284	1458	5130	6523	6523	2486	2486	192	-106	-106
17:18:32.000 [DBG ] $STAT,RECORDING
17:18:32.004 [APLA] $UTC,20211111,171832.0048
17:18:31.762 [OCR3] 0000020C
17:18:32.015 [OCR3] 0000020D
17:18:31.859 [OCR2] 0000020E
17:18:31.906 [OCR1] 0000020F
17:18:32.268 [OCR3] 00000210
17:18:32.295 [OCR2] 00000211
17:18:32.697 [OWL ] SEAOWLA2K-0145	3994	-27	106	106	1458	82	1674	1674	2480	2480	-1	-92	-92
17:18:32.532 [OCR3] 00000212
17:18:32.340 [OCR1] 00000213
17:18:32.799 [ECO ] 99/99/99	99:99:99	700	55	595	43	680	10	557
17:18:32.927 [APLA] $GPGGA,171832.922,4828.75391,N,06830.62531,W,4,06,1.3,0.28,M,,,0,0004*14
17:18:32.934 [APLA] $GPVTG,310.2,T,,M,0.0,N,0.0,K,D*08
17:18:33.000 [DBG ] $STAT,RECORDING
17:18:33.004 [APLA] $UTC,20211111,171833.0048
17:18:32.785 [OCR3] 00000214
17:18:32.743 [OCR2] 00000215
17:18:32.787 [OCR1] 00000216
17:18:33.038 [OCR3] 00000217
17:18:33.302 [OCR3] 00000218
17:18:33.506 [OWL ] SEAOWLA2K-0145	3982	40	47	47	1457	168	1446	1446	2488	2488	24	-70	-70
17:18:33.177 [OCR2] 00000219
17:18:33.223 [OCR1] 0000021A
17:18:33.555 [OCR3] 0000021B
17:18:33.927 [APLA] $GPGGA,171833.922,4828.75391,N,06830.62530,W,4,06,1.3,0.28,M,,,0,0004*14
17:18:33.934 [APLA] $GPVTG,13.4,T,,M,0.0,N,0.1,K,D*3F
17:18:33.923 [ECO ] 99/99/99	99:99:99	700	45	595	39	680	14	557
17:18:34.000 [DBG ] $STAT,RECORDING
17:18:34.004 [APLA] $UTC,20211111,171834.0048
17:18:33.623 [OCR2] 0000021C
17:18:33.808 [OCR3] 0000021D
17:18:33.669 [OCR1] 0000021E
17:18:34.071 [OCR3] 0000021F
17:18:34.315 [OWL ] SEAOWLA2K-0145	3981	50	52	52	1458	222	1758	1758	2488	2488	48	29	29
17:18:34.061 [OCR2] 00000220
17:18:34.106 [OCR1] 00000221
17:18:34.324 [OCR3] 00000222
17:18:34.577 [OCR3] 00000223
17:18:34.927 [APLA] $GPGGA,171834.922,4828.75392,N,06830.62529,W,4,06,1.3,0.28,M,,,0,0004*18
17:18:34.934 [APLA] $GPVTG,233.1,T,,M,0.0,N,0.0,K,D*0B
17:18:34.505 [OCR2] 00000224
17:18:34.551 [OCR1] 00000225
17:18:35.000 [DBG ] $STAT,RECORDING
17:18:35.004 [APLA] $UTC,20211111,171835.0048
17:18:35.047 [ECO ] 99/99/99	99:99:99	700	48	595	88	680	-9	557
17:18:34.841 [OCR3] 00000226
17:18:35.122 [OWL ] SEAOWLA2K-0145	3979	51	63	63	1457	217	1703	1703	2490	2490	47	18	18
17:18:35.094 [OCR3] 00000227
17:18:34.947 [OCR2] 00000228
17:18:34.988 [OCR1] 00000229
17:18:35.347 [OCR3] 0000022A
17:18:35.389 [OCR2] 0000022B
17:18:35.610 [OCR3] 0000022C
17:18:35.433 [OCR1] 0000022D
17:18:35.927 [APLA] $GPGGA,171835.922,4828.75392,N,06830.62529,W,4,06,1.3,0.29,M,,,0,0004*18
17:18:35.934 [APLA] $VTG,15.9,T,,M,0,N,0.1,K,D*35
17:18:35.929 [OWL ] SEAOWLA2K-0145	3980	51	60	60	1457	317	2696	2696	2491	2491	52	75	75
17:18:36.000 [DBG ] $STAT,RECORDING
17:18:36.004 [APLA] $UTC,20211111,171836.0048
17:18:35.863 [OCR3] 0000022E
17:18:36.171 [ECO ] 99/99/99	99:99:99	700	47	595	35	680	86	557
17:18:35.824 [OCR2] 0000022F
17:18:35.870 [OCR1] 00000230
17:18:36.116 [OCR3] 00000231
17:18:36.380 [OCR3] 00000232
17:18:36.270 [OCR2] 00000233
17:18:36.315 [OCR1] 00000234
17:18:36.737 [OWL ] SEAOWLA2K-0145	3981	50	60	60	1458	313	2657	2657	2487	2487	52	77	77
17:18:36.633 [OCR3] 00000235
17:18:36.927 [APLA] $GPGGA,171836.922,4828.75393,N,06830.62529,W,4,06,1.3,0.28,M,,,0,0004*1B
17:18:36.934 [APLA] $GPVTG,8.2,T,,M,0.0,N,0.0,K,D*02
17:18:37.000 [DBG ] $STAT,RECORDING
17:18:37.004 [APLA] $UTC,20211111,171837.0048
17:18:36.886 [OCR3] 00000236
17:18:36.706 [OCR2] 00000237
17:18:36.752 [OCR1] 00000238
17:18:37.295 [ECO ] 99/99/99	99:99:99	700	54	595	43	680	61	557
17:18:37.150 [OCR3] 00000239
17:18:37.154 [OCR2] 0000023A
17:18:37.545 [OWL ] SEAOWLA2K-0145	3981	51	63	63	1458	493	4429	4429	2491	2491	59	99	99
17:18:37.196 [OCR1] 0000023B
17:18:37.403 [OCR3] 0000023C
17:18:37.655 [OCR3] 0000023D
17:18:37.927 [APLA] $GPGGA,171837.922,4828.75393,N,06830.62528,W,4,06,1.3,0.28,M,0,0004*1B
17:18:37.934 [APLA] $GPVTG,198.3,T,,M,0.0,N,0.1,K,D*0A
17:18:38.000 [DBG ] $STAT,RECORDING
17:18:38.004 [APLA] $UTC,20211111,171838.0048
17:18:37.588 [OCR2] 0000023E
17:18:37.632 [OCR1] 0000023F
17:18:37.919 [OCR3] 00000240
17:18:38.353 [OWL ] SEAOWLA2K-0145	3980	-24	-245	-245	1457	582	4944	4944	2489	2489	62	292	292
17:18:38.172 [OCR3] 00000241
17:18:38.419 [ECO ] 99/99/99	99:99:99	700	49	595	17	680	29	557
17:18:38.034 [OCR2] 00000242
17:18:38.078 [OCR1] 00000243
17:18:38.425 [OCR3] 00000244
17:18:38.472 [OCR2] 00000245
17:18:38.927 [APLA] $GPGGA,171838.922,4828391,N,06830.62530,W,4,06,1.3,0.29,M,,,0,0004*1E
17:18:38.934 [APLA] $GPVTG,205.5,T,,M,0.1,N,0.2,K,D*09
17:18:38.689 [OCR3] 00000246
17:18:38.514 [OCR1] 00000247
17:18:39.000 [DBG ] $STAT,RECORDING
17:18:39.004 [APLA] $UTC,20211111,171839.0048
17:18:38.947 [OCR3] 00000248
17:18:39.165 [OWL ] SEAOWLA2K-0145	3991	58	134	134	1458	558	5039	5039	2485	2485	52	122	122
17:18:38.916 [OCR2] 00000249
17:18:38.962 [OCR1] 0000024A
17:18:39.195 [OCR3] 0000024B
17:18:39.543 [ECO ] 99/99/99	99:99:99	700	52	595	47	680	22	557
17:18:39.352 [OCR2] 0000024C
17:18:39.458 [OCR3] 0000024D
17:18:39.396 [OCR1] 0000024E
17:18:39.927 [APLA] $GPGGA,171839.922,4828.75388,N,06830.62532,W,4,06,1.3,0.28,M,,,0,0004*14
17:18:39.934 [APLA] $GPVTG,205.6,T,,M,0.1,N,0.3,K,D*0B
17:18:40.000 [DBG ] $STAT,RECORDING
17:18:40.004 [APLA] $UTC,20211111,171840.0048
17:18:39.977 [OWL ] SEAOWLA2K-0145	3991	32	-8	-8	1458	905	8338	8338	2486	2486	53	-21	-21
17:18:39.811 [OCR3] 0000024F
17:18:39.800 [OCR2] 00000250
17:18:39.844 [OCR1] 00000251
17:18:40.175 [OCR3] 00000252
17:18:40.234 [OCR2] 00000253
17:18:40.428 [OCR3] 00000254
17:18:40.667 [ECO ] 99/99/99	99:99:99	700	33	595	38	680	86	557
17:18:40.278 [OCR1] 00000255
17:18:40.785 [OWL ] SEAOWLA2K-0145	3990	13	-72	-72	1458	1157	9988	9988	2487	2487	52	45	45
17:18:40.927 [APLA] $GPGGA,171840.922,4828.75385,N,06830.62533,W,4,06,1.3,0.27,M,,,0,0004*19
17:18:40.934 [APLA] $GPVTG,191.8,T,,M,0.1,N,0.3,K,D*0B
17:18:40.683 [OCR3] 00000256
17:18:41.000 [DBG ] $STAT,RECORDING
17:18:41.005 [APLA] UTC,20211111,171841.0048
17:18:40.680 [OCR2] 00000257
17:18:40.726 [OCR1] 00000258
17:18:40.948 [OCR3] 00000259
17:18:41.197 [OCR3] 0000025A
17:18:41.117 [OCR2] 0000025B
17:18:41.159 [OCR1] 0000025C
17:18:41.595 [OWL ] SEAOWLA2K-0145	3991	4	65	65	1457	1306	9885	9885	2487	2487	64	195	195
17:18:41.450 [OCR3] 0000025D
17:18:41.790 [ECO ] 99/99/99	99:99:99	700	50	595	52	680	145	557
17:18:41.928 [APLA] $GPGGA,171841.922,4828.75380,N,06830.62534,W,4,06,1.3,0.28,M,,,0,0004*15
17:18:41.934 [APLA] $GPVTG,185.7,T,,M,0.2,N,0.4,K,D*05
17:18:41.714 [OCR3] 0000025E
17:18:41.564 [OCR2] 0000025F
17:18:42.001 [DBG ] $STAT,RECORDING
17:18:42.004 [APLA] $UTC,20211111,171842.0049
17:18:41.608 [OCR1] 00000260
17:18:41.967 [OCR3] 00000261
17:18:41.998 [OCR2] 00000262
17:18:42.403 [OWL ] SEAOWLA2K-0145	3990	60	284	284	1457	1402	4972	4972	2487	2487	56	143	143
17:18:42.219 [OCR3] 00000263
17:18:42.040 [OCR1] 00000264
17:18:42.483 [OCR3] 00000265
17:18:42.444 [OCR2] 00000266
17:18:42.487 [OCR1] 00000267
17:18:42.926 [APLA] $GPGGA,171842.922,4828.75376,N,06830.62534,W,4,06,1.3,0.27,M,,,0,0004*10
17:18:42.933 [APLA] $GPVTG,188.6,T,,M,0.1,N,0.2,K,D*0C
17:18:42.914 [ECO ] 99/99/99	99:99:99	700	51	595	80	680	-46	557
17:18:42.736 [OCR3] 00000268
17:18:43.004 [APLA] $UTC,20211111,171843.0049
17:18:43.010 [DBG ] $STAT,RECORDING
17:18:42.989 [OCR3] 00000269
17:18:43.215 [OWL ] SEAOWLA2K-0145	3991	103	206	206	1457	885	2479	2479	2482	2482	48	24	24
17:18:42.882 [OCR2] 0000026A
17:18:42.922 [OCR1] 0000026B
17:18:43.253 [OCR3] 0000026C
17:18:43.506 [OCR3] 0000026D
17:18:43.327 [OCR2] 0000026E
17:18:43.369 [OCR1] 0000026F
17:18:43.927 [APLA] $GPGGA,171843.922,4828.75375,N,06830.62534,W,4,06,1.3,0.27,M,,,0,0004*12
17:18:43.933 [APLA] $GPVTG,234.4,T,,M,0.0,N,0.0,K,D*09
17:18:44.004 [APLA] $UTC,20211111,171844.0049
17:18:44.010 [DBG ] $STAT,RECORDING
17:18:43.759 [OCR3] 00000270
17:18:44.038 [ECO ] 99/99/99	99:99:99	700	52	595	41	680	182	557
17:18:44.025 [OWL ] SEAOWLA2K-0145	3980	-20	-236	-236	1456	605	2120	2120	2488	2488	50	92	92
17:18:43.762 [OCR2] 00000271
17:18:43.806 [OCR1] 00000272
17:18:44.022 [OCR3] 00000273
17:18:44.275 [OCR3] 00000274
17:18:44.210 [OCR2] 00000275
17:18:44.251 [OCR1] 00000276
17:18:44.528 [OCR3] 00000277
17:18:44.836 [OWL ] SEAOWLA2K-0145	3992	196	91	91	1457	475	1274	1274	2487	2487	73	85	85
17:18:44.927 [APLA] $GPGGA,171844.922,4828.75375,N,06830.62534,W,4,06,1.3,0.28,M,,,0,0004*1A
17:18:44.933 [APLA] $GPVTG,0.2,T,,M,0.0,N,0.1,K,D*0B
17:18:45.004 [APLA] $UTC,20211111,171845.0049
17:18:45.013 [DBG ] $STAT,RECORDING
17:18:44.792 [OCR3] 00000278
17:18:44.643 [OCR2] 00000279
17:18:44.688 [OCR1] 0000027A
17:18:45.163 [ECO ] 99/99/99	99:99:99	700	51	595	53	680	88	557
17:18:45.044 [OCR3] 0000027B
17:18:45.090 [OCR2] 0000027C
17:18:45.298 [OCR3] 0000027D
17:18:45.132 [OCR1] 0000027E
17:18:45.644 [OWL ] SEAOWLA2K-0145	3979	72	-335	-335	1456	590	2134	2134	2488	2488	47	-8	-8
17:18:45.561 [OCR3] 0000027F
17:18:45.927 [APLA] $GPGGA,171845.922,4828.75376,N,06830.62534,W,4,06,1.3,0.27,M,,,0,0004*17
17:18:45.933 [APLA] $GPVTG,0.0,T,,M,0.0,N,0.0,K,D*08
17:18:45.528 [OCR2] 00000280
17:18:46.004 [APLA] $UTC,20211111,171846.0049
17:18:46.010 [DBG ] $STAT,RECORDING
17:18:45.569 [OCR1] 00000281
17:18:45.814 [OCR3] 00000282
17:18:46.286 [ECO ] 99/99/99	99:99:99	700	50	595	83	680	8	557
17:18:46.068 [OCR3] 00000283
17:18:45.973 [OCR2] 00000284
17:18:46.014 [OCR1] 00000285
17:18:46.454 [OWL ] SEAOWLA2K-0145	3979	24	-94	-94	1456	1584	3589	3589	2487	2487	141	243	243
17:18:46.331 [OCR3] 00000286
17:18:46.584 [OCR3] 00000287
17:18:46.408 [OCR2] 00000288
17:18:46.451 [OCR1] 00000289
17:18:46.927 [APLA] $GPGGA,171846.922,4828.75376,06830.62534,W,4,06,1.3,0.27,M,,,0,0004*14
17:18:46.933 [APLA] $GPVTG,27.5,T,,M,0.0,N,0.1,K,D*39
17:18:47.004 [APLA] $UTC,20211111,171847.0049
17:18:47.010 [DBG ] $STAT,RECORDING
17:18:46.837 [OCR3] 0000028A
17:18:46.855 [OCR2] 0000028B
17:18:47.266 [OWL ] SEAOWLA2K-0145	3991	46	30	30	1457	199	1459	1459	2482	2482	52	69	69
17:18:46.896 [OCR1] 0000028C
17:18:47.100 [OCR3] 0000028D
17:18:47.409 [ECO ] 99/99/99	99:99:99	700	56	595	64	680	62	557
17:18:47.353 [OCR3] 0000028E
17:18:47.292 [OCR2] 0000028F
17:18:47.332 [OCR1] 00000290
17:18:47.606 [OCR3] 00000291
17:18:47.927 [APLA] $GPGGA,171847.922,4828.75377,N,060.62534,W,4,06,1.3,0.28,M,,,0,0004*1B
17:18:47.933 [APLA] $GPVTG,122.9,T,,M,0.0,N,0.0,K,D*00
17:18:48.004 [APLA] $UTC,20211111,171848.0049
17:18:48.010 [DBG ] $STAT,RECORDING
17:18:47.870 [OCR3] 00000292
17:18:48.073 [OWL ] SEAOWLA2K-0145	3990	57	137	137	1457	197	1472	1472	2491	2491	171	207	207
17:18:47.736 [OCR2] 00000293
17:18:47.778 [OCR1] 00000294
17:18:48.123 [OCR3] 00000295
17:18:48.533 [ECO ] 99/99/99	99:99:99	700	51	595	52	680	49	557
17:18:48.172 [OCR2] 00000296
17:18:48.376 [OCR3] 00000297
17:18:48.213 [OCR1] 00000298
17:18:48.639 [OCR3] 00000299
17:18:48.927 [APLA] $GPGGA,171848.922,4828.75378,N,06830.62535,W,4,06,1.3,0.27,M,,,0,0004*15
17:18:48.933 [APLA] $GPVTG,338.1,T,,M,0.0,N,0.0,K,D*01
17:18:48.885 [OWL ] SEAOWLA2K-0145	3980	40	-43	-43	1456	206	1532	1532	2485	2485	46	24	24
17:18:49.004 [APLA] $UTC,20211111,171849.0049
17:18:49.010 [DBG ] $STAT,RECORDING
17:18:48.621 [OCR2] 0000029A
17:18:48.662 [OCR1] 0000029B
17:18:48.892 [OCR3] 0000029C
17:18:49.145 [OCR3] 0000029D
17:18:49.055 [OCR2] 0000029E
17:18:49.095 [OCR1] 0000029F
17:18:49.409 [OCR3] 000002A0
17:18:49.657 [ECO ] 99/99/99	99:99:99	700	44	595	37	680	5	557
17:18:49.693 [OWL ] SEAOWLA2K-0145	3980	1	-137	-137	1456	174	1285	1285	2491	2491	73	195	195
17:18:49.662 [OCR3] 000002A1
17:18:49.927 [APLA] $GPGGA,171849.922,48275379,N,06830.62535,W,4,06,1.3,0.27,M,,,0,0004*15
17:18:49.933 [APLA] $GPVTG,0.5,T,,M,0.0,N,0.1,K,D*0C
17:18:49.501 [OCR2] 000002A2
17:18:49.543 [OCR1] 000002A3
17:18:50.004 [APLA] $UTC,202111,171850.0049
17:18:50.010 [DBG ] $STAT,RECORDING
17:18:49.915 [OCR3] 000002A4
17:18:50.179 [OCR3] 000002A5
17:18:49.946 [OCR2] 000002A6
17:18:49.977 [OCR1] 000002A7
17:18:50.504 [OWL ] SEAOWLA2K-0145	3979	70	44	44	1456	198	1592	1592	2484	2484	50	-102	-102
17:18:50.432 [OCR3] 000002A8
17:18:50.780 [ECO ] 99/99/99	99:99:99	700	48	595	48	680	-10	557
17:18:50.927 [APLA] $GPGGA,171850.922,4828.75379,N,06830.62534,W,4,06,1.3,0.28,M,,,0,0004*13
17:18:50.933 [APLA] $GPVTG,19.1,T,,M,0.0,N,0.0,K,D*31
17:18:50.685 [OCR3] 000002A9
17:18:51.004 [APLA] $UTC,20211111,171851.0049
17:18:51.010 [DBG ] $STAT,RECORDING
17:18:50.484 [OCR2] 000002AA
17:18:50.523 [OCR1] 000002AB
17:18:50.948 [OCR3] 000002AC
17:18:51.314 [OWL ] SEAOWLA2K-0145	3979	56	118	118	1456	194	1424	1424	2486	2486	44	-8	-8
17:18:51.201 [OCR3] 000002AD
17:18:51.020 [OCR2] 000002AE
17:18:51.061 [OCR1] 000002AF
17:18:51.454 [OCR3] 000002B0
17:18:51.467 [OCR2] 000002B1
17:18:51.904 [ECO ] 99/99/99	99:99:99	700	56	595	30	680	0	557
17:18:51.927 [APLA] $GPGGA,171851.922,4828.75380,N,06830.62535,W,4,06,1.327,M,,,0,0004*1A
17:18:51.933 [APLA] $GPVTG,327.3,T,,M,0.0,N,0.0,K,D*0D
17:18:51.505 [OCR1] 000002B2
17:18:51.717 [OCR3] 000002B3
17:18:52.004 [APLA] $UTC,20211111,171852.0049
17:18:52.010 [DBG ] $STAT,RECORDING
17:18:52.122 [OWL ] SEAOWLA2K-0145	3979	72	58	58	1456	193	1436	1436	2489	2489	73	159	159
17:18:51.971 [OCR3] 000002B4
17:18:51.904 [OCR2] 000002B5
17:18:51.948 [OCR1] 000002B6
17:18:52.224 [OCR3] 000002B7
17:18:52.487 [OCR3] 000002B8
17:18:52.351 [OCR2] 000002B9
17:18:52.387 [OCR1] 000002BA
17:18:52.927 [APLA] $GPGGA,171852.922,4828.75380,N,06830.62535,W,4,06,1.3,0.27,M,,,0,0004*19
17:18:52.933 [APLA] $GPVTG,187.0,T,,M,0.0,N,0.0,K,D*06
17:18:52.931 [OWL ] SEAOWLA2K-0145	3979	53	47	47	1455	182	1312	1312	2487	2487	63	67	67
17:18:52.741 [OCR3] 000002BB
17:18:53.004 [APLA] $UTC,20211111,171853.0049
17:18:53.010 [DBG ] $STAT,RECORDING
17:18:53.027 [ECO ] 99/99/99	99:99:99	700	43	595	64	680	91	557
17:18:52.785 [OCR2] 000002BC
17:18:52.994 [OCR3] 000002BD
17:18:52.825 [OCR1] 000002BE
17:18:53.257 [OCR3] 000002BF
17:18:53.232 [OCR2] 000002C0
17:18:53.269 [OCR1] 000002C1
17:18:53.510 [OCR3] 000002C2
17:18:53.738 [OWL ] SEAOWLA2K-0145	3978	50	44	44	1455	188	1378	1378	2490	2490	48	0	0
17:18:53.927 [APLA] $GPGGA,171853.922,4828.75379,N,06830.62534,W,4,06,1.3,0.28,M,,,0,0004*10
17:18:53.933 [APLA] $GPVTG,154.1,T,,M,0.0,N,0.0,K,D*09
17:18:54.004 [APLA] $UTC,20211111,171854.0049
17:18:54.010 [DBG ] $STAT,RECORDING
17:18:53.763 [OCR3] 000002C3
17:18:53.670 [OCR2] 000002C4
17:18:53.706 [OCR1] 000002C5
17:18:54.151 [ECO ] 99/99/99	99:99:99	700	52	595	33	680	28	557
17:18:54.027 [OCR3] 000002C6
17:18:54.280 [OCR3] 000002C7
17:18:54.115 [OCR2] 000002C8
17:18:54.151 [OCR1] 000002C9
17:18:54.544 [OWL ] SEAOWLA2K-0145	3977	49	69	69	1455	212	1618	1618	2490	2490	72	189	189
17:18:54.533 [OCR3] 000002CA
17:18:54.927 [APLA] $GPGGA,171854.922,4828.75379,N,06830.62535,W,4,06,1.3,0.27,M,,,0,0004*19
17:18:54.933 [APLA] $GPVTG,251.2,T,,M,0.0,N,0.0,K,D*0C
17:18:54.551 [OCR2] 000002CB
17:18:55.004 [APLA] $UTC,20211111,171855.0049
17:18:55.010 [DBG ] $STAT,RECORDING
17:18:54.586 [OCR1] 000002CC
17:18:54.796 [OCR3] 000002CD
17:18:55.049 [OCR3] 000002CE
17:18:55.275 [ECO ] 99/99/99	99:99:99	700	51	595	49	680	45	557
17:18:55.352 [OWL ] SEAOWLA2K-0145	3978	14	37	37	1455	164	1353	1353	2488	2488	50	23	23
17:18:54.999 [OCR2] 000002CF
17:18:55.033 [OCR1] 000002D0
17:18:55.302 [OCR3] 000002D1
17:18:55.566 [OCR3] 000002D2
17:18:55.434 [OCR2] 000002D3
17:18:55.468 [OCR1] 000002D4
17:18:55.927 [APLA] $GPGGA,171855.922,4828.75379,N,06.62535,W,4,06,1.3,0.26,M,,,0,0004*19
17:18:55.933 [APLA] $GPVTG,131.0,T,,M,0.0,N,0.0,K,D*0B
17:18:56.004 [APLA] $UTC,20211111,171856.0049
17:18:56.010 [DBG ] $STAT,RECORDING
17:18:55.818 [OCR3] 000002D5
17:18:56.160 [OWL ] SEAOWLA2K-0145	3977	50	35	35	1455	161	1397	1397	2487	2487	86	432	432
17:18:55.880 [OCR2] 000002D6
17:18:56.072 [OCR3] 000002D7
17:18:55.916 [OCR1] 000002D8
17:18:56.399 [ECO ] 99/99/99	99:99:99	700	37	595	54	680	48	557
17:18:56.335 [OCR3] 000002D9
17:18:56.316 [OCR2] 000002DA
17:18:56.350 [OCR1] 000002DB
17:18:56.588 [OCR3] 000002DC
17:18:56.927 [APLA] $GPGGA,171856.922,4828.75379,N,06830.62534,W,4,06,1.3,0.27,M,,,0,0004*1A
17:18:56.933 [APLA] $GPVTG,87.1,T,,M,0.0,N,0.0,K,D*36
17:18:57.004 [APLA] $UTC,20211111,171857.0049
17:18:57.010 [DBG ] $STAT,RECORDING
17:18:56.969 [OWL ] SEAOWLA2K-0145	3977	63	-16	-16	1455	146	1240	1240	2489	2489	84	292	292
17:18:56.841 [OCR3] 000002DD
17:18:56.764 [OCR2] 000002DE
17:18:56.798 [OCR1] 000002DF
17:18:57.105 [OCR3] 000002E0
17:18:57.523 [ECO ] 99/99/99	99:99:99	700	49	595	62	680	94	557
17:18:57.358 [OCR3] 000002E1
17:18:57.198 [OCR2] 000002E2
17:18:57.231 [OCR1] 000002E3
17:18:57.779 [OWL ] SEAOWLA2K-0145	3976	94	15	15	1454	200	1468	1468	2485	2485	55	96	96
17:18:57.611 [OCR3] 000002E4
17:18:57.927 [APLA] $GPGGA,171857.922,4828.75380,N,06830.62534,W,4,06,1.3,0.28,M,,,0,0004*12
17:18:57.933 [APLA] $GPVTG,297.4,T,,M.0,N,0.0,K,D*00
17:18:58.004 [APLA] $UTC,20211111,171858.0049
17:18:58.010 [DBG ] $STAT,RECORDING
17:18:57.645 [OCR2] 000002E5
17:18:57.679 [OCR1] 000002E6
17:18:57.875 [OCR3] 000002E7
17:18:58.128 [OCR3] 000002E8
17:18:58.083 [OCR2] 000002E9
17:18:58.113 [OCR1] 000002EA
17:18:58.381 [OCR3] 000002EB
17:18:58.587 [OWL ] SEAOWLA2K-0145	3976	49	-16	-16	1455	251	1627	1627	2489	2489	32	-93	-93
17:18:58.647 [ECO ] 99/99/99	99:99:99	700	47	595	37	680	65	557
17:18:58.645 [OCR3] 000002EC
17:18:58.927 [APLA] $GPGGA,171858.922,4828.75380,N,06830.62534,W,4,06,1.3,0.26,M,,,0,0004*13
17:18:58.933 [APLA] $GPVTG,136.4,T,,M,0.0,N,0.0,K,D*08
17:18:58.528 [OCR2] 000002ED
17:18:58.559 [OCR1] 000002EE
17:18:59.004 [APLA] $UTC,20211111,171859.0049
17:18:59.010 [DBG ] $STAT,RECORDING
17:18:58.897 [OCR3] 000002EF
17:18:58.963 [OCR2] 000002F0
17:18:59.151 [OCR3] 000002F1
17:18:58.995 [OCR1] 000002F2
17:18:59.396 [OWL ] SEAOWLA2K-0145	3977	49	28	28	1454	205	1574	1574	2489	2489	46	8	8
17:18:59.414 [OCR3] 000002F3
17:18:59.770 [ECO ] 99/99/99	99:99:99	700	57	595	14	680	51	557
17:18:59.410 [OCR2] 000002F4
17:18:59.441 [OCR1] 000002F5
17:18:59.668 [OCR3] 000002F6
17:18:59.927 [APLA] $GPGGA,171859.922,4828.75380,N,06830.62534,W,4,06,1.3,0.27,M,,,0,0004*13
17:18:59.933 [APLA] $GPVTG,143.,,M,0.0,N,0.1,K,D*06
17:19:00.004 [APLA] $UTC,20211111,171900.0049
17:19:00.013 [DBG ] $STAT,RECORDING
17:18:59.920 [OCR3] 000002F7
17:19:00.202 [OWL ] SEAOWLA2K-0145	3977	50	51	51	1454	182	1356	1356	2489	2489	30	-136	-136
17:18:59.847 [OCR2] 000002F8
17:18:59.879 [OCR1] 000002F9
17:19:00.184 [OCR3] 000002FA
17:19:00.437 [OCR3] 000002FB
17:19:00.292 [OCR2] 000002FC
17:19:00.323 [OCR1] 000002FD
