####################
# TYPE: TEXT
# DATE: 2021/11/11
# TIME: 16:06:07
####################
#
16:06:06.569 [CTD ]   8.2684,  0.00002,    0.127, 2.7663, 2.5594
16:06:06.831 [CTD ]   8.2599,  0.00001,    0.127, 2.7670, 2.5571
16:06:07.002 [DBG ] $STAT,RECORDING
16:06:07.000 [APLA] $UTC,20211111,160607.0007
16:06:07.006 [OWL ] SEAOWLA2K-0145	3945	50	49	49	1331	59	145	145	2464	2464	50	49	49
16:06:07.092 [CTD ]   8.2553,  0.00002,    0.127, 2.7678, 2.5491
16:06:07.333 [APLA] $GPGGA,160607.328,4828.73576,N,06830.59358,W,4,05,1.5,5.32,M,,,0,0004*1F
16:06:07.339 [APLA] $GPVTG,240.4,T,,M,0.0,N,0.0,K,D*0A
16:06:07.354 [ECO ] 99/99/99	99:99:99	700	4130	595	991	680	721	554
16:06:07.352 [CTD ]   8.2538,  0.00002,    0.127, 2.7672, 2.5437
16:06:07.614 [CTD ]   8.2532,  0.00002,    0.127, 2.7665, 2.5676
16:06:07.811 [OWL ] SEAOWLA2K-0145	3936	50	48	48	1331	58	139	139	2463	2463	50	49	49
16:06:07.875 [CTD ]   8.2523,  0.00002,    0.126, 2.7671, 2.5428
16:06:08.002 [DBG ] $STAT,RECORDING
16:06:08.000 [APLA] $UTC,20211111,160608.0007
16:06:06.929 [OCR2] 00000000
16:06:06.930 [OCR3] 00000001
16:06:06.932 [OCR1] 00000002
16:06:08.138 [CTD ]   8.2547,  0.00002,    0.127, 2.7691, 2.5343
16:06:08.333 [APLA] $GPGGA,160608.328,4828.73576,N,06830.59357,W,4,05,1.5,5.32,M,,,0,0004*1F
16:06:08.340 [APLA] $GPVTG,225.7,T,,M,0.0,N,0.0,K,D*0A
16:06:08.399 [CTD ]   8.2593,  0.00001,    0.126, 2.7677, 2.5847
16:06:08.482 [ECO ] 99/99/99	99:99:99	700	4130	595	991	680	724	554
16:06:08.615 [OWL ] SEAOWLA2K-0145	3943	48	28	28	1329	59	144	144	2462	2462	50	49	49
16:06:08.661 [CTD ]   8.2627,  0.00002,    0.127, 2.7681, 2.7204
16:06:08.921 [CTD ]   8.2657,  0.00001,    0.127, 2.7672, 2.4871
16:06:09.002 [DBG ] $STAT,RECORDING
16:06:09.000 [APLA] $UTC,20211111,160609.0007
16:06:09.183 [CTD ]   8.2685,  0.00001,    0.127, 2.7680, 2.7239
16:06:09.333 [APLA] $GPGGA,160609.328,4828.73576,N,06830.59357,W,4,05,1.5,5.32,M,,,0,0004*1E
16:06:09.340 [APLA] $GPVTG,218.1,T,,M,0.0,N,0.0,K,D*02
16:06:08.144 [OCR2] 00000003
16:06:08.149 [OCR3] 00000004
16:06:08.152 [OCR1] 00000005
16:06:09.420 [OWL ] SEAOWLA2K-0145	3933	50	55	55	1330	59	146	146	2463	2463	50	49	49
16:06:09.444 [CTD ]   8.2694,  0.00002,    0.127, 2.7676, 2.7304
16:06:09.609 [ECO ] 99/99/99	99:99:99	700	4130	595	992	680	722	553
16:06:09.705 [CTD ]   8.2666,  0.00001,    0.127, 2.7682, 2.6995
16:06:10.002 [DBG ] $STAT,RECORDING
16:06:10.000 [APLA] $UTC,20211111,160610.0007
16:06:09.967 [CTD ]   8.2655,  0.00002,    0.127, 2.7681, 2.6373
16:06:10.227 [CTD ]   8.2654,  0.00002,    0.127, 2.7674, 2.6121
16:06:10.224 [OWL ] SEAOWLA2K-0145	3940	50	51	51	1328	59	138	138	2464	2464	50	49	49
16:06:10.333 [APLA] $GPGGA,160610.328,4828.73576,N,06830.59357,W,4,05,1.5,5.32,M,,,0,0004*16
16:06:10.339 [APLA] $GPVTG,120.3,T,,M,0.0,N,0.0,K,D*08
16:06:10.489 [CTD ]   8.2666,  0.00002,    0.126, 2.7688, 2.6005
16:06:09.360 [OCR2] 00000006
16:06:09.363 [OCR3] 00000007
16:06:09.365 [OCR1] 00000008
16:06:10.737 [ECO ] 99/99/99	99:99:99	700	4130	595	991	680	724	553
16:06:10.750 [CTD ]   8.2683,  0.00002,    0.127, 2.7683, 2.5848
16:06:11.002 [DBG ] $STAT,RECORDING
16:06:11.000 [APLA] $UTC,20211111,160611.0007
16:06:11.013 [CTD ]   8.2707,  0.00002,    0.127, 2.7681, 2.5541
16:06:11.029 [OWL ] SEAOWLA2K-0145	3930	50	50	50	1328	59	141	141	2462	2462	50	49	49
16:06:11.274 [CTD ]   8.2733,  0.00001,    0.127, 2.7688, 2.5571
16:06:11.333 [APLA] $GPGGA,160611.328,4828.73576,N,06830.59357,W,4,05,1.5,5.32,M,,,0,0004*17
16:06:11.339 [APLA] $GPVTG,111.6,T,,M,0.0,N,0.0,K,D*0F
16:06:11.538 [CTD ]   8.2756,  0.00002,    0.127, 2.7684, 2.5908
16:06:10.576 [OCR2] 00000009
16:06:10.579 [OCR3] 0000000A
16:06:10.581 [OCR1] 0000000B
16:06:11.796 [CTD ]   8.2775,  0.00001,    0.126, 2.7684, 2.5856
16:06:11.834 [OWL ] SEAOWLA2K-0145	3936	50	44	44	1326	59	144	144	2463	2463	50	49	49
16:06:11.865 [ECO ] 99/99/99	99:99:99	700	4130	595	993	680	727	553
16:06:12.002 [DBG ] $STAT,RECORDING
16:06:12.000 [APLA] $UTC,20211111,160612.0007
16:06:12.056 [CTD ]   8.2776,  0.00001,    0.127, 2.7687, 2.6081
16:06:12.333 [APLA] $GPGGA,160612.328,4828.73576,N,06830.59356,W,4,05,1.5,5.32,M,,,0,0004*15
16:06:12.339 [APLA] $GPVTG,73.7,T,,M,0.0,N,0.0,K,D*3B
16:06:12.319 [CTD ]   8.2730,  0.00001,    0.127, 2.7683, 2.6307
16:06:12.580 [CTD ]   8.2667,  0.00001,    0.127, 2.7684, 2.6191
16:06:12.638 [OWL ] SEAOWLA2K-0145	3927	49	39	39	1326	58	130	130	2463	2463	50	49	49
16:06:12.840 [CTD ]   8.2649,  0.00002,    0.127, 2.7685, 2.5890
16:06:13.002 [DBG ] $STAT,RECORDING
16:06:13.000 [APLA] $UTC,20211111,160613.0007
16:06:11.796 [OCR1] 0000000C
16:06:11.791 [OCR2] 0000000D
16:06:11.794 [OCR3] 0000000E
16:06:12.993 [ECO ] 99/99/99	99:99:99	700	4130	595	992	680	727	553
16:06:13.102 [CTD ]   8.2675,  0.00001,    0.127, 2.7682, 2.5838
16:06:13.333 [APLA] $GPGGA,160613.328,4828.73577,N,06830.59356,W,4,05,1.5,5.32,M,,,0,0004*15
16:06:13.339 [APLA] $GPVTG,75.5,T,,M,0.0,N,0.0,K,D*3F
16:06:13.364 [CTD ]   8.2711,  0.00001,    0.127, 2.7679, 2.5876
16:06:13.443 [OWL ] SEAOWLA2K-0145	3933	49	37	37	1324	57	122	122	2462	2462	50	49	49
16:06:13.625 [CTD ]   8.2739,  0.00001,    0.127, 2.7682, 2.5794
16:06:13.888 [CTD ]   8.2759,  0.00002,    0.127, 2.7681, 2.5785
16:06:14.002 [DBG ] $STAT,RECORDING
16:06:14.000 [APLA] $UTC,20211111,160614.0007
16:06:14.120 [ECO ] 99/99/99	99:99:99	700	4130	595	991	680	727	553
16:06:14.148 [CTD ]   8.2775,  0.00001,    0.127, 2.7687, 2.5879
16:06:13.012 [OCR2] 0000000F
16:06:13.014 [OCR3] 00000010
16:06:13.010 [OCR1] 00000011
16:06:14.247 [OWL ] SEAOWLA2K-0145	3925	50	51	51	1324	58	136	136	2462	2462	50	49	49
16:06:14.333 [APLA] $GPGGA,160614.328,4828.73577,N,06830.59356,W,4,05,1.5,5.32,M,,,0,0004*12
16:06:14.339 [APLA] $GPVTG,59.6,T,,M,0.0,N,0.0,K,D*32
16:06:14.408 [CTD ]   8.2794,  0.00001,    0.127, 2.7687, 2.5795
16:06:14.671 [CTD ]   8.2815,  0.00001,    0.127, 2.7681, 2.5954
16:06:14.931 [CTD ]   8.2829,  0.00001,    0.127, 2.7694, 2.6103
16:06:15.002 [DBG ] $STAT,RECORDING
16:06:15.000 [APLA] $UTC,20211111,160615.0007
16:06:15.052 [OWL ] SEAOWLA2K-0145	3931	50	42	42	1324	59	141	141	2460	2460	50	49	49
16:06:15.193 [CTD ]   8.2836,  0.00001,    0.127, 2.7682, 2.5883
16:06:15.248 [ECO ] 99/99/99	99:99:99	700	4130	595	992	680	728	553
16:06:15.333 [APLA] $GPGGA,160615.328,4828.73577,N,06830.59356,W,4,05,1.5,5.32,M,,,0,0004*13
16:06:15.339 [APLA] $GPVTG,48.6,T,,M,0.0,N,0.0,K,D*32
16:06:14.223 [OCR2] 00000012
16:06:14.226 [OCR3] 00000013
16:06:14.228 [OCR1] 00000014
16:06:15.455 [CTD ]   8.2835,  0.00002,    0.127, 2.7683, 2.5941
16:06:15.715 [CTD ]   8.2837,  0.00002,    0.127, 2.7680, 2.5867
16:06:15.856 [OWL ] SEAOWLA2K-0145	3922	50	41	41	1324	59	138	138	2461	2461	50	49	49
16:06:16.002 [DBG ] $STAT,RECORDING
16:06:16.000 [APLA] $UTC,20211111,160616.0007
16:06:15.977 [CTD ]   8.2855,  0.00001,    0.127, 2.7686, 2.5617
16:06:16.239 [CTD ]   8.2877,  0.00002,    0.127, 2.7684, 2.5733
16:06:16.333 [APLA] $GPGGA,160616.328,4828.73577,N,06830.59356,W,4,05,1.5,5.32,M,,,0,0004*10
16:06:16.339 [APLA] $GPVTG,51.4,T,,M,0.0,N,0.0,K,D*38
16:06:16.376 [ECO ] 99/99/99	99:99:99	700	4130	595	991	680	721	554
16:06:16.500 [CTD ]   8.2901,  0.00001,    0.127, 2.7686, 2.5632
16:06:15.439 [OCR2] 00000015
16:06:15.444 [OCR1] 00000016
16:06:15.442 [OCR3] 00000017
16:06:16.661 [OWL ] SEAOWLA2K-0145	3930	50	48	48	1323	59	147	147	2462	2462	50	49	49
16:06:16.761 [CTD ]   8.2914,  0.00001,    0.127, 2.7689, 2.5451
16:06:17.002 [DBG ] $STAT,RECORDING
16:06:17.000 [APLA] $UTC,20211111,160617.0007
16:06:17.023 [CTD ]   8.2896,  0.00002,    0.127, 2.7675, 2.5359
16:06:17.283 [CTD ]   8.2877,  0.00001,    0.127, 2.7683, 2.5312
16:06:17.333 [APLA] $GPGGA,160617.328,4828.73577,N,06830.59356,W,4,05,1.5,5.32,M,,,0,0004*11
16:06:17.339 [APLA] $GPVTG,46.7,T,,M,0.0,N,0.0,K,D*3D
16:06:17.465 [OWL ] SEAOWLA2K-0145	3917	50	54	54	1322	59	143	143	2460	2460	50	49	49
16:06:17.504 [ECO ] 99/99/99	99:99:99	700	4130	595	992	680	727	553
16:06:17.544 [CTD ]   8.2883,  0.00001,    0.127, 2.7678, 2.5231
16:06:17.806 [CTD ]   8.2897,  0.00002,    0.127, 2.7686, 2.5065
16:06:16.655 [OCR2] 00000018
16:06:16.657 [OCR1] 00000019
16:06:16.660 [OCR3] 0000001A
16:06:18.002 [DBG ] $STAT,RECORDING
16:06:18.000 [APLA] $UTC,20211111,160618.0007
16:06:18.067 [CTD ]   8.2910,  0.00001,    0.127, 2.7686, 2.4939
16:06:18.270 [OWL ] SEAOWLA2K-0145	3926	50	52	52	1321	58	133	133	2460	2460	50	49	49
16:06:18.333 [APLA] $GPGGA,160618.328,4828.73577,N,06830.59356,W,4,05,1.5,5.32,M,,,0,0004*1E
16:06:18.339 [APLA] $GPVTG,44.9,T,,M,0.0,N,0.0,K,D*31
16:06:18.329 [CTD ]   8.2924,  0.00001,    0.127, 2.7676, 2.4968
16:06:18.590 [CTD ]   8.2942,  0.00001,    0.127, 2.7684, 2.4920
16:06:18.631 [ECO ] 99/99/99	99:99:99	700	4130	595	991	680	725	553
16:06:18.852 [CTD ]   8.2958,  0.00001,    0.127, 2.7682, 2.4907
16:06:19.002 [DBG ] $STAT,RECORDING
16:06:19.000 [APLA] $UTC,20211111,160619.0007
16:06:17.871 [OCR2] 0000001B
16:06:17.874 [OCR1] 0000001C
16:06:17.877 [OCR3] 0000001D
16:06:19.074 [OWL ] SEAOWLA2K-0145	3915	50	50	50	1321	58	141	141	2460	2460	50	49	49
16:06:19.112 [CTD ]   8.2976,  0.00002,    0.127, 2.7688, 2.4920
16:06:19.333 [APLA] $GPGGA,160619.328,4828.73577,N,06830.59356,W,4,05,1.5,5.32,M,,,0,0004*1F
16:06:19.339 [APLA] $GPVTG,39.4,T,,M,0.0,N,0.0,K,D*36
16:06:19.375 [CTD ]   8.2994,  0.00001,    0.127, 2.7696, 2.4934
16:06:19.635 [CTD ]   8.3010,  0.00002,    0.127, 2.7690, 2.4958
16:06:19.759 [ECO ] 99/99/99	99:99:99	700	4130	595	992	680	728	553
16:06:19.879 [OWL ] SEAOWLA2K-0145	3923	50	50	50	1320	60	156	156	2461	2461	50	49	49
16:06:19.896 [CTD ]   8.3025,  0.00002,    0.127, 2.7684, 2.4924
16:06:20.002 [DBG ] $STAT,RECORDING
16:06:20.000 [APLA] $UTC,20211111,160620.0007
16:06:20.158 [CTD ]   8.3030,  0.00001,    0.127, 2.7691, 2.4949
16:06:19.086 [OCR2] 0000001E
16:06:19.091 [OCR3] 0000001F
16:06:19.089 [OCR1] 00000020
16:06:20.333 [APLA] $GP0620.328,4828.73577,N,06830.59356,W,4,05,1.5,5.32,M,,,0,0004*15
16:06:20.339 [APLA] $GPVTG,40.9,T,,M,0.0,N,0.0,K,D*35
16:06:20.422 [CTD ]   8.3030,  0.00001,    0.127, 2.7685, 2.4939
16:06:20.681 [CTD ]   8.3046,  0.00000,    0.126, 2.7684, 2.4929
16:06:20.683 [OWL ] SEAOWLA2K-0145	3912	50	51	51	1319	59	144	144	2459	2459	50	49	49
16:06:20.887 [ECO ] 99/99/99	99:99:99	700	4130	595	992	680	727	553
16:06:20.942 [CTD ]   8.3046,  0.00001,    0.127, 2.7680, 2.4942
16:06:21.002 [DBG ] $STAT,RECORDING
16:06:21.000 [APLA] $UTC,20211111,160621.0007
16:06:21.204 [CTD ]   8.3008,  0.00002,    0.127, 2.7689, 2.4943
16:06:21.333 [APLA] $GPGGA,160621.328,4828.73577,N,06830.59356,W,4,05,1.5,5.32,M,,,0,0004*14
16:06:21.339 [APLA] $GPVTG,43.1,T,,M,0.0,N,0.0,K,D*3E
16:06:21.465 [CTD ]   8.2986,  0.00002,    0.127, 2.7683, 2.4932
16:06:20.304 [OCR2] 00000021
16:06:20.309 [OCR1] 00000022
16:06:20.307 [OCR3] 00000023
16:06:21.488 [OWL ] SEAOWLA2K-0145	3922	50	54	54	1319	59	142	142	2461	2461	50	49	49
16:06:21.727 [CTD ]   8.2990,  0.00002,    0.127, 2.7679, 2.4937
16:06:22.002 [DBG ] $STAT,RECORDING
16:06:22.000 [APLA] $UTC,20211111,160622.0007
16:06:21.988 [CTD ]   8.3005,  0.00002,    0.127, 2.7682, 2.4944
16:06:22.015 [ECO ] 99/99/99	99:99:99	700	4130	595	992	680	726	553
16:06:22.248 [CTD ]   8.3006,  0.00002,    0.126, 2.7688, 2.4945
16:06:22.333 [APLA] $GPGGA,160622.328,4828.73577,N,06830.59356,W,4,05,1.5,5.32,M,,,0,0004*17
16:06:22.339 [APLA] $GPVTG,46.8,T,,M,0.0,N,0.0,K,D*32
16:06:22.292 [OWL ] SEAOWLA2K-0145	3911	50	50	50	1318	59	147	147	2461	2461	50	48	48
16:06:22.511 [CTD ]   8.2996,  0.00002,    0.126, 2.7687, 2.4953
16:06:21.523 [OCR1] 00000024
16:06:21.520 [OCR2] 00000025
16:06:21.525 [OCR3] 00000026
16:06:22.771 [CTD ]   8.2967,  0.00000,    0.127, 2.7702, 2.4926
16:06:23.002 [DBG ] $STAT,RECORDING
16:06:23.000 [APLA] $UTC,20211111,160623.0007
16:06:23.033 [CTD ]   8.2917,  0.00002,    0.126, 2.7698, 2.4913
16:06:23.097 [OWL ] SEAOWLA2K-0145	3919	50	44	44	1318	60	149	149	2459	2459	50	49	49
16:06:23.142 [ECO ] 99/99/99	99:99:99	700	4130	595	992	680	728	553
16:06:23.333 [APLA] $GPGGA,160623.328,4828.73577,N,06830.59356,W,4,05,1.5,5.32,M,,,0,0004*16
16:06:23.294 [CTD ]   8.2854,  0.00002,    0.126, 2.7691, 2.4946
16:06:23.339 [APLA] $GPVTG,114.5,T,,M,0.0,N,0.0,K,D*09
16:06:23.556 [CTD ]   8.2805,  0.00001,    0.127, 2.7693, 2.4939
16:06:23.817 [CTD ]   8.2772,  0.00002,    0.127, 2.7688, 2.4924
16:06:22.737 [OCR2] 00000027
16:06:22.740 [OCR3] 00000028
16:06:22.735 [OCR1] 00000029
16:06:23.902 [OWL ] SEAOWLA2K-0145	3907	49	41	41	1317	58	131	131	2460	2460	50	49	49
16:06:24.002 [DBG ] $STAT,RECORDING
16:06:24.000 [APLA] $UTC,20211111,160624.0007
16:06:24.079 [CTD ]   8.2751,  0.00002,    0.127, 2.7691, 2.4936
16:06:24.270 [ECO ] 99/99/99	99:99:99	700	4130	595	992	680	725	553
16:06:24.333 [APLA] $GPGGA,160624.328,4828.73577,N,06830.59357,W,4,05,1.5,5.32,M,,,0,0004*10
16:06:24.339 [APLA] $GPVTG,47.6,T,,M,0.0,N,0.0,K,D*3D
16:06:24.340 [CTD ]   8.2753,  0.00001,    0.127, 2.7696, 2.4960
16:06:24.600 [CTD ]   8.2774,  0.00001,    0.127, 2.7691, 2.4943
16:06:24.706 [OWL ] SEAOWLA2K-0145	3917	50	47	47	1317	58	137	137	2461	2461	50	48	48
16:06:24.863 [CTD ]   8.2800,  0.00001,    0.127, 2.7691, 2.4938
16:06:25.002 [DBG ] $STAT,RECORDING
16:06:25.000 [APLA] $UTC,20211111,160625.0007
16:06:23.951 [OCR2] 0000002A
16:06:23.956 [OCR1] 0000002B
16:06:23.954 [OCR3] 0000002C
16:06:25.123 [CTD ]   8.2823,  0.00002,    0.127, 2.7689, 2.4931
16:06:25.333 [APLA] $GPGGA,160625.328,4828.73577,N,06830.59357,W,4,05,1.5,5.32,M,,,0,0004*11
16:06:25.339 [APLA] $GPVTG,158.2,T,,M,0.0,N,0.0,K,D*06
16:06:25.398 [ECO ] 99/99/99	99:99:99	700	4130	595	992	680	729	553
16:06:25.384 [CTD ]   8.2838,  0.00002,    0.127, 2.7691, 2.4930
16:06:25.511 [OWL ] SEAOWLA2K-0145	3906	50	44	44	1316	59	144	144	2458	2458	50	49	49
16:06:25.646 [CTD ]   8.2853,  0.00001,    0.127, 2.7683, 2.4907
16:06:25.908 [CTD ]   8.2871,  0.00002,    0.126, 2.7683, 2.4913
16:06:26.002 [DBG ] $STAT,RECORDING
16:06:26.000 [APLA] $UTC,20211111,160626.0007
16:06:26.169 [CTD ]   8.2893,  0.00002,    0.127, 2.7676, 2.4925
16:06:26.333 [APLA] $GPGGA,160626.328,4828.73576,N,06830.59357,W,4,05,1.5,5.32,M,,,0,0004*13
16:06:26.339 [APLA] $GPVTG,179.2,T,,M,0.0,N,0.0,K,D*05
16:06:26.315 [OWL ] SEAOWLA2K-0145	3915	50	52	52	1316	59	146	146	2460	2460	50	49	49
16:06:25.165 [OCR2] 0000002D
16:06:25.168 [OCR1] 0000002E
16:06:25.170 [OCR3] 0000002F
16:06:26.431 [CTD ]   8.2913,  0.00002,    0.126, 2.7683, 2.4945
16:06:26.526 [ECO ] 99/99/99	99:99:99	700	4130	595	992	680	733	553
16:06:26.692 [CTD ]   8.2942,  0.00002,    0.127, 2.7677, 2.4921
16:06:26.952 [CTD ]   8.2959,  0.00001,    0.127, 2.7680, 2.4925
16:06:27.002 [DBG ] $STAT,RECORDING
16:06:27.000 [APLA] $UTC,20211111,160627.0007
16:06:27.120 [OWL ] SEAOWLA2K-0145	3903	50	43	43	1315	58	130	130	2458	2458	50	49	49
16:06:27.215 [CTD ]   8.2950,  0.00001,    0.127, 2.7672, 2.4943
16:06:27.333 [APLA] $GPGGA,160627.328,4828.73576,N,06830.59357,W,4,05,1.5,5.32,M,,,0,0004*12
16:06:27.339 [APLA] $GPVTG,169.0,T,,M,0.0,N,0.0,K,D*06
16:06:27.475 [CTD ]   8.2906,  0.00001,    0.127, 2.7669, 2.4940
16:06:26.381 [OCR2] 00000030
16:06:26.384 [OCR1] 00000031
16:06:26.386 [OCR3] 00000032
16:06:27.653 [ECO ] 99/99/99	99:99:99	700	4130	595	991	680	722	553
16:06:27.736 [CTD ]   8.2877,  0.00002,    0.127, 2.7672, 2.4935
16:06:27.924 [OWL ] SEAOWLA2K-0145	3912	50	46	46	1315	59	139	139	2460	2460	50	49	49
16:06:28.002 [DBG ] $STAT,RECORDING
16:06:28.000 [APLA] $UTC,20211111,160628.0007
16:06:27.998 [CTD ]   8.2882,  0.00002,    0.126, 2.7671, 2.4938
16:06:28.259 [CTD ]   8.2896,  0.00002,    0.127, 2.7674, 2.4938
16:06:28.333 [APLA] $GPGGA,160628.328,4828.73576,N,06830.59357,W,4,05,1.5,5.32,M,,,0,0004*1D
16:06:28.340 [APLA] $GPVTG,153.4,T,,M,0.0,N,0.0,K,D*0B
16:06:28.521 [CTD ]   8.2914,  0.00001,    0.127, 2.7673, 2.4924
16:06:28.729 [OWL ] SEAOWLA2K-0145	3900	50	46	46	1314	60	156	156	2460	2460	50	49	49
16:06:27.597 [OCR2] 00000033
16:06:28.781 [ECO ] 99/99/99	99:99:99	700	4130	595	992	680	726	553
16:06:27.600 [OCR1] 00000034
16:06:27.602 [OCR3] 00000035
16:06:28.783 [CTD ]   8.2926,  0.00001,    0.127, 2.7672, 2.4887
16:06:29.002 [DBG ] $STAT,RECORDING
16:06:29.000 [APLA] $UTC,20211111,160629.0007
16:06:29.044 [CTD ]   8.2917,  0.00002,    0.127, 2.7676, 2.4919
16:06:29.333 [APLA] $GPGGA,160629.328,4828.73576,N,06830.59357,W,4,05,1.5,5.32,M,,,0,0004*1C
16:06:29.339 [APLA] $GPVTG,191.0,T,,M,0.0,N,0.0,K,D*01
16:06:29.307 [CTD ]   8.2904,  0.00001,    0.127, 2.7670, 2.4924
16:06:29.533 [OWL ] SEAOWLA2K-0145	3911	49	40	40	1315	58	138	138	2459	2459	50	49	49
16:06:29.567 [CTD ]   8.2895,  0.00001,    0.127, 2.7671, 2.4936
16:06:29.827 [CTD ]   8.2894,  0.00001,    0.127, 2.7680, 2.4950
16:06:29.909 [ECO ] 99/99/99	99:99:99	700	4130	595	992	680	731	553
16:06:30.004 [DBG ] $STAT,RECORDING
16:06:30.000 [APLA] $UTC,20211111,160630.0007
16:06:28.813 [OCR2] 00000036
16:06:28.817 [OCR1] 00000037
16:06:28.820 [OCR3] 00000038
16:06:30.088 [CTD ]   8.2909,  0.00000,    0.127, 2.7679, 2.4954
16:06:30.333 [APLA] $GPGGA,160630.328,4828.73576,N,06830.59357,W,4,05,1.5,5.32,M,,,0,0004*14
16:06:30.339 [APLA] $GPVTG,200.3,T,,M,0.0,N,0.0,K,D*09
16:06:30.338 [OWL ] SEAOWLA2K-0145	3899	49	40	40	1313	59	136	136	2457	2457	50	48	48
16:06:30.350 [CTD ]   8.2932,  0.00002,    0.127, 2.7671, 2.4952
16:06:30.611 [CTD ]   8.2955,  0.00002,    0.127, 2.7680, 2.4947
16:06:30.873 [CTD ]   8.2979,  0.00001,    0.127, 2.7668, 2.4950
16:06:31.002 [DBG ] $STAT,RECORDING
16:06:31.000 [APLA] $UTC,20211111,160631.0007
16:06:31.037 [ECO ] 99/99/99	99:99:99	700	4130	595	992	680	721	553
16:06:31.134 [CTD ]   8.2999,  0.00002,    0.127, 2.7681, 2.4877
16:06:31.143 [OWL ] SEAOWLA2K-0145	3908	50	52	52	1313	60	148	148	2461	2461	50	49	49
16:06:30.029 [OCR2] 00000039
16:06:30.031 [OCR1] 0000003A
16:06:30.034 [OCR3] 0000003B
16:06:31.333 [APLA] $GPGGA,160631.328,4828.73576,N,06830.59357,W,4,05,1.5,5.32,M,,,0,0004*15
16:06:31.339 [APLA] $GPVTG,203.5,T,,M,0.0,N,0.0,K,D*0C
16:06:31.396 [CTD ]   8.2998,  0.00001,    0.127, 2.7671, 2.4882
16:06:31.657 [CTD ]   8.2971,  0.00002,    0.127, 2.7678, 2.4914
16:06:31.919 [CTD ]   8.2956,  0.00002,    0.126, 2.7662, 2.4932
16:06:32.002 [DBG ] $STAT,RECORDING
16:06:32.000 [APLA] $UTC,20211111,160632.0007
16:06:31.947 [OWL ] SEAOWLA2K-0145	3896	50	55	55	1312	59	144	144	2458	2458	50	49	49
16:06:32.165 [ECO ] 99/99/99	99:99:99	700	4130	595	992	680	728	553
16:06:32.180 [CTD ]   8.2966,  0.00002,    0.127, 2.7681, 2.4919
16:06:32.333 [APLA] $GPGGA,160632.328,4828.73576,N,06830.59357,W,4,05,1.5,5.32,M,,,0,0004*16
16:06:32.339 [APLA] $GPVTG,203.1,T,,M,0.0,N,0.0,K,D*08
16:06:31.247 [OCR1] 0000003C
16:06:31.245 [OCR2] 0000003D
16:06:31.255 [OCR3] 0000003E
16:06:32.440 [CTD ]   8.2980,  0.00002,    0.127, 2.7669, 2.4954
16:06:32.702 [CTD ]   8.2992,  0.00001,    0.127, 2.7673, 2.4949
16:06:32.752 [OWL ] SEAOWLA2K-0145	3907	50	48	48	1313	58	132	132	2458	2458	50	49	49
16:06:33.002 [DBG ] $STAT,RECORDING
16:06:33.000 [APLA] $UTC,20211111,160633.0007
16:06:32.963 [CTD ]   8.3001,  0.00001,    0.127, 2.7675, 2.4918
16:06:33.225 [CTD ]   8.2988,  0.00002,    0.127, 2.7680, 2.4925
16:06:33.292 [ECO ] 99/99/99	99:99:99	700	4130	595	992	680	728	553
16:06:33.333 [APLA] $GPGGA,160633.328,4828.73576,N,06830.59357,W,4,05,1.5,5.32,M,,,0,0004*17
16:06:33.339 [APLA] $GPVTG,16.5,T,,M,0.0,N,0.0,K,D*3A
16:06:33.486 [CTD ]   8.2982,  0.00001,    0.127, 2.7674, 2.4899
16:06:33.556 [OWL ] SEAOWLA2K-0145	3895	50	47	47	1311	59	150	150	2457	2457	50	49	49
16:06:32.462 [OCR1] 0000003F
16:06:32.464 [OCR2] 00000040
16:06:32.467 [OCR3] 00000041
16:06:33.748 [CTD ]   8.2995,  0.00002,    0.127, 2.7687, 2.4843
16:06:34.002 [DBG ] $STAT,RECORDING
16:06:34.000 [APLA] $UTC,20211111,160634.0007
16:06:34.009 [CTD ]   8.3007,  0.00002,    0.127, 2.7675, 2.4901
16:06:34.271 [CTD ]   8.3008,  0.00002,    0.127, 2.7672, 2.4836
16:06:34.333 [APLA] $GPGGA,160634.328,4828.73576,N,06830.59357,W,4,05,1.5,5.32,M,,,0,0004*10
16:06:34.340 [APLA] $GPVTG,6.0,T,,M,0.0,N,0.0,K,D*0E
16:06:34.361 [OWL ] SEAOWLA2K-0145	3905	50	50	50	1313	61	162	162	2458	2458	50	49	49
16:06:34.420 [ECO ] 99/99/99	99:99:99	700	4130	595	992	680	727	553
16:06:34.532 [CTD ]   8.2983,  0.00002,    0.127, 2.7671, 2.4948
16:06:34.792 [CTD ]   8.2939,  0.00001,    0.127, 2.7672, 2.4919
16:06:33.679 [OCR2] 00000042
16:06:33.677 [OCR1] 00000043
16:06:33.682 [OCR3] 00000044
16:06:35.002 [DBG ] $STAT,RECORDING
16:06:35.000 [APLA] $UTC,20211111,160635.0007
16:06:35.055 [CTD ]   8.2922,  0.00002,    0.127, 2.7677, 2.4982
16:06:35.165 [OWL ] SEAOWLA2K-0145	3892	50	55	55	1310	60	146	146	2458	2458	50	48	48
16:06:35.333 [APLA] $GPGGA,160635.328,4828.73577,N,06830.59357,W,4,05,1.5,5.32,M,,,0,0004*10
16:06:35.339 [APLA] $GPVTG,355.0,T,,M,0.0,N,0.0,K,D*0B
16:06:35.315 [CTD ]   8.2931,  0.00001,    0.127, 2.7692, 2.4951
16:06:35.548 [ECO ] 99/99/99	99:99:99	700	4130	595	993	680	731	553
16:06:35.577 [CTD ]   8.2945,  0.00001,    0.127, 2.7676, 2.4933
16:06:35.838 [CTD ]   8.2947,  0.00002,    0.127, 2.7671, 2.4924
16:06:36.002 [DBG ] $STAT,RECORDING
16:06:36.000 [APLA] $UTC,20211111,160636.0007
16:06:35.970 [OWL ] SEAOWLA2K-0145	3903	50	50	50	1312	60	149	149	2460	2460	50	48	48
16:06:34.894 [OCR2] 00000045
16:06:34.897 [OCR1] 00000046
16:06:34.900 [OCR3] 00000047
16:06:36.100 [CTD ]   8.2919,  0.00002,    0.127, 2.7665, 2.4904
16:06:36.333 [APLA] $GPGGA,160636.328,4828.73577,N,06830.59357,W,4,05,1.5,5.32,M,,,0,0004*13
16:06:36.339 [APLA] $GPVTG,310.6,T,,M,0.0,N,0.0,K,D*0C
16:06:36.361 [CTD ]   8.2881,  0.00002,    0.127, 2.7676, 2.4915
16:06:36.623 [CTD ]   8.2844,  0.00002,    0.127, 2.7681, 2.4914
16:06:36.676 [ECO ] 99/99/99	99:99:99	700	4130	595	993	680	731	553
16:06:36.774 [OWL ] SEAOWLA2K-0145	3891	50	45	45	1310	59	146	146	2456	2456	50	49	49
16:06:36.884 [CTD ]   8.2818,  0.00001,    0.127, 2.7676, 2.4921
16:06:37.002 [DBG ] $STAT,RECORDING
16:06:37.000 [APLA] $UTC,20211111,160637.0007
16:06:37.144 [CTD ]   8.2805,  0.00002,    0.127, 2.7670, 2.4911
16:06:36.108 [OCR2] 00000048
16:06:36.110 [OCR1] 00000049
16:06:36.114 [OCR3] 0000004A
16:06:37.333 [APLA] $GPGGA,160637.328,4828.73577,N,06830.59357,W,05,5,5.32,M,,,0,0004*12
16:06:37.340 [APLA] $GPVTG,352.5,T,,M,0.0,N,0.0,K,D*09
16:06:37.407 [CTD ]   8.2807,  0.00002,    0.126, 2.7677, 2.4927
16:06:37.579 [OWL ] SEAOWLA2K-0145	3902	50	56	56	1313	59	143	143	2459	2459	50	49	49
16:06:37.667 [CTD ]   8.2827,  0.00001,    0.127, 2.7678, 2.4912
16:06:37.803 [ECO ] 99/99/99	99:99:99	700	4130	595	992	680	729	553
16:06:37.928 [CTD ]   8.2844,  0.00001,    0.127, 2.7670, 2.4911
16:06:38.002 [DBG ] $STAT,RECORDING
16:06:38.000 [APLA] $UTC,20211111,160638.0007
16:06:38.193 [CTD ]   8.2861,  0.00001,    0.127, 2.7688, 2.4906
16:06:38.333 [APLA] $GPGGA,160638.328,4828.73577,N,06830.59357,W,4,05,1.5,5.32,M,,,0,0004*1D
16:06:38.340 [APLA] $GPVTG,5.0,T,,M,0.0,N,0.0,K,D*0D
16:06:38.383 [OWL ] SEAOWLA2K-0145	3889	50	53	53	1309	58	141	141	2458	2458	50	49	49
16:06:38.451 [CTD ]   8.2874,  0.00002,    0.127, 2.7674, 2.4911
16:06:37.323 [OCR2] 0000004B
16:06:37.326 [OCR1] 0000004C
16:06:37.330 [OCR3] 0000004D
16:06:38.713 [CTD ]   8.2887,  0.00001,    0.127, 2.7683, 2.4839
16:06:38.931 [ECO ] 99/99/99	99:99:99	700	4130	595	993	680	723	553
16:06:39.002 [DBG ] $STAT,RECORDING
16:06:39.000 [APLA] $UTC,20211111,160639.0007
16:06:38.974 [CTD ]   8.2903,  0.00002,    0.127, 2.7675, 2.4894
16:06:39.188 [OWL ] SEAOWLA2K-0145	3899	50	53	53	1311	57	124	124	2456	2456	50	49	49
16:06:39.236 [CTD ]   8.2923,  0.00002,    0.127, 2.7670, 2.4968
16:06:39.333 [APLA] $GPGGA,160639.328,4828.73577,N,06830.59357,W,4,05,1.5,5.32,M,,,0,0004*1C
16:06:39.340 [APLA] $GPVTG,344.7,T,,M,0.0,N,0.0,K,D*0C
16:06:39.497 [CTD ]   8.2936,  0.00002,    0.127, 2.7674, 2.4969
16:06:38.539 [OCR2] 0000004E
16:06:38.542 [OCR1] 0000004F
16:06:38.546 [OCR3] 00000050
16:06:39.759 [CTD ]   8.2946,  0.00001,    0.127, 2.7668, 2.4967
16:06:40.002 [DBG ] $STAT,RECORDING
16:06:40.000 [APLA] $UTC,20211111,160640.0007
16:06:39.992 [OWL ] SEAOWLA2K-0145	3886	50	53	53	1308	59	138	138	2457	2457	50	49	49
16:06:40.019 [CTD ]   8.2952,  0.00002,    0.127, 2.7669, 2.4947
16:06:40.059 [ECO ] 99/99/99	99:99:99	700	4130	595	991	680	726	553
16:06:40.280 [CTD ]   8.2958,  0.00000,    0.127, 2.7677, 2.4950
16:06:40.333 [APLA] $GPGGA,160640.328,4828.73577,N,06830.59357,W,4,05,1.5,5.33,M,,,0,0004*13
16:06:40.340 [APLA] $GPVTG,331.7,T,,M,0.0,N,0.0,K,D*0E
16:06:40.542 [CTD ]   8.2968,  0.00001,    0.127, 2.7671, 2.4895
16:06:40.803 [CTD ]   8.2977,  0.00001,    0.127, 2.7666, 2.4913
16:06:40.797 [OWL ] SEAOWLA2K-0145	3897	50	50	50	1311	59	142	142	2456	2456	50	48	48
16:06:39.758 [OCR1] 00000051
16:06:39.755 [OCR2] 00000052
16:06:39.763 [OCR3] 00000053
16:06:41.002 [DBG ] $STAT,RECORDING
16:06:41.000 [APLA] $U,20211111,160641.0007
16:06:41.065 [CTD ]   8.2986,  0.00000,    0.127, 2.7669, 2.5002
16:06:41.187 [ECO ] 99/99/99	99:99:99	700	4130	595	992	680	721	553
16:06:41.333 [APLA] $GPGGA,160641.328,4828.73577,N,06830.59357,W,4,05,1.5,5.33,M,,,0,0004*12
16:06:41.339 [APLA] $GPVTG,9.9,T,,M,0.0,N,0.0,K,D*08
16:06:41.326 [CTD ]   8.2982,  0.00001,    0.127, 2.7674, 2.4958
16:06:41.588 [CTD ]   8.2952,  0.00000,    0.127, 2.7671, 2.4922
16:06:41.601 [OWL ] SEAOWLA2K-0145	3884	50	51	51	1307	58	136	136	2457	2457	50	48	48
16:06:41.849 [CTD ]   8.2914,  0.00001,    0.127, 2.7672, 2.4968
16:06:42.002 [DBG ] $STAT,RECORDING
16:06:42.000 [APLA] $UTC,20211111,160642.0007
16:06:42.109 [CTD ]   8.2884,  0.00001,    0.127, 2.7669, 2.4932
16:06:40.971 [OCR1] 00000054
16:06:40.973 [OCR2] 00000055
16:06:40.979 [OCR3] 00000056
16:06:42.333 [APLA] $GPGGA,160642.328,4828.73577,N,06830.59357,W,4,05,1.5,5.33,M,,,0,0004*11
16:06:42.314 [ECO ] 99/99/99	99:99:99	700	4130	595	992	680	728	553
16:06:42.339 [APLA] $GPVTG,9.7,T,,M,0.0,N,0.0,K,D*06
16:06:42.371 [CTD ]   8.2884,  0.00001,    0.127, 2.7669, 2.4926
16:06:42.406 [OWL ] SEAOWLA2K-0145	3896	50	60	60	1310	59	143	143	2458	2458	50	49	49
16:06:42.632 [CTD ]   8.2893,  0.00001,    0.127, 2.7663, 2.4925
16:06:42.894 [CTD ]   8.2880,  0.00001,    0.127, 2.7670, 2.4939
16:06:43.002 [DBG ] $STAT,RECORDING
16:06:43.000 [APLA] $UTC,20211111,160643.0007
16:06:43.155 [CTD ]   8.2841,  0.00001,    0.127, 2.7670, 2.4953
16:06:43.210 [OWL ] SEAOWLA2K-0145	3882	50	53	53	1307	58	135	135	2458	2458	50	48	48
16:06:43.333 [APLA] $GPGGA,160643.328,4828.73577,N,06830.59357,W,4,05,1.5,5.33,M,,,0,0004*10
16:06:43.340 [APLA] $GPVTG,4.4,T,,M,0.0,N,0.0,K,D*08
16:06:42.189 [OCR2] 00000057
16:06:42.187 [OCR1] 00000058
16:06:42.195 [OCR3] 00000059
16:06:43.417 [CTD ]   8.2779,  0.00001,    0.127, 2.7672, 2.4959
16:06:43.442 [ECO ] 99/99/99	99:99:99	700	4130	595	992	680	727	553
16:06:43.678 [CTD ]   8.2713,  0.00001,    0.127, 2.7665, 2.4992
16:06:43.940 [CTD ]   8.2667,  0.00000,    0.127, 2.7667, 2.4995
16:06:44.002 [DBG ] $STAT,RECORDING
16:06:44.000 [APLA] $UTC,20211111,160644.0007
16:06:44.015 [OWL ] SEAOWLA2K-0145	3894	49	40	40	1310	59	146	146	2455	2455	50	48	48
16:06:44.201 [CTD ]   8.2662,  0.00001,    0.127, 2.7674, 2.4997
16:06:44.333 [APLA] $GPGGA,160644.328,4828.73577,N,06830.59357,W,4,05,1.5,5.33,M,,,0,0004*17
16:06:44.340 [APLA] $GPVTG,8.0,T,,M,0.0,N,0.0,K,D*00
16:06:44.461 [CTD ]   8.2678,  0.00002,    0.127, 2.7673, 2.5029
16:06:44.570 [ECO ] 99/99/99	99:99:99	700	4130	595	992	680	728	553
16:06:43.405 [OCR1] 0000005A
16:06:43.403 [OCR2] 0000005B
16:06:43.411 [OCR3] 0000005C
16:06:44.724 [CTD ]   8.2698,  0.00001,    0.127, 2.7667, 2.5050
16:06:44.819 [OWL ] SEAOWLA2K-0145	3881	50	50	50	1306	60	152	152	2457	2457	50	49	49
16:06:45.005 [DBG ] $STAT,RECORDING
16:06:45.000 [APLA] $UTC,20211111,160645.0007
16:06:44.983 [CTD ]   8.2723,  0.00002,    0.127, 2.7669, 2.5017
16:06:45.245 [CTD ]   8.2750,  0.00001,    0.127, 2.7669, 2.5041
16:06:45.333 [APLA] $GPGGA,160645.328,4828.73577,N,06830.59357,W,4,05,1.5,5.33,M,,,0,0004*16
16:06:45.340 [APLA] $GPVTG,348.2,T,,M,0.0,N,0.0,K,D*05
16:06:45.507 [CTD ]   8.2768,  0.00001,    0.127, 2.7672, 2.5017
16:06:45.624 [OWL ] SEAOWLA2K-0145	3891	50	44	44	1311	59	141	141	2450	2450	50	49	49
16:06:45.698 [ECO ] 99/99/99	99:99:99	700	4130	595	993	680	727	553
16:06:45.769 [CTD ]   8.2776,  0.00001,    0.127, 2.7666, 2.5145
16:06:44.619 [OCR1] 0000005D
16:06:44.621 [OCR2] 0000005E
16:06:44.627 [OCR3] 0000005F
16:06:46.002 [DBG ] $STAT,RECORDING
16:06:46.000 [APLA] $UTC,20211111,160646.0007
16:06:46.030 [CTD ]   8.2774,  0.00001,    0.127, 2.7661, 2.5209
16:06:46.292 [CTD ]   8.2785,  0.00001,    0.127, 2.7663, 2.5262
16:06:46.333 [APLA] $GPGGA,160646.328,4828.73577,N,06830.59357,W,4,05,1.5,5.33,M,,,0,0004*15
16:06:46.340 [APLA] $GPVTG,356.5,T,,M,0.0,N,0.0,K,D*0D
16:06:46.428 [OWL ] SEAOWLA2K-0145	3877	50	51	51	1306	59	141	141	2458	2458	50	49	49
16:06:46.552 [CTD ]   8.2804,  0.00001,    0.127, 2.7664, 2.5291
16:06:46.826 [ECO ] 99/99/99	99:99:99	700	4130	595	993	680	727	553
16:06:46.813 [CTD ]   8.2819,  0.00001,    0.127, 2.7666, 2.5295
16:06:47.002 [DBG ] $STAT,RECORDING
16:06:47.000 [APLA] $UTC,20211111,160647.0007
16:06:45.837 [OCR2] 00000060
16:06:45.834 [OCR1] 00000061
16:06:45.843 [OCR3] 00000062
16:06:47.079 [CTD ]   8.2837,  0.00001,    0.127, 2.7657, 2.5311
16:06:47.233 [OWL ] SEAOWLA2K-0145	3890	49	36	36	1310	58	132	132	2454	2454	50	49	49
16:06:47.333 [APLA] $GPGGA,160647.328,4828.73577,N,06830.59357,W,4,05,1.5,5.33,M,,,0,0004*14
16:06:47.340 [APLA] $GPVTG,38.0,T,,M,0.0,N,0.0,K,D*33
16:06:47.336 [CTD ]   8.2853,  0.00001,    0.127, 2.7668, 2.5307
16:06:47.596 [CTD ]   8.2866,  0.00001,    0.127, 2.7662, 2.5260
16:06:47.858 [CTD ]   8.2876,  0.00002,    0.127, 2.7667, 2.5241
16:06:47.953 [ECO ] 99/99/99	99:99:99	700	4130	595	993	680	723	553
16:06:48.002 [DBG ] $STAT,RECORDING
16:06:48.000 [APLA] $UTC,20211111,160648.0007
16:06:48.037 [OWL ] SEAOWLA2K-0145	3877	50	50	50	1305	59	147	147	2463	2463	50	49	49
16:06:48.119 [CTD ]   8.2889,  0.00002,    0.127, 2.7662, 2.5270
16:06:47.053 [OCR1] 00000063
16:06:47.050 [OCR2] 00000064
16:06:47.059 [OCR3] 00000065
16:06:48.333 [APLA] $GPGGA,160648.328,4828.73577,N,06830.59357,W,4,01.5,5.33,M,,,0,0004*1B
16:06:48.340 [APLA] $GTG,66.8,T,,M,0.0,N,0.0,K,D*30
16:06:48.382 [CTD ]   8.2904,  0.00002,    0.127, 2.7659, 2.5245
16:06:48.643 [CTD ]   8.2920,  0.00002,    0.127, 2.7660, 2.5161
16:06:48.842 [OWL ] SEAOWLA2K-0145	3889	50	59	59	1310	57	125	125	2459	2459	50	49	49
16:06:48.905 [CTD ]   8.2934,  0.00001,    0.127, 2.7658, 2.5405
16:06:49.002 [DBG ] $STAT,RECORDING
16:06:49.000 [APLA] $UTC,20211111,160649.0007
16:06:49.081 [ECO ] 99/99/99	99:99:99	700	4130	595	992	680	724	553
16:06:49.165 [CTD ]   8.2948,  0.00001,    0.127, 2.7665, 2.5444
16:06:49.333 [APLA] $GPGGA,160649.328,4828.73577,N,06830.59357,W,4,05,1.5,5.33,M,,,0,0004*1A
16:06:49.340 [APLA] $GPVTG,142.8,T,,M,0.0,N,0.0,K,D*07
16:06:49.427 [CTD ]   8.2962,  0.00001,    0.127, 2.7665, 2.5435
16:06:48.265 [OCR1] 00000066
16:06:48.268 [OCR2] 00000067
16:06:48.275 [OCR3] 00000068
16:06:49.646 [OWL ] SEAOWLA2K-0145	3875	50	53	53	1305	58	132	132	2457	2457	50	49	49
16:06:49.688 [CTD ]   8.2976,  0.00001,    0.127, 2.7663, 2.5391
16:06:49.949 [CTD ]   8.2988,  0.00002,    0.127, 2.7663, 2.5269
16:06:50.002 [DBG ] $STAT,RECORDING
16:06:50.000 [APLA] $UTC,20211111,160650.0007
16:06:50.209 [ECO ] 99/99/99	99:99:99	700	4130	595	992	680	727	553
16:06:50.211 [CTD ]   8.3000,  0.00001,    0.127, 2.7664, 2.5206
16:06:50.333 [APLA] $GPGGA,160650.328,4828.73577,N,06830.59357,W,4,05,1.5,5.33,M,,,0,0004*12
16:06:50.340 [APLA] $GPVTG,212.7,T,,M,0.0,N,0.0,K,D*0E
16:06:50.451 [OWL ] SEAOWLA2K-0145	3887	49	40	40	1309	58	137	137	2463	2463	50	49	49
16:06:50.471 [CTD ]   8.3006,  0.00001,    0.127, 2.7665, 2.5170
16:06:49.484 [OCR2] 00000069
16:06:49.482 [OCR1] 0000006A
16:06:49.491 [OCR3] 0000006B
16:06:50.733 [CTD ]   8.3009,  0.00002,    0.127, 2.7666, 2.5168
16:06:51.002 [DBG ] $STAT,RECORDING
16:06:51.000 [APLA] $UTC,20211111,160651.0007
16:06:50.994 [CTD ]   8.3015,  0.00001,    0.127, 2.7660, 2.5133
16:06:51.257 [CTD ]   8.3028,  0.00002,    0.127, 2.7664, 2.5109
16:06:51.255 [OWL ] SEAOWLA2K-0145	3872	50	56	56	1304	59	146	146	2463	2463	50	49	49
16:06:51.333 [APLA] $GPGGA,160651.328,4828.73577,N,06830.59357,W,4,05,1.5,5.33,M,,,0,0004*13
16:06:51.340 [APLA] $GPVTG,221.2,T,,M,0.0,N,0.0,K,D*0B
16:06:51.337 [ECO ] 99/99/99	99:99:99	700	4130	595	992	680	724	553
16:06:51.518 [CTD ]   8.3045,  0.00002,    0.127, 2.7672, 2.5102
16:06:51.780 [CTD ]   8.3060,  0.00002,    0.127, 2.7669, 2.5117
16:06:50.701 [OCR1] 0000006C
16:06:50.698 [OCR2] 0000006D
16:06:50.707 [OCR3] 0000006E
16:06:52.002 [DBG ] $STAT,RECORDING
16:06:52.000 [APLA] $UTC,20211111,160652.0007
16:06:52.040 [CTD ]   8.3070,  0.00002,    0.127, 2.7676, 2.5087
16:06:52.060 [OWL ] SEAOWLA2K-0145	3884	50	48	48	1309	59	142	142	2459	2459	50	49	49
16:06:52.333 [APLA] $GPGGA,160652.328,4828.73577,N,06830.59357,W,4,05,1.5,5.33,M,,,0,0004*10
16:06:52.300 [CTD ]   8.3072,  0.00001,    0.127, 2.7678, 2.5097
16:06:52.340 [APLA] $GPVTG,69.0,T,,M,0.0,N,0.0,K,D*37
16:06:52.464 [ECO ] 99/99/99	99:99:99	700	4130	595	992	680	725	553
16:06:52.563 [CTD ]   8.3073,  0.00001,    0.127, 2.7680, 2.5119
16:06:52.824 [CTD ]   8.3075,  0.00001,    0.127, 2.7669, 2.5084
16:06:52.865 [OWL ] SEAOWLA2K-0145	3870	50	47	47	1303	59	141	141	2465	2465	50	48	48
16:06:53.002 [DBG ] $STAT,RECORDING
16:06:53.000 [APLA] $UTC,20211111,160653.0007
16:06:51.913 [OCR1] 0000006F
16:06:51.915 [OCR2] 00000070
16:06:53.086 [CTD ]   8.3078,  0.00001,    0.127, 2.7671, 2.5109
16:06:51.923 [OCR3] 00000071
16:06:53.333 [APLA] $GPGGA,160653.328,4828.73577,N,06830.59356,W,4,05,1.5,5.33,M,,,0,0004*10
16:06:53.340 [APLA] $GPVTG,78.4,T,,M,0.0,N,0.0,K,D*33
16:06:53.346 [CTD ]   8.3082,  0.00001,    0.127, 2.7676, 2.5164
16:06:53.592 [ECO ] 99/99/99	99:99:99	700	4130	595	993	680	728	553
16:06:53.608 [CTD ]   8.3089,  0.00002,    0.127, 2.7677, 2.5170
16:06:53.669 [OWL ] SEAOWLA2K-0145	3882	50	51	51	1309	59	145	145	2465	2465	50	49	49
16:06:53.869 [CTD ]   8.3094,  0.00001,    0.127, 2.7675, 2.5165
16:06:54.002 [DBG ] $STAT,RECORDING
16:06:54.000 [APLA] $UTC,20211111,160654.0007
16:06:54.132 [CTD ]   8.3100,  0.00002,    0.127, 2.7679, 2.5122
16:06:54.333 [APLA] $GPGGA,160654.328,4828.73577,N,06830.59356,W,4,05,1.5,5.33,M,,,0,0004*17
16:06:54.339 [APLA] $GPVTG,89.5,T,,M,0.0,N,0.0,K,D*3C
16:06:53.129 [OCR1] 00000072
16:06:53.131 [OCR2] 00000073
16:06:53.139 [OCR3] 00000074
16:06:54.393 [CTD ]   8.3106,  0.00001,    0.127, 2.7682, 2.5090
16:06:54.474 [OWL ] SEAOWLA2K-0145	3868	50	55	55	1303	58	140	140	2464	2464	50	48	48
16:06:54.652 [CTD ]   8.3108,  0.00001,    0.127, 2.7680, 2.5074
16:06:54.720 [ECO ] 99/99/99	99:99:99	700	4130	595	994	680	729	553
16:06:54.914 [CTD ]   8.3111,  0.00002,    0.127, 2.7677, 2.5083
16:06:55.002 [DBG ] $STAT,RECORDING
16:06:55.000 [APLA] $UTC,20211111,160655.0007
16:06:55.175 [CTD ]   8.3120,  0.00002,    0.127, 2.7690, 2.5262
16:06:55.278 [OWL ] SEAOWLA2K-0145	3879	51	64	64	1308	60	155	155	2453	2453	50	49	49
16:06:55.333 [APLA] $GPGGA,160655.328,4828.73577,N,06830.59356,W,4,05,1.5,5.33,M,,,0,0004*16
16:06:55.340 [APLA] $GPVTG,92.7,T,,M,0.0,N,0.0,K,D*34
16:06:55.437 [CTD ]   8.3130,  0.00001,    0.127, 2.7682, 2.5278
16:06:54.353 [OCR1] 00000075
16:06:54.355 [OCR2] 00000076
16:06:54.358 [OCR3] 00000077
16:06:55.699 [CTD ]   8.3143,  0.00002,    0.127, 2.7684, 2.5226
16:06:55.848 [ECO ] 99/99/99	99:99:99	700	4130	595	992	680	729	553
16:06:56.002 [DBG ] $STAT,RECORDING
16:06:56.000 [APLA] $UTC,20211111,160656.0007
16:06:55.959 [CTD ]   8.3156,  0.00001,    0.127, 2.7682, 2.5271
16:06:56.083 [OWL ] SEAOWLA2K-0145	3864	50	47	47	1303	59	140	140	2458	2458	50	48	48
16:06:56.224 [CTD ]   8.3170,  0.00002,    0.127, 2.7676, 2.5131
16:06:56.333 [APLA] $GPGGA,160656.328,4828.73577,N,06830.59356,W,4,05,1.5,5.33,M,,,0,0004*15
16:06:56.340 [APLA] $GPVTG,103.4,T,,M,0.0,N,0.0,K,D*0E
16:06:56.483 [CTD ]   8.3184,  0.00001,    0.127, 2.7677, 2.5177
16:06:55.561 [OCR1] 00000078
16:06:55.563 [OCR2] 00000079
16:06:55.571 [OCR3] 0000007A
16:06:56.744 [CTD ]   8.3191,  0.00000,    0.127, 2.7691, 2.5201
16:06:56.887 [OWL ] SEAOWLA2K-0145	3877	50	48	48	1309	59	136	136	2458	2458	50	49	49
16:06:57.002 [DBG ] $STAT,RECORDING
16:06:57.000 [APLA] $UTC,20211111,160657.0007
16:06:56.975 [ECO ] 99/99/99	99:99:99	700	4130	595	992	680	728	553
16:06:57.005 [CTD ]   8.3194,  0.00002,    0.127, 2.7695, 2.5215
16:06:57.267 [CTD ]   8.3198,  0.00002,    0.127, 2.7690, 2.5194
16:06:57.333 [APLA] $GPGGA,160657.328,4828.73577,N,06830.59356,W,4,05,1.5,5.33,M,,,0,0004*14
16:06:57.340 [APLA] $GPVTG,121.8,T,,M,0.0,N,0.0,K,D*02
16:06:57.527 [CTD ]   8.3198,  0.00002,    0.127, 2.7691, 2.5048
16:06:57.692 [OWL ] SEAOWLA2K-0145	3864	50	42	42	1302	59	140	140	2458	2458	50	49	49
16:06:57.788 [CTD ]   8.3200,  0.00002,    0.127, 2.7691, 2.5015
16:06:56.776 [OCR1] 0000007B
16:06:56.778 [OCR2] 0000007C
16:06:58.002 [DBG ] $STAT,RECORDING
16:06:58.000 [APLA] $UTC,20211111,160658.0007
16:06:56.787 [OCR3] 0000007D
16:06:58.050 [CTD ]   8.3202,  0.00001,    0.127, 2.7682, 2.5124
16:06:58.103 [ECO ] 99/99/99	99:99:99	700	4130	595	993	680	724	553
16:06:58.333 [APLA] $GPGGA,160658.328,4828.73577,N,06830.59356,W,4,05,1.5,5.32,M,,,0,0004*1A
16:06:58.340 [APLA] $GPVTG,85.4,T,,M,0.0,N,0.0,K,D*31
16:06:58.311 [CTD ]   8.3185,  0.00001,    0.127, 2.7683, 2.5246
16:06:58.496 [OWL ] SEAOWLA2K-0145	3876	50	54	54	1308	59	147	147	2463	2463	50	49	49
16:06:58.573 [CTD ]   8.3152,  0.00002,    0.127, 2.7683, 2.5361
16:06:58.834 [CTD ]   8.3125,  0.00001,    0.127, 2.7690, 2.5388
16:06:59.002 [DBG ] $STAT,RECORDING
16:06:59.000 [APLA] $UTC,20211111,160659.0007
16:06:59.096 [CTD ]   8.3121,  0.00002,    0.127, 2.7691, 2.5291
16:06:57.992 [OCR1] 0000007E
16:06:57.995 [OCR2] 0000007F
16:06:58.009 [OCR3] 00000080
16:06:59.231 [ECO ] 99/99/99	99:99:99	700	4130	595	993	680	726	553
16:06:59.333 [APLA] $GPGGA,160659.328,4828.73577,N,06830.59356,W,4,05,1.5,5.33,M,,,0,0004*1A
16:06:59.340 [APLA] $GPVTG,97.7,T,,M,0.0,N,0.0,K,D*31
16:06:59.301 [OWL ] SEAOWLA2K-0145	3860	50	42	42	1302	59	143	143	2460	2460	50	49	49
16:06:59.356 [CTD ]   8.3129,  0.00002,    0.127, 2.7690, 2.5463
16:06:59.619 [CTD ]   8.3138,  0.00002,    0.127, 2.7689, 2.5626
16:06:59.879 [CTD ]   8.3150,  0.00002,    0.127, 2.7695, 2.5499
16:07:00.004 [DBG ] $STAT,RECORDING
16:07:00.000 [APLA] $UTC,20211111,160700.0007
16:07:00.105 [OWL ] SEAOWLA2K-0145	3874	50	45	45	1307	59	140	140	2457	2457	50	49	49
16:07:00.140 [CTD ]   8.3160,  0.00002,    0.127, 2.7691, 2.5841
16:07:00.333 [APLA] $GPGGA,160700.328,4828.73577,N,06830.59356,W,4,05,1.5,5.32,M,,,0,0004*16
16:07:00.340 [APLA] $GPVTG,69.0,T,,M,0.0,N,0.0,K,D*37
16:07:00.359 [ECO ] 99/99/99	99:99:99	700	4130	595	992	680	729	553
16:06:59.209 [OCR1] 00000081
16:06:59.212 [OCR2] 00000082
16:06:59.222 [OCR3] 00000083
16:07:00.402 [CTD ]   8.3165,  0.00002,    0.127, 2.7694, 2.2942
16:07:00.663 [CTD ]   8.3172,  0.00002,    0.127, 2.7694, 2.6228
16:07:00.910 [OWL ] SEAOWLA2K-0145	3857	50	50	50	1303	59	140	140	2457	2457	50	49	49
16:07:00.925 [CTD ]   8.3174,  0.00001,    0.127, 2.7699, 2.5788
16:07:01.002 [DBG ] $STAT,RECORDING
16:07:01.000 [APLA] $UTC,20211111,160701.0007
16:07:01.186 [CTD ]   8.3170,  0.00000,    0.127, 2.7691, 2.4744
16:07:01.333 [APLA] $GPGGA,160701.328,4828.73577,N,06830.59356,W,4,05,1.5,5.32,M,,,0,0004*17
16:07:01.340 [APLA] $GPVTG,74.2,T,,M,0.0,N,0.0,K,D*39
16:07:01.448 [CTD ]   8.3147,  0.00002,    0.127, 2.7693, 2.4917
16:07:01.487 [ECO ] 99/99/99	99:99:99	700	4130	595	993	680	727	553
16:07:00.423 [OCR1] 00000084
16:07:00.426 [OCR2] 00000085
16:07:00.435 [OCR3] 00000086
16:07:01.709 [CTD ]   8.3072,  0.00001,    0.127, 2.7700, 2.6342
16:07:01.714 [OWL ] SEAOWLA2K-0145	3871	50	46	46	1307	60	148	148	2454	2454	50	49	49
16:07:02.002 [DBG ] $STAT,RECORDING
16:07:02.000 [APLA] $UTC,20211111,160702.0007
16:07:01.971 [CTD ]   8.2965,  0.00002,    0.127, 2.7686, 2.5605
16:07:02.231 [CTD ]   8.2876,  0.00001,    0.127, 2.7689, 2.5566
16:07:02.333 [APLA] $GPGGA,160702.328,4828.73577,N,06830.59356,W,4,05,1.5,5.32,M,,,0,0004*14
16:07:02.340 [APLA] $GPVTG,77.5,T,,M,0.0,N,0.0,K,D*3D
16:07:02.492 [CTD ]   8.2828,  0.00002,    0.127, 2.7683, 2.5348
16:07:02.519 [OWL ] SEAOWLA2K-0145	3856	49	40	40	1301	60	151	151	2452	2452	50	49	49
16:07:02.614 [ECO ] 99/99/99	99:99:99	700	4130	595	993	680	726	553
16:07:02.754 [CTD ]   8.2797,  0.00002,    0.127, 2.7694, 2.5218
16:07:01.639 [OCR1] 00000087
16:07:01.642 [OCR2] 00000088
16:07:01.651 [OCR3] 00000089
16:07:03.002 [DBG ] $STAT,RECORDING
16:07:03.000 [APLA] $UTC,20211111,160703.0007
16:07:03.015 [CTD ]   8.2794,  0.00002,    0.127, 2.7700, 2.5120
16:07:03.277 [CTD ]   8.2817,  0.00002,    0.127, 2.7693, 2.5059
16:07:03.333 [APLA] $GPGGA,160703.328,4828.73577,N,06830.59357,W,4,05,1.5,5.32,M,,,0,0004*14
16:07:03.340 [APLA] $GPVTG,116.1,T,,M,0.0,N,0.0,K,D*0F
16:07:03.324 [OWL ] SEAOWLA2K-0145	3870	49	41	41	1309	58	135	135	2450	2450	50	49	49
16:07:03.538 [CTD ]   8.2841,  0.00001,    0.127, 2.7691, 2.5027
16:07:03.742 [ECO ] 99/99/99	99:99:99	700	4130	595	992	680	726	553
16:07:03.800 [CTD ]   8.2859,  0.00000,    0.127, 2.7690, 2.5011
16:07:04.002 [DBG ] $STAT,RECORDING
16:07:04.000 [APLA] $UTC,20211111,160704.0007
16:07:02.856 [OCR1] 0000008A
16:07:02.859 [OCR2] 0000008B
16:07:02.867 [OCR3] 0000008C
16:07:04.061 [CTD ]   8.2851,  0.00001,    0.127, 2.7696, 2.4997
16:07:04.128 [OWL ] SEAOWLA2K-0145	3857	50	47	47	1301	58	134	134	2456	2456	50	49	49
16:07:04.333 [APLA] $GPGGA,160704.328,4828.73577,N,06830.59356,W,4,05,1.5,5.32,M,,,0,0004*12
16:07:04.340 [APLA] $GPVTG,161.4,T,,M,0.0,N,0.0,K,D*0A
16:07:04.323 [CTD ]   8.2827,  0.00002,    0.127, 2.7706, 2.4990
16:07:04.584 [CTD ]   8.2796,  0.00002,    0.127, 2.7695, 2.4998
16:07:04.844 [CTD ]   8.2739,  0.00001,    0.127, 2.7690, 2.4986
16:07:04.870 [ECO ] 99/99/99	99:99:99	700	4130	595	993	680	730	553
16:07:04.933 [OWL ] SEAOWLA2K-0145	3870	50	50	50	1309	58	131	131	2458	2458	50	49	49
16:07:05.002 [DBG ] $STAT,RECORDING
16:07:05.000 [APLA] $UTC,20211111,160705.0007
16:07:05.110 [CTD ]   8.2651,  0.00002,    0.127, 2.7687, 2.4976
16:07:04.070 [OCR1] 0000008D
16:07:04.073 [OCR2] 0000008E
16:07:04.083 [OCR3] 0000008F
16:07:05.333 [APLA] $GPGGA,160705.328,4828.73577,N,06830.59356,W,4,05,1.5,5.32,M,,,0,0004*13
16:07:05.340 [APLA] $GPVTG,94.6,T,,M,0.0,N,0.0,K,D*33
16:07:05.367 [CTD ]   8.2546,  0.00002,    0.127, 2.7682, 2.4986
16:07:05.628 [CTD ]   8.2495,  0.00001,    0.127, 2.7685, 2.4969
16:07:05.737 [OWL ] SEAOWLA2K-0145	3854	50	50	50	1303	60	152	152	2458	2458	50	49	49
16:07:05.890 [CTD ]   8.2472,  0.00002,    0.127, 2.7686, 2.4979
16:07:06.002 [DBG ] $STAT,RECORDING
16:07:06.000 [APLA] $UTC,20211111,160706.0007
16:07:05.998 [ECO ] 99/99/99	99:99:99	700	4130	595	993	680	726	553
16:07:06.152 [CTD ]   8.2422,  0.00002,    0.127, 2.7682, 2.4979
16:07:06.333 [APLA] $GPGGA,160706.328,4828.73576,N,06830.59356,W,4,05,1.5,5.32,M,,,0,0004*11
16:07:06.340 [APLA] $GPVTG,122.1,T,,M,0.0,N,0.0,K,D*08
16:07:06.413 [CTD ]   8.2363,  0.00001,    0.127, 2.7693, 2.4978
16:07:05.286 [OCR1] 00000090
16:07:05.288 [OCR2] 00000091
16:07:05.300 [OCR3] 00000092
16:07:06.542 [OWL ] SEAOWLA2K-0145	3868	50	50	50	1309	58	136	136	2452	2452	50	49	49
16:07:06.675 [CTD ]   8.2327,  0.00001,    0.127, 2.7680, 2.4980
16:07:06.936 [CTD ]   8.2317,  0.00000,    0.127, 2.7681, 2.4983
16:07:07.002 [DBG ] $STAT,RECORDING
16:07:07.000 [APLA] $UTC,20211111,160707.0007
16:07:07.125 [ECO ] 99/99/99	99:99:99	700	4130	595	993	680	730	553
16:07:07.196 [CTD ]   8.2320,  0.00002,    0.127, 2.7679, 2.4979
16:07:07.333 [APLA] $GPGGA,160707.328,4828.73576,N,06830.59356,W,4,05,1.5,5.31,M,,,0,0004*13
16:07:07.340 [APLA] $GPVTG,118.7,T,,M,0.0,N,0.0,K,D*07
16:07:07.346 [OWL ] SEAOWLA2K-0145	3855	50	50	50	1302	58	132	132	2454	2454	50	49	49
16:07:07.459 [CTD ]   8.2330,  0.00001,    0.127, 2.7683, 2.4982
16:07:06.502 [OCR1] 00000093
16:07:06.506 [OCR2] 00000094
16:07:06.515 [OCR3] 00000095
16:07:07.719 [CTD ]   8.2298,  0.00001,    0.127, 2.7676, 2.4973
16:07:08.002 [DBG ] $STAT,RECORDING
16:07:08.000 [APLA] $UTC,20211111,160708.0007
16:07:07.980 [CTD ]   8.2215,  0.00001,    0.127, 2.7669, 2.4970
16:07:08.151 [OWL ] SEAOWLA2K-0145	3867	50	44	44	1310	60	150	150	2455	2455	50	49	49
16:07:08.253 [ECO ] 99/99/99	99:99:99	700	4130	595	993	680	729	553
16:07:08.242 [CTD ]   8.2121,  0.00002,    0.127, 2.7686, 2.4977
16:07:08.333 [APLA] $GPGGA,160708.328,4828.73576,N,06830.59356,W,4,05,1.5,5.31,M,,,0,0004*1C
16:07:08.340 [APLA] $GPVTG,110.7,T,,M,0.0,N,0.0,K,D*0F
16:07:08.503 [CTD ]   8.2012,  0.00002,    0.127, 2.7666, 2.4978
16:07:08.765 [CTD ]   8.1916,  0.00002,    0.127, 2.7661, 2.4972
16:07:07.719 [OCR1] 00000096
16:07:07.722 [OCR2] 00000097
16:07:07.731 [OCR3] 00000098
16:07:09.002 [DBG ] $STAT,RECORDING
16:07:09.000 [APLA] $UTC,20211111,160709.0007
16:07:08.955 [OWL ] SEAOWLA2K-0145	3852	50	44	44	1302	59	141	141	2453	2453	50	49	49
16:07:09.027 [CTD ]   8.1862,  0.00001,    0.127, 2.7666, 2.4978
16:07:09.288 [CTD ]   8.1829,  0.00002,    0.127, 2.7665, 2.4976
16:07:09.333 [APLA] $GPGGA,160709.328,4828.73576,N,06830.59357,W,4,05,1.5,5.31,M,,,0,0004*1C
16:07:09.340 [APLA] $GPVTG,171.4,T,,M,0.0,N,0.0,K,D*0B
16:07:09.381 [ECO ] 99/99/99	99:99:99	700	4130	595	993	680	728	553
16:07:09.548 [CTD ]   8.1775,  0.00001,    0.127, 2.7659, 2.4977
16:07:09.760 [OWL ] SEAOWLA2K-0145	3863	50	49	49	1308	59	144	144	2456	2456	50	48	48
16:07:09.811 [CTD ]   8.1748,  0.00002,    0.127, 2.7653, 2.4971
16:07:10.002 [DBG ] $STAT,RECORDING
16:07:10.000 [APLA] $UTC,20211111,160710.0007
16:07:10.071 [CTD ]   8.1706,  0.00002,    0.127, 2.7655, 2.4967
16:07:08.933 [OCR1] 00000099
16:07:08.936 [OCR2] 0000009A
16:07:08.948 [OCR3] 0000009B
16:07:10.333 [APLA] $GPGGA,160710.328,4828.73577,N,06830.59357,W,4,05,1.5,5.31,M,,,0,0004*15
16:07:10.340 [APLA] $GPVTG,184.6,T,,M,0.0,N,0.0,K,D*03
16:07:10.332 [CTD ]   8.1660,  0.00001,    0.127, 2.7660, 2.4966
16:07:10.509 [ECO ] 99/99/99	99:99:99	700	4130	595	993	680	727	553
16:07:10.564 [OWL ] SEAOWLA2K-0145	3850	49	46	46	1301	59	142	142	2454	2454	50	49	49
16:07:10.594 [CTD ]   8.1597,  0.00001,    0.127, 2.7645, 2.4970
16:07:10.855 [CTD ]   8.1536,  0.00002,    0.127, 2.7649, 2.4961
16:07:11.002 [DBG ] $STAT,RECORDING
16:07:11.000 [APLA] $UTC,20211111,160711.0007
16:07:11.117 [CTD ]   8.1540,  0.00002,    0.127, 2.7636, 2.4965
16:07:11.333 [APLA] $GPGGA,160711.328,4828.73577,N,06830.59357,W,4,05,1.5,5.31,M,,,0,0004*14
16:07:11.340 [APLA] $GPVTG,202.0,T,,M,0.0,N,0.0,K,D*08
16:07:10.150 [OCR1] 0000009C
16:07:10.154 [OCR2] 0000009D
16:07:10.164 [OCR3] 0000009E
16:07:11.378 [CTD ]   8.1570,  0.00002,    0.127, 2.7648, 2.4987
16:07:11.369 [OWL ] SEAOWLA2K-0145	3862	51	60	60	1309	59	147	147	2456	2456	50	49	49
16:07:11.637 [ECO ] 99/99/99	99:99:99	700	4130	595	994	680	729	553
16:07:11.640 [CTD ]   8.1595,  0.00002,    0.127, 2.7634, 2.4998
16:07:11.900 [CTD ]   8.1627,  0.00002,    0.127, 2.7635, 2.4994
16:07:12.002 [DBG ] $STAT,RECORDING
16:07:12.000 [APLA] $UTC,20211111,160712.0007
16:07:12.163 [CTD ]   8.1654,  0.00002,    0.127, 2.7628, 2.4983
16:07:12.173 [OWL ] SEAOWLA2K-0145	3849	50	54	54	1302	59	140	140	2453	2453	50	49	49
16:07:12.333 [APLA] $GPGGA,160712.328,4828.73576,N,06830.59357,W,4,05,1.5,5.31,M,,,0,0004*16
16:07:12.340 [APLA] $GPVTG,167.2,T,,M,0.0,N,0.0,K,D*0A
16:07:12.423 [CTD ]   8.1674,  0.00002,    0.127, 2.7639, 2.4984
16:07:11.367 [OCR1] 0000009F
16:07:11.369 [OCR2] 000000A0
16:07:11.380 [OCR3] 000000A1
16:07:12.684 [CTD ]   8.1684,  0.00002,    0.127, 2.7621, 2.5001
16:07:12.764 [ECO ] 99/99/99	99:99:99	700	4130	595	993	680	729	553
16:07:12.946 [CTD ]   8.1700,  0.00000,    0.127, 2.7630, 2.5012
16:07:13.002 [DBG ] $STAT,RECORDING
16:07:13.000 [APLA] $UTC,20211111,160713.0007
16:07:12.978 [OWL ] SEAOWLA2K-0145	3862	50	49	49	1308	58	138	138	2455	2455	50	49	49
16:07:13.207 [CTD ]   8.1717,  0.00001,    0.127, 2.7627, 2.5005
16:07:13.333 [APLA] $GPGGA,160713.328,4828.73576,N,06830.59357,W,4,05,1.5,5.31,M,,,0,0004*17
16:07:13.340 [APLA] $GPVTG,200.1,T,,M,0.0,N,0.0,K,D*0B
16:07:13.469 [CTD ]   8.1741,  0.00002,    0.127, 2.7626, 2.4996
16:07:13.730 [CTD ]   8.1772,  0.00002,    0.127, 2.7614, 2.5002
16:07:12.581 [OCR1] 000000A2
16:07:12.583 [OCR2] 000000A3
16:07:12.596 [OCR3] 000000A4
16:07:13.782 [OWL ] SEAOWLA2K-0145	3848	51	60	60	1301	58	132	132	2453	2453	50	49	49
16:07:13.892 [ECO ] 99/99/99	99:99:99	700	4130	595	993	680	728	553
16:07:14.002 [DBG ] $STAT,RECORDING
16:07:14.000 [APLA] $UTC,20211111,160714.0007
16:07:13.995 [CTD ]   8.1798,  0.00002,    0.127, 2.7615, 2.4995
16:07:14.253 [CTD ]   8.1816,  0.00002,    0.127, 2.7607, 2.5012
16:07:14.333 [APLA] $GPGGA,160714.328,4828.73576,N,06830.59357,W,4,05,1.5,5.32,M,,,0,0004*13
16:07:14.340 [APLA] $GPVTG,215.4,T,,M,0.0,N,0.0,K,D*0A
16:07:14.515 [CTD ]   8.1822,  0.00002,    0.127, 2.7602, 2.5015
16:07:14.587 [OWL ] SEAOWLA2K-0145	3860	50	52	52	1308	59	137	137	2454	2454	50	49	49
16:07:14.776 [CTD ]   8.1830,  0.00002,    0.127, 2.7612, 2.5029
16:07:15.004 [DBG ] $STAT,RECORDING
16:07:15.000 [APLA] $UTC,20211111,160715.0007
16:07:13.797 [OCR1] 000000A5
16:07:13.801 [OCR2] 000000A6
16:07:13.813 [OCR3] 000000A7
16:07:15.020 [ECO ] 99/99/99	99:99:99	700	4130	595	992	680	726	553
16:07:15.036 [CTD ]   8.1820,  0.00002,    0.127, 2.7625, 2.5067
16:07:15.333 [APLA] $GPGGA,160715.328,4828.73576,N,06830.59357,W,4,05,1.5,5.32,M,,,0,0004*12
16:07:15.299 [CTD ]   8.1802,  0.00002,    0.127, 2.7608, 2.5106
16:07:15.340 [APLA] $GPVTG,214.2,T,,M,0.0,N,0.0,K,D*0D
16:07:15.391 [OWL ] SEAOWLA2K-0145	3845	50	51	51	1300	59	146	146	2456	2456	50	49	49
16:07:15.559 [CTD ]   8.1804,  0.00000,    0.127, 2.7608, 2.5144
16:07:15.821 [CTD ]   8.1823,  0.00001,    0.127, 2.7614, 2.5118
16:07:16.002 [DBG ] $STAT,RECORDING
16:07:16.000 [APLA] $UTC,20211111,160716.0007
16:07:16.082 [CTD ]   8.1846,  0.00001,    0.127, 2.7607, 2.5098
16:07:16.148 [ECO ] 99/99/99	99:99:99	700	4130	595	993	680	728	553
16:07:15.013 [OCR1] 000000A8
16:07:15.016 [OCR2] 000000A9
16:07:15.029 [OCR3] 000000AA
16:07:16.196 [OWL ] SEAOWLA2K-0145	3859	50	46	46	1308	58	131	131	2454	2454	50	49	49
16:07:16.333 [APLA] $GPGGA,160716.328,4828.73576,N,06830.59357,W,4,05,1.5,5.32,M,,,0,0004*11
16:07:16.340 [APLA] $GPVTG,216.0,T,,M,0.0,N,0.0,K,D*0D
16:07:16.344 [CTD ]   8.1871,  0.00001,    0.127, 2.7619, 2.5037
16:07:16.605 [CTD ]   8.1893,  0.00002,    0.127, 2.7610, 2.4571
16:07:16.867 [CTD ]   8.1909,  0.00001,    0.127, 2.7617, 2.2690
16:07:17.002 [DBG ] $STAT,RECORDING
16:07:17.000 [APLA] $UTC,20211111,160717.0007
16:07:17.000 [OWL ] SEAOWLA2K-0145	3844	50	50	50	1300	58	138	138	2454	2454	50	49	49
16:07:17.128 [CTD ]   8.1919,  0.00002,    0.127, 2.7612, 2.1598
16:07:17.275 [ECO ] 99/99/99	99:99:99	700	4130	595	993	680	729	553
16:07:17.333 [APLA] $GPGGA,160717.328,4828.73576,N,06830.59357,W,4,05,1.5,5.31,M,,,0,0004*13
16:07:17.340 [APLA] $GPVTG,216.1,T,,M,0.0,N,0.0,K,D*0C
16:07:17.388 [CTD ]   8.1926,  0.00002,    0.127, 2.7614, 2.2914
16:07:16.231 [OCR1] 000000AB
16:07:16.233 [OCR2] 000000AC
16:07:16.245 [OCR3] 000000AD
16:07:17.651 [CTD ]   8.1886,  0.00002,    0.127, 2.7626, 2.4539
16:07:17.805 [OWL ] SEAOWLA2K-0145	3857	51	61	61	1309	58	139	139	2454	2454	50	49	49
16:07:17.911 [CTD ]   8.1789,  0.00002,    0.127, 2.7609, 2.4916
16:07:18.002 [DBG ] $STAT,RECORDING
16:07:18.000 [APLA] $UTC,20211111,160718.0007
16:07:18.172 [CTD ]   8.1710,  0.00002,    0.127, 2.7613, 2.5234
16:07:18.333 [APLA] $GPGGA,160718.328,4828.73576,N,06830.59357,W,4,05,1.5,5.31,M,,,0,0004*1C
16:07:18.340 [APLA] $GPVTG,217.4,T,,M,0.0,N,0.0,K,D*08
16:07:18.403 [ECO ] 99/99/99	99:99:99	700	4130	595	993	680	726	553
16:07:18.434 [CTD ]   8.1671,  0.00001,    0.127, 2.7626, 2.5835
16:07:17.445 [OCR1] 000000AE
16:07:17.447 [OCR2] 000000AF
16:07:18.609 [OWL ] SEAOWLA2K-0145	3842	51	63	63	1300	58	128	128	2456	2456	50	50	50
16:07:17.462 [OCR3] 000000B0
16:07:18.696 [CTD ]   8.1643,  0.00001,    0.127, 2.7622, 2.6060
16:07:19.002 [DBG ] $STAT,RECORDING
16:07:19.000 [APLA] $UTC,20211111,160719.0007
16:07:18.957 [CTD ]   8.1631,  0.00002,    0.127, 2.7621, 2.6346
16:07:19.219 [CTD ]   8.1619,  0.00001,    0.127, 2.7625, 2.6628
16:07:19.333 [APLA] $GPGGA,160719.328,4828.73576,N,06830.59357,W,4,05,1.5,5.31,M,,,0,0004*1D
16:07:19.340 [APLA] $GPVTG,242.3,T,,M,0.0,N,0.0,K,D*0F
16:07:19.414 [OWL ] SEAOWLA2K-0145	3856	50	50	50	1309	58	132	132	2455	2455	50	49	49
16:07:19.480 [CTD ]   8.1610,  0.00002,    0.127, 2.7635, 2.8027
16:07:19.531 [ECO ] 99/99/99	99:99:99	700	4130	595	993	680	726	553
16:07:19.740 [CTD ]   8.1605,  0.00002,    0.127, 2.7630, 2.8106
16:07:18.660 [OCR1] 000000B1
16:07:18.663 [OCR2] 000000B2
16:07:18.677 [OCR3] 000000B3
16:07:20.002 [DBG ] $STAT,RECORDING
16:07:20.000 [APLA] $UTC,20211111,160720.0007
16:07:20.003 [CTD ]   8.1611,  0.00001,    0.127, 2.7637, 2.6778
16:07:20.218 [OWL ] SEAOWLA2K-0145	3842	50	51	51	1302	58	135	135	2454	2454	50	49	49
16:07:20.263 [CTD ]   8.1626,  0.00002,    0.127, 2.7641, 2.7101
16:07:20.333 [APLA] $GPGGA,160720.328,4828.73577,N,06830.59357,W,4,05,1.5,5.31,M,,,0,0004*16
16:07:20.340 [APLA] $GPVTG,314.0,T,,M,0.0,N,0.0,K,D*0E
16:07:20.524 [CTD ]   8.1647,  0.00002,    0.127, 2.7630, 2.6899
16:07:20.659 [ECO ] 99/99/99	99:99:99	700	4130	595	992	680	731	553
16:07:20.786 [CTD ]   8.1667,  0.00001,    0.127, 2.7634, 2.6564
16:07:21.002 [DBG ] $STAT,RECORDING
16:07:21.000 [APLA] $UTC,20211111,160721.0007
16:07:21.023 [OWL ] SEAOWLA2K-0145	3854	50	55	55	1309	59	150	150	2453	2453	50	48	48
16:07:21.047 [CTD ]   8.1681,  0.00002,    0.127, 2.7631, 2.6486
16:07:19.877 [OCR1] 000000B4
16:07:19.880 [OCR2] 000000B5
16:07:19.894 [OCR3] 000000B6
16:07:21.333 [APLA] $GPGGA,160721.328,4828.73577,N,06830.59357,W,4,05,1.5,5.32,M,,,0,0004*14
16:07:21.340 [APLA] $GPVTG,272.8,T,,M,0.0,N,0.0,K,D*07
16:07:21.309 [CTD ]   8.1692,  0.00001,    0.127, 2.7623, 2.5892
16:07:21.570 [CTD ]   8.1690,  0.00001,    0.127, 2.7622, 2.5239
16:07:21.786 [ECO ] 99/99/99	99:99:99	700	4130	595	994	680	724	553
16:07:21.832 [CTD ]   8.1679,  0.00001,    0.127, 2.7621, 2.5665
16:07:21.827 [OWL ] SEAOWLA2K-0145	3840	50	48	48	1301	58	136	136	2454	2454	50	49	49
16:07:22.002 [DBG ] $STAT,RECORDING
16:07:22.000 [APLA] $UTC,20211111,160722.0007
16:07:22.093 [CTD ]   8.1670,  0.00000,    0.127, 2.7631, 2.5518
16:07:21.096 [OCR1] 000000B7
16:07:21.098 [OCR2] 000000B8
16:07:21.110 [OCR3] 000000B9
16:07:22.333 [APLA] $GPGGA,160722.328,4823577,N,06830.59357,W,4,1.5,5.31,M,,,0,0004*14
16:07:22.340 [APLA] $GPV,7.2,T,,M,0.0,N,0.0,K,D*0D
16:07:22.355 [CTD ]   8.1675,  0.00002,    0.127, 2.7621, 2.4869
16:07:22.616 [CTD ]   8.1690,  0.00002,    0.127, 2.7625, 2.4770
16:07:22.632 [OWL ] SEAOWLA2K-0145	3852	50	63	63	1309	61	153	153	2453	2453	50	49	49
16:07:22.879 [CTD ]   8.1708,  0.00002,    0.127, 2.7618, 2.5326
16:07:22.914 [ECO ] 99/99/99	99:99:99	700	4130	595	994	680	720	553
16:07:23.002 [DBG ] $STAT,RECORDING
16:07:23.000 [APLA] $UTC,20211111,160723.0007
16:07:23.138 [CTD ]   8.1731,  0.00002,    0.127, 2.7621, 2.6054
16:07:23.333 [APLA] $GPGGA,160723.328,4828.73577,N,06830.59357,W,4,05,1.5,5.31,M,,,0,0004*15
16:07:23.340 [APLA] $GPVTG,354.0,T,,M,0.0,N,0.0,K,D*0A
16:07:23.399 [CTD ]   8.1751,  0.00002,    0.127, 2.7623, 2.6922
16:07:23.436 [OWL ] SEAOWLA2K-0145	3839	50	44	44	1300	60	154	154	2455	2455	50	49	49
16:07:22.308 [OCR1] 000000BA
16:07:22.310 [OCR2] 000000BB
16:07:22.327 [OCR3] 000000BC
16:07:23.661 [CTD ]   8.1771,  0.00002,    0.127, 2.7624, 2.7273
16:07:23.922 [CTD ]   8.1781,  0.00002,    0.127, 2.7617, 2.6534
16:07:24.002 [DBG ] $STAT,RECORDING
16:07:24.000 [APLA] $UTC,20211111,160724.0007
16:07:24.042 [ECO ] 99/99/99	99:99:99	700	4130	595	993	680	728	553
16:07:24.184 [CTD ]   8.1752,  0.00001,    0.127, 2.7626, 2.6075
16:07:24.241 [OWL ] SEAOWLA2K-0145	3851	49	39	39	1308	59	144	144	2452	2452	50	49	49
16:07:24.333 [APLA] $GPGGA,160724.328,4828.73577,N,06830.59357,W,4,05,1.5,5.31,M,,,0,0004*12
16:07:24.340 [APLA] $GPVTG,334.6,T,,M,0.0,N,0.0,K,D*0A
16:07:24.445 [CTD ]   8.1699,  0.00001,    0.127, 2.7618, 2.5769
16:07:23.523 [OCR1] 000000BD
16:07:23.526 [OCR2] 000000BE
16:07:24.707 [CTD ]   8.1683,  0.00002,    0.127, 2.7621, 2.6112
16:07:23.543 [OCR3] 000000BF
16:07:25.002 [DBG ] $STAT,RECORDING
16:07:25.000 [APLA] $UTC,20211111,160725.0007
16:07:24.968 [CTD ]   8.1694,  0.00002,    0.127, 2.7623, 2.5931
16:07:25.046 [OWL ] SEAOWLA2K-0145	3837	50	47	47	1300	60	147	147	2455	2455	50	49	49
16:07:25.170 [ECO ] 99/99/99	99:99:99	700	4130	595	993	680	728	553
16:07:25.227 [CTD ]   8.1708,  0.00001,    0.127, 2.7622, 2.5863
16:07:25.333 [APLA] $GPGGA,160725.328,4828.73577,N,06830.59357,W,4,05,1.5,5.31,M,,,0,0004*13
16:07:25.340 [APLA] $GPVTG,338.4,T,,M,0.0,N,0.0,K,D*04
16:07:25.490 [CTD ]   8.1703,  0.00001,    0.127, 2.7624, 2.5681
16:07:25.751 [CTD ]   8.1694,  0.00001,    0.127, 2.7627, 2.5659
16:07:25.850 [OWL ] SEAOWLA2K-0145	3848	50	49	49	1308	58	135	135	2453	2453	50	49	49
16:07:24.741 [OCR1] 000000C0
16:07:24.743 [OCR2] 000000C1
16:07:24.759 [OCR3] 000000C2
16:07:26.002 [DBG ] $STAT,RECORDING
16:07:26.000 [APLA] $UTC,20211111,160726.07
16:07:26.013 [CTD ]   8.1686,  0.00001,    0.127, 2.7630, 2.5669
16:07:26.274 [CTD ]   8.1643,  0.00002,    0.127, 2.7625, 2.5655
16:07:26.298 [ECO ] 99/99/99	99:99:99	700	4130	595	993	680	724	552
16:07:26.333 [APLA] $GPGGA,160726.328,4828.73577,N,06830.59357,W,4,05,1.5,5.31,M,,,0,0004*10
16:07:26.340 [APLA] $GPVTG,320.6,T,,M,0.0,N,0.0,K,D*0F
16:07:26.536 [CTD ]   8.1570,  0.00002,    0.127, 2.7629, 2.5167
16:07:26.655 [OWL ] SEAOWLA2K-0145	3834	51	62	62	1301	59	143	143	2453	2453	49	49	49
16:07:26.796 [CTD ]   8.1472,  0.00002,    0.127, 2.7615, 2.5408
16:07:27.002 [DBG ] $STAT,RECORDING
16:07:27.000 [APLA] $UTC,20211111,160727.0007
16:07:27.058 [CTD ]   8.1380,  0.00002,    0.127, 2.7626, 2.5834
16:07:25.956 [OCR1] 000000C3
16:07:25.959 [OCR2] 000000C4
16:07:25.975 [OCR3] 000000C5
16:07:27.333 [APLA] $GPGGA,160727.328,4828.73578,N,06830.59357,W,4,05,1.5,5.31,M,,,0,0004*1E
16:07:27.340 [APLA] $GPVTG,315.0,T,,M,0.0,N,0.0,K,D*0F
16:07:27.320 [CTD ]   8.1346,  0.00002,    0.127, 2.7631, 2.6178
16:07:27.425 [ECO ] 99/99/99	99:99:99	700	4130	595	993	680	732	553
16:07:27.459 [OWL ] SEAOWLA2K-0145	3845	50	56	56	1310	59	139	139	2453	2453	50	49	49
16:07:27.580 [CTD ]   8.1362,  0.00001,    0.127, 2.7628, 2.5920
16:07:27.843 [CTD ]   8.1398,  0.00002,    0.127, 2.7627, 2.5678
16:07:28.002 [DBG ] $STAT,RECORDING
16:07:28.000 [APLA] $UTC,20211111,160728.0007
16:07:28.102 [CTD ]   8.1434,  0.00001,    0.127, 2.7623, 2.5385
16:07:28.264 [OWL ] SEAOWLA2K-0145	3834	49	41	41	1299	58	132	132	2455	2455	50	49	49
16:07:28.333 [APLA] $GPGGA,160728.328,4828.73577,N,06830.59357,W,4,05,1.5,5.31,M,,,0,0004*1E
16:07:28.340 [APLA] $GPVTG,322.2,T,,M,0.0,N,0.0,K,D*09
16:07:27.170 [OCR1] 000000C6
16:07:27.173 [OCR2] 000000C7
16:07:27.191 [OCR3] 000000C8
16:07:28.364 [CTD ]   8.1463,  0.00001,    0.127, 2.7619, 2.5180
16:07:28.553 [ECO ] 99/99/99	99:99:99	700	4130	595	993	680	728	553
16:07:28.626 [CTD ]   8.1483,  0.00000,    0.127, 2.7619, 2.4985
16:07:28.888 [CTD ]   8.1503,  0.00002,    0.127, 2.7618, 2.4973
16:07:29.002 [DBG ] $STAT,RECORDING
16:07:29.000 [APLA] $UTC,20211111,160729.0007
16:07:29.068 [OWL ] SEAOWLA2K-0145	3845	51	67	67	1308	58	138	138	2454	2454	50	48	48
16:07:29.149 [CTD ]   8.1521,  0.00001,    0.127, 2.7625, 2.5066
