####################
# TYPE: TEXT
# DATE: 2022/07/06
# TIME: 15:38:38
####################
#
15:48:00.002 [APLA] $utc,20220706,154800.0025
15:48:00.019 [DBG ] $STAT,RECORDING
15:48:00.005 [APLA] $GPZDA,154800.0025,06,07,2022,,*6A
15:48:00.143 [CTD ]  11.2406,  3.39753,    0.262, 2.7419, 2.5131
15:48:00.187 [OCR3] 00000D9C
15:48:00.393 [CTD ]  11.2436,  3.39733,    0.291, 2.7417, 2.5126
15:48:00.436 [OCR3] 00000D9D
15:48:00.645 [CTD ]  11.2449,  3.39741,    0.297, 2.7423, 2.5114
15:48:00.674 [OWL ] SEAOWLA2K-0144	3993	69	239	239	1375	262	2137	2137	2643	2643	115	687	687
15:48:00.770 [APLA] $PASHR,154800.765,233.86,T,-3.30,4.02,-0.08,0.020,0.020,0.021,2,1*1E
15:48:00.776 [APLA] $GPGGA,154800.765,4946.93728,N,06421.43912,W,4,07,1.2,0.92,M,,,0,0004*1B
15:48:00.783 [APLA] $GPVTG,263.1,T,,M,2.1,N,3.9,K,D*07
15:48:00.897 [CTD ]  11.2455,  3.39736,    0.283, 2.7413, 2.5117
15:48:00.686 [OCR3] 00000D9E
15:48:01.009 [DBG ] $STAT,RECORDING
15:48:00.332 [OCR1] 00000D9F
15:48:00.337 [OCR2] 00000DA0
15:48:01.002 [APLA] $utc,20220706,154801.0025
15:48:01.122 [APLA] $GPZDA,154801.0025,06,07,2022,,*6B
15:48:01.103 [ECO ] 99/99/99	99:99:99	700	51	595	50	680	44	550
15:48:01.148 [CTD ]  11.2457,  3.39728,    0.265, 2.7414, 2.5125
15:48:00.946 [OCR3] 00000DA1
15:48:01.398 [CTD ]  11.2451,  3.39716,    0.253, 2.7423, 2.5113
15:48:01.197 [OCR3] 00000DA2
15:48:01.486 [OWL ] SEAOWLA2K-0144	4004	68	237	237	1372	253	2049	2049	2644	2644	115	685	685
15:48:01.650 [CTD ]  11.2443,  3.39701,    0.252, 2.7420, 2.5121
15:48:01.770 [APLA] $PASHR,154801.765,211.95,T,0.96,5.02,-0.06,0.020,0.020,0.021,2,1*30
15:48:01.776 [APLA] $GPGGA,154801.765,4946.93709,N,06421.43998,W,4,07,1.2,0.91,M,,,1,0004*19
15:48:01.783 [APLA] $GPVTG,242.1,T,,M,2.2,N,4.1,K,D*08
15:48:01.035 [OCR1] 00000DA3
15:48:01.040 [OCR2] 00000DA4
15:48:01.548 [OCR3] 00000DA5
15:48:01.903 [CTD ]  11.2431,  3.39699,    0.252, 2.7419, 2.5123
15:48:02.002 [APLA] $utc,20220706,154802.0025
15:48:02.009 [DBG ] $STAT,RECORDING
15:48:02.005 [APLA] $GPZDA,154802.0025,06,07,2022,,*68
15:48:01.910 [OCR3] 00000DA6
15:48:02.152 [CTD ]  11.2423,  3.39719,    0.257, 2.7411, 2.5114
15:48:02.227 [ECO ] 99/99/99	99:99:99	700	51	595	50	680	46	550
15:48:02.298 [OWL ] SEAOWLA2K-0144	3994	69	240	240	1375	262	2136	2136	2644	2644	115	686	686
15:48:02.159 [OCR3] 00000DA7
15:48:02.404 [CTD ]  11.2431,  3.39748,    0.258, 2.7413, 2.5117
15:48:01.838 [OCR1] 00000DA8
15:48:01.844 [OCR2] 00000DA9
15:48:02.410 [OCR3] 00000DAA
15:48:02.654 [CTD ]  11.2450,  3.39748,    0.241, 2.7416, 2.5120
15:48:02.770 [APLA] $PASHR,154802.765,191.81,T,3.64,5.18,0.07,0.020,0.020,0.021,2,1*14
15:48:02.776 [APLA] $GPGGA,154802.765,4946.93675,N,06421.44077,W,4,07,1.2,1.04,M,,,0,0004*13
15:48:02.782 [APLA] $GPVTG,232.2,T,,M,2.3,N,4.3,K,D*0F
15:48:02.670 [OCR3] 00000DAB
15:48:02.906 [CTD ]  11.2462,  3.39748,    0.200, 2.7419, 2.5133
15:48:03.002 [APLA] $utc,20220706,154803.0025
15:48:03.009 [DBG ] $STAT,RECORDING
15:48:03.005 [APLA] $GPZDA,154803.0025,06,07,2022,,*69
15:48:03.110 [OWL ] SEAOWLA2K-0144	4004	68	238	238	1373	256	2074	2074	2644	2644	115	689	689
15:48:03.156 [CTD ]  11.2470,  3.39753,    0.149, 2.7411, 2.5131
15:48:02.920 [OCR3] 00000DAC
15:48:02.641 [OCR1] 00000DAD
15:48:02.647 [OCR2] 00000DAE
15:48:03.351 [ECO ] 99/99/99	99:99:99	700	51	595	50	680	46	550
15:48:03.408 [CTD ]  11.2476,  3.39756,    0.129, 2.7419, 2.5120
15:48:03.271 [OCR3] 00000DAF
15:48:03.660 [CTD ]  11.2480,  3.39773,    0.165, 2.7422, 2.5125
15:48:03.770 [APLA] $PASHR,154803.765,182.28,T,-4.34,3.24,0.04,0.020,0.020,0.021,2,1*31
15:48:03.776 [APLA] $GPGGA,154803.765,4946.93635,N,06421.44143,W,4,07,1.2,1.04,M,,,1,0004*11
15:48:03.782 [APLA] $GPVTG,212.6,T,,M,2.0,N,3.8,K,D*06
15:48:03.631 [OCR3] 00000DB0
15:48:03.910 [CTD ]  11.2495,  3.39805,    0.244, 2.7411, 2.5122
15:48:03.922 [OWL ] SEAOWLA2K-0144	3993	69	240	240	1375	259	2099	2099	2643	2643	114	678	678
15:48:04.002 [APLA] $utc,20220706,154804.0025
15:48:04.009 [DBG ] $STAT,RECORDING
15:48:04.005 [APLA] $GPZDA,154804.0025,06,07,2022,,*6E
15:48:03.344 [OCR1] 00000DB1
15:48:03.350 [OCR2] 00000DB2
15:48:03.881 [OCR3] 00000DB3
15:48:04.162 [CTD ]  11.2510,  3.39765,    0.330, 2.7418, 2.5131
15:48:04.180 [OCR3] 00000DB4
15:48:04.412 [CTD ]  11.2504,  3.39743,    0.352, 2.7425, 2.5127
15:48:04.475 [ECO ] 99/99/99	99:99:99	700	51	595	50	680	47	550
15:48:04.392 [OCR3] 00000DB5
15:48:04.664 [CTD ]  11.2487,  3.39743,    0.293, 2.7409, 2.5119
15:48:04.048 [OCR1] 00000DB6
15:48:04.053 [OCR2] 00000DB7
15:48:04.770 [APLA] ASHR,154804.765,174.08,T,5.09,4.51,-0.03,0.020,0.020,0.021,1,1*33
15:48:04.776 [APLA] $GPGGA,154804.765,4946.93574,N,06424178,W,4,07,1.2,0.96,M,,,1,0004*12
15:48:04.782 [APLA] $GPVTG,196.2,T,,2.8,N,5.1,K,D*0A
15:48:04.734 [OWL ] SEAOWLA2K-0144	4004	68	238	238	1371	262	2125	2125	2644	2644	114	681	681
15:48:04.916 [CTD ]  11.2482,  3.39773,    0.179, 2.7409, 2.5114
15:48:04.641 [OCR3] 00000DB8
15:48:05.002 [APLA] $utc,20220706,4805.0025
15:48:05.009 [DBG ] $STAT,RECORDING
15:48:05.005 [APLA] $GPZDA,154805.0025,06,07,2022,,*6F
15:48:05.166 [CTD ]  11.2494,  3.39768,    0.071, 2.7402, 2.5114
15:48:04.990 [OCR3] 00000DB9
15:48:04.752 [OCR1] 00000DBA
15:48:04.757 [OCR2] 00000DBB
15:48:05.418 [CTD ]  11.2499,  3.39775,    0.084, 2.7412, 2.5118
15:48:05.350 [OCR3] 00000DBC
15:48:05.546 [OWL ] SEAOWLA2K-0144	3994	69	243	243	1375	256	2072	2072	2643	2643	114	681	681
15:48:05.598 [ECO ] 99/99/99	99:99:99	700	51	595	50	680	46	550
15:48:05.668 [CTD ]  11.2505,  3.39785,    0.206, 2.7415, 2.5118
15:48:05.770 [APLA] $PASHR,154805.765,173.21,T,-4.61,6.99,-0.06,0.020,0.020,0.021,0,1*1E
15:48:05.776 [APLA] $GPGGA,154805.765,4946.93503,N,06421.44201,W,4,07,1.2,0.91,M,,,1,0004*19
15:48:05.783 [APLA] $GPVTG,183.8,T,,M,2.4,N,4.5,K,D*0D
15:48:05.601 [OCR3] 00000DBD
15:48:05.920 [CTD ]  11.2514,  3.39795,    0.297, 2.7408, 2.5102
15:48:06.002 [APLA] $utc,20220706,154806.0025
15:48:06.009 [DBG ] $STAT,RECORDING
15:48:06.005 [APLA] $GPZDA,154806.0025,06,07,2022,,*6C
15:48:05.850 [OCR3] 00000DBE
15:48:06.170 [CTD ]  11.2521,  3.39780,    0.303, 2.7411, 2.5101
15:48:05.454 [OCR1] 00000DBF
15:48:05.459 [OCR2] 00000DC0
15:48:06.111 [OCR3] 00000DC1
15:48:06.358 [OWL ] SEAOWLA2K-0144	4003	68	237	237	1371	262	2129	2129	2644	2644	114	679	679
15:48:06.422 [CTD ]  11.2524,  3.39797,    0.274, 2.7403, 2.5110
15:48:06.360 [OCR3] 00000DC2
15:48:06.673 [CTD ]  11.2531,  3.39810,    0.264, 2.7418, 2.5119
15:48:06.722 [ECO ] 99/99/99	99:99:99	700	51	595	50	680	47	550
15:48:06.770 [APLA] $PASHR,154806.765,175.91,T,1.33,1.50,0.05,0.020,0.020,0.021,2,1*11
15:48:06.776 [APLA] $GPGGA,154806.765,4946.93435,N,06421.44207,W,4,07,1.2,1.02,M,,,1,0004*1
15:48:06.782 [APLA] $GPVTG,182.9,T,,M,2.7,N,5.0,K,D*0A
15:48:06.925 [CTD ]  11.2541,  3.39800,    0.259, 2.7411, 2.5135
15:48:07.002 [APLA] $utc,20220706,154807.0025
15:48:07.009 [DBG ] $STAT,RECORDING
15:48:07.005 [APLA] $GPZDA,154807.0025,06,07,2022,,*6D
15:48:06.257 [OCR1] 00000DC3
15:48:06.262 [OCR2] 00000DC4
15:48:06.710 [OCR3] 00000DC5
15:48:07.175 [CTD ]  11.2541,  3.39800,    0.231, 2.7404, 2.5123
15:48:07.170 [OWL ] SEAOWLA2K-0144	3992	68	235	235	1375	270	2211	2211	2644	2644	115	688	688
15:48:07.069 [OCR3] 00000DC6
15:48:07.427 [CTD ]  11.2540,  3.39820,    0.176, 2.7406, 2.5114
15:48:07.320 [OCR3] 00000DC7
15:48:07.677 [CTD ]  11.2552,  3.39091,    0.143, 2.7405, 2.5124
15:48:07.059 [OCR1] 00000DC8
15:48:07.066 [OCR2] 00000DC9
15:48:07.770 [APLA] $PASHR,154807.765,181.08,T,-2.24,5.09,0.01,0.020,0.020,0.021,2,1*3F
15:48:07.776 [APLA] PGGA,154807.765,4946.93351,N,06421.44224,W,4,07,1.2,0.99,M,,,1,0004*15$GPVTG,187.7,T,,M,3.2,N,5.9,K,D*0C
15:48:07.569 [OCR3] 00000DCA
15:48:07.846 [ECO ] 99/99/99	99:99:99	700	51	595	50	680	45	550
15:48:07.929 [CTD ]  11.2570,  3.39763,    0.183, 2.7402, 2.5117
15:48:08.002 [APLA] $utc,20220706,154808.0025
15:48:08.009 [DBG ] $STAT,RECORDING
15:48:08.005 [APLA] $GPZDA,154808.0025,06,07,2022,,*62
15:48:07.982 [OWL ] SEAOWLA2K-0144	4003	68	237	237	1372	256	2067	2067	2643	2643	115	687	687
15:48:07.830 [OCR3] 00000DCB
15:48:08.181 [CTD ]  11.2581,  3.39849,    0.248, 2.7407, 2.5117
15:48:08.079 [OCR3] 00000DCC
15:48:07.762 [OCR1] 00000DCD
15:48:07.769 [OCR2] 00000DCE
15:48:08.431 [CTD ]  11.2590,  3.39854,    0.254, 2.7402, 2.5097
15:48:08.683 [CTD ]  11.2599,  3.39862,    0.243, 2.7414, 2.5105
15:48:08.770 [APLA] $PASHR,154808.765,189.87,T,-4.74,4.73,-0.05,0.020,0.020,0.021,2,1*19
15:48:08.776 [APLA] $GPGGA,154808.765,4946.93271,N,06421.44241,W,4,07,1.2,0.92,M,,,1,0004*11
15:48:08.783 [APLA] $GPVTG,187.9,T,,M,2.7,N,5.0,K,D*0F
15:48:08.429 [OCR3] 00000DCF
15:48:08.794 [OWL ] SEAOWLA2K-0144	3994	69	240	240	1375	262	2129	2129	2643	2643	115	685	685
15:48:08.933 [CTD ]  11.2604,  3.39847,    0.305, 2.7413, 2.5104
15:48:08.970 [ECO ] 99/99/99	99:99:99	700	51	595	50	680	47	550
15:48:09.002 [APLA] $utc,20220706,154809.0025
15:48:09.009 [DBG ] $STAT,RECORDING
15:48:09.005 [APLA] $GPZDA,154809.0025,06,07,2022,,*63
15:48:08.798 [OCR3] 00000DD0
15:48:08.466 [OCR1] 00000DD1
15:48:08.472 [OCR2] 00000DD2
15:48:09.185 [CTD ]  11.2601,  3.39800,    0.340, 2.7408, 2.5111
15:48:09.039 [OCR3] 00000DD3
15:48:09.437 [CTD ]  11.2586,  3.39815,    0.327, 2.7412, 2.5112
15:48:09.288 [OCR3] 00000DD4
15:48:09.606 [OWL ] SEAOWLA2K-0144	4004	69	248	248	1372	275	2261	2261	2643	2643	116	690	690
15:48:09.687 [CTD ]  11.2570,  3.39475,    0.276, 2.7412, 2.5113
15:48:09.770 [APLA] $PASHR,154809.765,187.94,T,3.07,3.92,0.10,0.020,0.020,0.021,2,1*1B
15:48:09.776 [APLA] $GPGGA,154809.765,4946.93181,N,06421.44274,W,4,07,1.2,1.08,M,,,0,0004*19
15:48:09.782 [APLA] $GPVTG,199.0,T,,M,3.7,N,6.9,K,D*02
15:48:09.548 [OCR3] 00000DD5
15:48:09.169 [OCR1] 00000DD6
15:48:09.175 [OCR2] 00000DD7
15:48:09.939 [CTD ]  11.2556,  3.39751,    0.208, 2.7416, 2.5109
15:48:10.002 [APLA] $utc,20220706,154810.0025
15:48:10.009 [DBG ] $STAT,RECORDING
15:48:10.005 [APLA] $GPZDA,154810.0025,06,07,2022,,*6B
15:48:10.093 [ECO ] 99/99/99	99:99:99	700	51	595	50	680	47	550
15:48:09.798 [OCR3] 00000DD8
15:48:10.189 [CTD ]  11.2538,  3.39763,    0.152, 2.7418, 2.5107
15:48:10.418 [OWL ] SEAOWLA2K-0144	3993	68	235	235	1375	262	2128	2128	2643	2643	115	685	685
15:48:10.444 [CTD ]  11.2516,  3.39758,    0.163, 2.7421, 2.5118
15:48:10.148 [OCR3] 00000DD9
15:48:09.872 [OCR1] 00000DDA
15:48:09.879 [OCR2] 00000DDB
15:48:10.692 [CTD ]  11.2501,  3.39758,    0.223, 2.7414, 2.5106
15:48:10.510 [OCR3] 00000DDC
15:48:10.770 [APLA] $PASHR,154810.765,189.86,-6.86,7.29,-0.09,0.020,0.020,0.021,2,1*1E
15:48:10.776 [APLA] $GPGGA,154810.765,4946.93087,N,06421.44318,W,4,07,1.2,0.89,M,,,1,0004*14
15:48:10.783 [APLA] $GPVTG,192.3,T,,M,3.1,N,5.8,K,D*0E
15:48:10.944 [CTD ]  11.2491,  3.39756,    0.326, 2.7420, 2.5122
15:48:11.002 [APLA] $utc,20220706,154811.0025
15:48:11.008 [DBG ] $STAT,RECORDING
15:48:11.004 [APLA] $GPZDA,154811.0025,06,07,2022,,*6A
15:48:10.759 [OCR3] 00000DDD
15:48:11.193 [CTD ]  11.2495,  3.39792,    0.332, 2.7425, 2.5099
15:48:11.216 [ECO ] 99/99/99	99:99:99	700	51	595	50	680	46	550
15:48:11.016 [OCR3] 00000DDE
15:48:11.229 [OWL ] SEAOWLA2K-0144	4004	69	241	241	1372	266	2169	2169	2643	2643	115	683	683
15:48:10.675 [OCR1] 00000DDF
15:48:10.682 [OCR2] 00000DE0
15:48:11.445 [CTD ]  11.2509,  3.39810,    0.218, 2.7421, 2.5106
15:48:11.268 [OCR3] 00000DE1
15:48:11.695 [CTD ]  11.2526,  3.39817,    0.207, 2.7424, 2.5114
15:48:11.769 [APLA] $PASHR,154811.765,194.49,T,-0.35,1.41,0.02,0.020,0.020,0.021,2,1*30
15:48:11.775 [APLA] $GPGGA,154811.765,4946.93001,N,06421.44347,W,4,07,1.2,0.99,M,,,1,0004*10
15:48:11.782 [APLA] $GPVTG,196.1,T,,M,3.5,N,6.4,K,D*03
15:48:11.519 [OCR3] 00000DE2
15:48:11.947 [CTD ]  11.2541,  3.39839,    0.250, 2.7424, 2.5111
15:48:12.002 [APLA] $utc,20220706,154812.0025
15:48:12.008 [DBG ] $STAT,RECORDING
15:48:12.004 [APLA] $GPZDA,154812.0025,06,07,2022,,*69
15:48:12.041 [OWL ] SEAOWLA2K-0144	3993	68	230	230	1375	266	2167	2167	2644	2644	115	684	684
15:48:11.478 [OCR1] 00000DE3
15:48:11.485 [OCR2] 00000DE4
15:48:11.870 [OCR3] 00000DE5
15:48:12.197 [CTD ]  11.2559,  3.39869,    0.286, 2.7435, 2.5120
15:48:12.340 [ECO ] 99/99/99	99:99:99	700	51	595	50	680	46	550
15:48:12.232 [OCR3] 00000DE6
15:48:12.449 [CTD ]  11.2583,  3.39797,    0.276, 2.7435, 2.5112
15:48:12.481 [OCR3] 00000DE7
15:48:12.701 [CTD ]  11.2590,  3.39783,    0.226, 2.7437, 2.5104
15:48:12.769 [APLA] $PASHR,154812.765,197.23,T,-0.09,6.30,0.06,0.020,0.020,0.021,2,1*36
15:48:12.775 [APLA] $GPGGA,154812.765,4946.92904,N,06421.44397,W,4,07,1.2,1.04,M,,,0,0004*17
15:48:12.782 [APLA] $GPVTG,201.9,T,,M,3.7,N,6.8,K,D*08
15:48:12.181 [OCR1] 00000DE8
15:48:12.187 [OCR2] 00000DE9
15:48:12.853 [OWL ] SEAOWLA2K-0144	4003	68	233	233	1372	260	2112	2112	2643	2643	115	687	687
15:48:12.731 [OCR3] 00000DEA
15:48:12.951 [CTD ]  11.2587,  3.39822,    0.167, 2.7431, 2.5113
15:48:13.002 [APLA] $utc,20220706,154813.0026
15:48:13.008 [DBG ] $STAT,RECORDING
15:48:13.004 [APLA] $GPZDA,154813.00,06,07,2022,,*6B
15:48:12.992 [OCR3] 00000DEB
15:48:13.203 [CTD ]  11.2571,  3.39802,    0.188, 2.7428, 2.5117
15:48:13.464 [ECO ] 99/99/99	99:99:99	700	51	595	50	680	47	550
15:48:13.453 [CTD ]  11.2549,  3.39795,    0.279, 2.7435, 2.5105
15:48:12.884 [OCR1] 00000DEC
15:48:13.242 [OCR3] 00000DED
15:48:12.890 [OCR2] 00000DEE
15:48:13.665 [OWL ] SEAOWLA2K-0144	3993	69	244	244	1376	265	2155	2155	2643	2643	115	684	684
15:48:13.705 [CTD ]  11.2540,  3.39807,    0.331, 2.7438, 2.5114
15:48:13.769 [APLA] $PASHR,154813.765,209.41,T,-4.42,6.25,-0.07,0.020,0.020,0.021,2,1*14
15:48:13.775 [APLA] $GPGGA,154813.765,4946.92817,N,06421.44445,W,4,07,1.2,0.90,M,,,1,0004*10
15:48:13.782 [APLA] $GPVTG,201.3,T,,M,3.1,N,5.8,K,D*07
15:48:13.592 [OCR3] 00000DEF
15:48:13.957 [CTD ]  11.2544,  3.39817,    0.314, 2.7444, 2.5115
15:48:14.002 [APLA] $utc,20220706,154814.0026
15:48:14.010 [DBG ] $STAT,RECORDING
15:48:14.004 [APLA] $GPZDA,154814.0026,06,07,2022,,*6C
15:48:13.953 [OCR3] 00000DF0
15:48:14.207 [CTD ]  11.2549,  3.39837,    0.285, 2.7454, 2.5104
15:48:13.587 [OCR1] 00000DF1
15:48:13.595 [OCR2] 00000DF2
15:48:14.202 [OCR3] 00000DF3
15:48:14.459 [CTD ]  11.2556,  3.39834,    0.278, 2.7443, 2.5118
15:48:14.477 [OWL ] SEAOWLA2K-0144	4003	68	238	238	1371	296	2471	2471	2643	2643	114	680	680
15:48:14.588 [ECO ] 99/99/99	99:99:99	700	51	595	50	680	47	550
15:48:14.452 [OCR3] 00000DF4
15:48:14.710 [CTD ]  11.2559,  3.39827,    0.259, 2.7444, 2.5117
15:48:14.769 [APLA] $PASHR,154814.765,212.96,T,-1.09,3.10,0.04,0.020,0.020021,2,1*34
15:48:14.775 [APLA] $GPGGA,154814.765,4946.92735,N,06421.44512,W,4,07,1.2,1.01,M,,,0,0004*13
15:48:14.782 [APLA] $GPVTG,213.8,T,,M,3.7,N,6.8,K,D*0A
15:48:14.713 [OCR3] 00000DF5
15:48:15.002 [APLA] $utc,20220706,154815.0026
15:48:14.961 [CTD ]  11.2559,  3.39832,    0.232, 2.7445, 2.5108
15:48:15.018 [DBG ] $STAT,RECORDING
15:48:15.004 [APLA] $GPZDA,154815.0026,06,07,2022,,*6D
15:48:14.289 [OCR1] 00000DF6
15:48:14.296 [OCR2] 00000DF7
15:48:15.212 [CTD ]  11.2561,  3.39829,    0.226, 2.7447, 2.5108
15:48:14.963 [OCR3] 00000DF8
15:48:15.290 [OWL ] SEAOWLA2K-0144	3994	68	237	237	1375	285	2360	2360	2643	2643	115	688	688
15:48:15.462 [CTD ]  11.2560,  3.39832,    0.275, 2.7446, 2.5116
15:48:15.313 [OCR3] 00000DF9
15:48:15.711 [ECO ] 99/99/99	99:99:99	700	51	595	50	680	46	550
15:48:15.714 [CTD ]  11.2563,  3.39849,    0.327, 2.7451, 2.5126
15:48:15.769 [APLA] $PASHR,154815.765,212.33,T,-3.97,4.92,-0.05,0.020,0.020,0.021,2,1*1E
15:48:15.775 [APLA] $GPGGA,154815.765,4946.92653,N,06421.44602,W,4,07,1.2,0.92,M,,,0,0004*1A
15:48:15.782 [APLA] $GPVTG,215.4,T,,M,3.5,N,6.6,K,D*0C
15:48:15.092 [OCR1] 00000DFA
15:48:15.099 [OCR2] 00000DFB
15:48:15.673 [OCR3] 00000DFC
15:48:16.002 [APLA] $utc,20220706,154816.0026
15:48:16.008 [DBG ] $STAT,RECORDING
15:48:16.004 [APLA] $GPZDA,154816.0026,06,07,2022,,*6E
15:48:15.976 [CTD ]  11.2571,  3.39765,    0.324, 2.7450, 2.5111
15:48:16.102 [OWL ] SEAOWLA2K-0144	4004	68	237	237	1372	325	2752	2752	2643	2643	116	690	690
15:48:15.923 [OCR3] 00000DFD
15:48:16.228 [CTD ]  11.2581,  3.39824,    0.251, 2.7452, 2.5117
15:48:16.172 [OCR3] 00000DFE
15:48:16.478 [CTD ]  11.2588,  3.39844,    0.175, 2.7460, 2.5114
15:48:15.895 [OCR1] 00000DFF
15:48:15.902 [OCR2] 00000E00
15:48:16.434 [OCR3] 00000E01
15:48:16.769 [APLA] $PASHR,154816.765,210.65,T,-2.32,5.51,-0.00,0.020,0.020,0.021,2,1*19
15:48:16.729 [CTD ]  11.2594,  3.39862,    0.183, 2.7450, 2.5111
15:48:16.775 [APLA] $GPGGA,154816.765,4946.92579,N,06421.44691,W,4,07,1.2,0.96,M,,,1,0004*1D
15:48:16.782 [APLA] $GPVTG,217.6,T,,M,3.3,N,6.1,K,D*0D
15:48:16.835 [ECO ] 99/99/99	99:99:99	700	51	595	50	680	46	550
15:48:16.914 [OWL ] SEAOWLA2K-0144	3993	68	237	237	1375	299	2495	2495	2643	2643	115	690	690
15:48:17.002 [APLA] $utc,20220706,154817.0026
15:48:17.008 [DBG ] $STAT,RECORDING
15:48:17.004 [APLA] $GPZDA,154817.0026,06,07,2022,,*6F
15:48:16.982 [CTD ]  11.2598,  3.39864,    0.221, 2.7460, 2.5114
15:48:16.683 [OCR3] 00000E02
15:48:17.232 [CTD ]  11.2605,  3.39871,    0.270, 2.7447, 2.5105
15:48:16.598 [OCR1] 00000E03
15:48:16.624 [OCR2] 00000E04
15:48:17.033 [OCR3] 00000E05
15:48:17.484 [CTD ]  11.2611,  3.39862,    0.303, 2.7452, 2.5106
15:48:17.393 [OCR3] 00000E06
15:48:17.769 [APLA] $PASHR,154817.765,203.31,T,-2.35,4.35,0.01,0.020,0.020,0.021,0,1*31
15:48:17.735 [CTD ]  11.2620,  3.39884,    0.311, 2.7440, 2.5107
15:48:17.775 [APLA] $GPGGA,154817.765,4946.92506,N,06421.44777,W,4,07,1.2,0.97,M,,,1,0004*1C
15:48:17.726 [OWL ] SEAOWLA2K-0144	4004	68	234	234	1372	261	2120	2120	2642	2642	115	688	688
15:48:17.782 [APLA] $GPVTG,216.0,T,,M,3.5,N,6.4,K,D*09
15:48:17.643 [OCR3] 00000E07
15:48:17.959 [ECO ] 99/99/99	99:99:99	700	51	595	50	680	45	550
15:48:18.002 [APLA] $utc,20220706,154818.0026
15:48:18.008 [DBG ] $STAT,RECORDING
15:48:18.004 [APLA] $GPA,154818.0026,06,07,2022,,*60
15:48:17.301 [OCR1] 00000E08
15:48:17.308 [OCR2] 00000E09
15:48:17.985 [CTD ]  11.2630,  3.39911,    0.296, 2.7449, 2.5112
15:48:17.892 [OCR3] 00000E0A
15:48:18.237 [CTD ]  11.2646,  3.39928,    0.259, 2.7447, 2.5113
15:48:18.154 [OCR3] 00000E0B
15:48:18.489 [CTD ]  11.2663,  3.39938,    0.225, 2.7455, 2.5124
15:48:18.538 [OWL ] SEAOWLA2K-0144	3993	67	227	227	1375	259	2104	2104	2644	2644	115	684	684
15:48:18.016 [OCR1] 00000E0C
15:48:18.019 [OCR2] 00000E0D
15:48:18.403 [OCR3] 00000E0E
15:48:18.769 [APLA] $PASHR,154818.76189.57,T,-0.65,4.11,0.01,0.020,0.020,0.021,2,1*3C
15:48:18.775 [APLA] $GA,154818.765,4946.92426,N,06421.44858,W,4,07,1.2,0.,M,,,1,0004*1C
15:48:18.739 [CTD ]  11.2678,  3.39953,    0.239, 2.7478, 2.5112
15:48:18.782 [APLA] $GPVTG,207.7,TM,3.4,N,6.3,K,D*08
15:48:19.002 [APLA] $utc,20220706,154819.0026
15:48:19.008 [DBG ] $STAT,RECORDING
15:48:19.004 [APLA] $GPZDA,154819.0026,06,07,2022,,*61
15:48:18.994 [CTD ]  11.2693,  3.39955,    0.253, 2.7456, 2.5115
15:48:19.083 [ECO ] 99/99/99	99:99:99	700	51	595	50	680	47	550
15:48:18.753 [OCR3] 00000E0F
15:48:19.241 [CTD ]  11.2699,  3.39935,    0.245, 2.7459, 2.5111
15:48:19.114 [OCR3] 00000E10
15:48:19.350 [OWL ] SEAOWLA2K-0144	4004	68	233	233	1372	259	2101	2101	2643	2643	115	687	687
15:48:18.708 [OCR1] 00000E11
15:48:18.714 [OCR2] 00000E12
15:48:19.492 [CTD ]  11.2691,  3.39901,    0.204, 2.7461, 2.5107
15:48:19.364 [OCR3] 00000E13
15:48:19.769 [APLA] $PASHR,154819.765,186.54,T,-0.18,4.53,-0.02,0.020,0.020,0.021,2,1*13
15:48:19.775 [APLA] $GPGGA,154819.765,4946.92343,N,06421.44914,W,4,07,1.2,0.95,M,,,1,0004*1C
15:48:19.742 [CTD ]  11.2666,  3.39879,    0.159, 2.7463, 2.5099
15:48:19.782 [APLA] $GPVTG,198.4,T,,M,3.2,N,6.0,K,D*0B
15:48:19.613 [OCR3] 00000E14
15:48:20.002 [APLA] $utc,20220706,154820.0026
15:48:20.008 [DBG ] $STAT,RECORDING
15:48:20.004 [APLA] $GPZDA,154820.0026,06,07,2022,,*6B
15:48:19.995 [CTD ]  11.2630,  3.39788,    0.153, 2.7446, 2.5099
15:48:19.874 [OCR3] 00000E15
15:48:20.162 [OWL ] SEAOWLA2K-0144	3994	69	241	241	1374	262	2127	2127	2644	2644	115	689	689
15:48:20.206 [ECO ] 99/99/99	99:99:99	700	51	595	50	680	44	550
15:48:20.245 [CTD ]  11.2567,  3.39731,    0.192, 2.7458, 2.5115
15:48:19.510 [OCR1] 00000E16
15:48:19.517 [OCR2] 00000E17
15:48:20.123 [OCR3] 00000E18
15:48:20.497 [CTD ]  11.2496,  3.39684,    0.231, 2.7458, 2.5118
15:48:20.769 [APLA] $PASHR,154820.765,192.73,T,-4.73,5.67,-0.06,0.020,0.020,0.021,2,1*12
15:48:20.775 [APLA] $GPGGA,154820.765,4946.92257,N,06421.44946,W,4,07,1.2,0.90,M,,,0,0004*11
15:48:20.782 [APLA] $GPVTG,190.7,T,,M,3.2,N,5.9,K,D*0A
15:48:20.748 [CTD ]  11.2431,  3.39672,    0.272, 2.7466, 2.5121
15:48:20.472 [OCR3] 00000E19
15:48:21.002 [APLA] $utc,20220706,154821.0026
15:48:21.008 [DBG ] $STAT,RECORDING
15:48:21.004 [APLA] $GPZDA,154821.0026,06,07,2022,,*6A
15:48:20.312 [OCR1] 00000E1A
15:48:20.320 [OCR2] 00000E1B
15:48:20.974 [OWL ] SEAOWLA2K-0144	4003	69	237	237	1371	259	2100	2100	2644	2644	115	691	691
15:48:20.998 [CTD ]  11.2386,  3.39667,    0.312, 2.7457, 2.5119
15:48:20.832 [OCR3] 00000E1C
15:48:21.251 [CTD ]  11.2362,  3.39684,    0.322, 2.7457, 2.5117
15:48:21.083 [OCR3] 00000E1D
15:48:21.330 [ECO ] 99/99/99	99:99:99	700	51	595	50	680	46	550
15:48:21.501 [CTD ]  11.2360,  3.39709,    0.304, 2.7454, 2.5119
15:48:21.332 [OCR3] 00000E1E
15:48:21.016 [OCR1] 00000E1F
15:48:21.023 [OCR2] 00000E20
15:48:21.769 [APLA] $PASHR,154821.765,192.57,T,1.34,2.53,0.09,0.020,0.020,0.021,2,1*1C
15:48:21.775 [APLA] $GPGGA,154821.765,4946.92171,N,06421.44983,W,4,07,1.2,1.05,M,,,0004*12
15:48:21.782 [APLA] $GPVTG,200.8,T,,M,3.4,N,6.3,K,D*00
15:48:21.753 [CTD ]  11.2373,  3.39743,    0.260, 2.7468, 2.5115
15:48:21.593 [OCR3] 00000E21
15:48:21.786 [OWL ] SEAOWLA2K-0144	3994	68	236	236	1374	274	2249	2249	2643	2643	115	683	683
15:48:22.002 [APLA] $utc,20220706,154822.0026
15:48:22.008 [DBG ] $STAT,RECORDING
15:48:22.004 [APLA] $GPZDA,154822.0026,06,07,2022,,*69
15:48:22.004 [CTD ]  11.2401,  3.39748,    0.206, 2.7458, 2.5120
15:48:21.842 [OCR3] 00000E22
15:48:22.254 [CTD ]  11.2432,  3.39770,    0.167, 2.7457, 2.5105
15:48:21.718 [OCR1] 00000E23
15:48:21.726 [OCR2] 00000E24
15:48:22.454 [ECO ] 99/99/99	99:99:99	700	51	595	50	680	47	550
15:48:22.191 [OCR3] 00000E25
15:48:22.507 [CTD ]  11.2449,  3.39726,    0.159, 2.7448, 2.5112
15:48:22.598 [OWL ] SEAOWLA2K-0144	4003	68	232	232	1372	260	2111	2111	2643	2643	115	683	683
15:48:22.769 [APLA] $PASHR,154822.765,191.65,T,-6.15,5.82,-0.00,0.020,0.020,0.021,2,1*1B
15:48:22.775 [APLA] $GPGGA,154822.765,4946.92084,N,06421.45037,W,4,07,1.2,0.99,M,,,1,0004*19
15:48:22.782 [APLA] $GPVTG,198.9,T,,M,3.2,N,5.9,K,D*0C
15:48:22.551 [OCR3] 00000E26
15:48:22.757 [CTD ]  11.2428,  3.39672,    0.212, 2.7456, 2.5104
15:48:23.002 [APLA] $utc,20220706,154823.0026
15:48:23.008 [DBG ] $STAT,RECORDING
15:48:23.004 [APLA] $GPZDA,154823.0026,06,07,2022,,*68
15:48:22.801 [OCR3] 00000E27
15:48:23.009 [CTD ]  11.2391,  3.39674,    0.301, 2.7465, 2.5094
15:48:22.422 [OCR1] 00000E28
15:48:22.429 [OCR2] 00000E29
15:48:23.260 [CTD ]  11.2371,  3.39696,    0.332, 2.7449, 2.5099
15:48:23.050 [OCR3] 00000E2A
15:48:23.410 [OWL ] SEAOWLA2K-0144	3993	69	242	242	1374	266	2175	2175	2644	2644	115	688	688
15:48:23.511 [CTD ]  11.2367,  3.39669,    0.284, 2.7461, 2.5111
15:48:23.311 [OCR3] 00000E2B
15:48:23.578 [ECO ] 99/99/99	99:99:99	700	51	595	50	680	47	550
15:48:23.769 [APLA] $PASHR,154823.765,191.87,T,0.23,4.39,-0.00,0.020,0.020,0.021,2,1*39
15:48:23.775 [APLA] $GPGGA,154823.765,4946.92001,N,06421.45078,W,4,07,1.2,0.98,M,,,1,0004*1F
15:48:23.782 [APLA] $GPVTG,198.0,T,,M,3.2,N,5.9,K,D*05
15:48:23.761 [CTD ]  11.2355,  3.39662,    0.200, 2.7449, 2.5100
15:48:23.560 [OCR3] 00000E2C
15:48:23.125 [OCR1] 00000E2D
15:48:23.132 [OCR2] 00000E2E
15:48:24.002 [APLA] $utc,20220706,154824.00
15:48:24.008 [DBG ] $STAT,RECORDING
15:48:24.004 [APLA] $GPZDA,154824.0026,06,07,2022,,*6F
15:48:24.013 [CTD ]  11.2343,  3.39662,    0.180, 2.7456, 2.5106
15:48:23.910 [OCR3] 00000E2F
15:48:24.223 [OWL ] SEAOWLA2K-0144	4003	69	242	242	1371	265	2155	2155	2643	2643	115	684	684
15:48:24.266 [CTD ]  11.2340,  3.39669,    0.256, 2.7451, 2.5107
15:48:24.270 [OCR3] 00000E30
15:48:24.516 [CTD ]  11.2345,  3.39709,    0.315, 2.7464, 2.5126
15:48:24.701 [ECO ] 99/99/99	99:99:99	700	51	595	50	680	46	550
15:48:23.929 [OCR1] 00000E31
15:48:23.935 [OCR2] 00000E32
15:48:24.520 [OCR3] 00000E33
15:48:24.769 [APLA] $PASHR,154824.765,189.05,T,-0.49,4.86,0.04,0.020,0.020,0.021,2,1*31
15:48:24.775 [APLA] $GPGGA,154824.765,4946.91912,N,06421.45122,W,4,07,1.2,1.03,M,,,0,0004*1C
15:48:24.782 [APLA] $GPVTG,199.5,,M,3.5,N,6.4,K,D*08
15:48:24.767 [CTD ]  11.2371,  3.39770,    0.286, 2.7457, 2.5116
15:48:25.002 [APLA] $utc,20220706,154825.0026
15:48:25.008 [DBG ] $STAT,RECORDING
15:48:25.004 [APLA] $GPZDA,154825.0026,06,07,2022,,*6E
15:48:24.769 [OCR3] 00000E34
15:48:25.017 [CTD ]  11.2415,  3.39768,    0.219, 2.7455, 2.5120
15:48:25.035 [OWL ] SEAOWLA2K-0144	3994	68	237	237	1375	262	2133	2133	2644	2644	116	691	691
15:48:25.029 [OCR3] 00000E35
15:48:25.269 [CTD ]  11.2440,  3.39765,    0.181, 2.7462, 2.5116
15:48:24.733 [OCR1] 00000E36
15:48:24.738 [OCR2] 00000E37
15:48:25.519 [CTD ]  11.2452,  3.39758,    0.212, 2.7464, 2.5110
15:48:25.279 [OCR3] 00000E38
15:48:25.769 [APLA] $PASHR,154825.765,188.26,T,-1.05,6.48,-0.02,0.020,0.020,0.021,0,1*10
15:48:25.775 [APLA] $GPGGA,154825.765,4946.91817,N,06421.45165,W,4,07,1.2,0.97,M,,,0,0004*16
15:48:25.782 [APLA] $GPVTG,195.2,T,,M,3.4,N,6.3,K,D*05
15:48:25.771 [CTD ]  11.2453,  3.39770,    0.247, 2.7462, 2.5111
15:48:25.825 [ECO ] 99/99/99	99:99:99	700	51	595	50	680	46	550
15:48:25.847 [OWL ] SEAOWLA2K-0144	4003	68	238	238	1371	260	2114	2114	2644	2644	116	690	690
15:48:25.628 [OCR3] 00000E39
15:48:26.002 [APLA] $utc,220706,154826.0026
15:48:26.008 [DBG ] $STAT,RECORDING
15:48:26.004 [APLA] $GPZDA,154826.0026,06,07,2022,,*6D
15:48:26.023 [CTD ]  11.2461,  3.39763,    0.225, 2.7461, 2.5112
15:48:25.433 [OCR1] 00000E3A
15:48:25.441 [OCR2] 00000E3B
15:48:25.989 [OCR3] 00000E3C
15:48:26.273 [CTD ]  11.2465,  3.39763,    0.197, 2.7467, 2.5111
15:48:26.239 [OCR3] 00000E3D
15:48:26.525 [CTD ]  11.2457,  3.39714,    0.210, 2.7469, 2.5098
15:48:26.659 [OWL ] SEAOWLA2K-0144	3993	69	238	238	1374	268	2184	2184	2643	2643	115	690	690
15:48:26.488 [OCR3] 00000E3E
15:48:26.769 [APLA] $PASHR,154826.765,191.93,T,-3.57,4.22,-0.10,0.020,0.020,0.021,2,1*1FPGGA,154826.765,4946.91723,N,06421.45197,W,4,07,1.2,0.88,M,,,1,0004*1F
15:48:26.782 [APLA] $GPVTG,190.4,T,,M,3.5,N,6.5,K,D*01
15:48:26.776 [CTD ]  11.2424,  3.39684,    0.251, 2.7460, 2.5107
15:48:26.143 [OCR2] 00000E3F
15:48:26.949 [ECO ] 99/99/99	99:99:99	700	51	595	50	680	46	550
15:48:26.748 [OCR3] 00000E40
15:48:27.002 [APLA] $utc,20220706,154827.0026
15:48:27.008 [DBG ] $STAT,RECORDING
15:48:27.004 [APLA] $GPZDA,154827.0026,06,07,2022,,*6C
15:48:27.028 [CTD ]  11.2401,  3.39763,    0.283, 2.7468, 2.5110
15:48:27.278 [CTD ]  11.2423,  3.39795,    0.275, 2.7459, 2.5112
15:48:26.998 [OCR3] 00000E41
15:48:26.136 [OCR1] 00000E42
15:48:27.471 [OWL ] SEAOWLA2K-0144	4004	68	239	239	1370	266	2168	2168	2643	2643	115	682	682
15:48:26.846 [OCR2] 00000E43
15:48:27.533 [CTD ]  11.2458,  3.39815,    0.230, 2.7462, 2.5116
15:48:27.347 [OCR3] 00000E44
15:48:27.769 [APLA] $PASHR,154827.765,196.41,T,-1.09,4.92,0.07,0.020,0.020,0.021,2,1*3F
15:48:27.775 [APLA] $GPGGA,154827.765,4946.91627,N,06421.45237,W,4,07,1.1.04,M,,,0,0004*16
15:48:27.782 [APLA] $GPVTG,198.9,T,,M,3.6,N,6.7,K,D*05
15:48:27.780 [CTD ]  11.2490,  3.39827,    0.181, 2.7461, 2.5115
15:48:27.707 [OCR3] 00000E45
15:48:28.002 [APLA] $utc,20220706,154828.0026
15:48:28.008 [DBG ] $STAT,RECORDING
15:48:28.004 [APLA] $GPZDA,154828.0026,06,07,2022,,*63
15:48:28.033 [CTD ]  11.2517,  3.39839,    0.220, 2.7466, 2.5117
15:48:28.073 [ECO ] 99/99/99	99:99:99	700	51	595	50	680	46	550
15:48:27.957 [OCR3] 00000E46
15:48:28.283 [CTD ]  11.2535,  3.39864,    0.314, 2.7471, 2.5108
15:48:28.283 [OWL ] SEAOWLA2K-0144	3995	68	239	239	1373	268	2191	2191	2643	2643	115	685	685
15:48:27.549 [OCR2] 00000E47
15:48:28.206 [OCR3] 00000E48
15:48:27.352 [OCR1] 00000E49
15:48:28.534 [CTD ]  11.2559,  3.39876,    0.328, 2.7462, 2.5096
15:48:28.466 [OCR3] 00000E4A
15:48:28.769 [APLA] $PASHR,154828.765,194.59,T,0.80,4.64,0.06,0.020,0.020,0.021,2,1*1E
15:48:28.775 [APLA] $GPGGA,15482765,4946.91533,N,06421.45296,W,4,07,1.2,1.05,M,,,1,0004*14
15:48:28.782 [APLA] $GPVTG,206.1,T,,M,3.6,N,6.8,K,D*06
15:48:28.784 [CTD ]  11.2582,  3.39854,    0.238, 2.7472, 2.5091
15:48:29.002 [APLA] $utc,20220706,154829.0027
15:48:29.008 [DBG ] $STAT,RECORDING
15:48:29.004 [APLA] $GPZDA,154829.0027,06,07,2022,,*63
15:48:28.716 [OCR3] 00000E4B
15:48:29.036 [CTD ]  11.2584,  3.39837,    0.102, 2.7471, 2.5112
15:48:28.352 [OCR2] 00000E4C
15:48:29.095 [OWL ] SEAOWLA2K-0144	4003	68	230	230	1369	267	2182	2182	2643	2643	115	682	682
15:48:29.196 [ECO ] 99/99/99	99:99:99	700	51	595	50	680	47	550
15:48:29.288 [CTD ]  11.2573,  3.39770,    0.081, 2.7466, 2.5115
15:48:29.065 [OCR3] 00000E4D
15:48:29.538 [CTD ]  11.2579,  3.39815,    0.212, 2.7467, 2.5114
15:48:29.426 [OCR3] 00000E4E
15:48:29.790 [CTD ]  11.2595,  3.39497,    0.367, 2.7464, 2.5105
15:48:29.155 [OCR2] 00000E4F
15:48:29.769 [APLA] $PASHR,154829.765,194.58,T,-7.63,5.66,-0.10,0.020,0.020,0.021,2,1*10
15:48:29.883 [APLA] $GPGGA,154829.765,49491444,N,06421.348,W,4,07,1.2,0.88,M,,,0,0004*13
15:48:29.889 [APLA] $GPVTG,194.3,T,,M,3.2,N,6.0,K,D*00
15:48:28.568 [OCR1] 00000E50
15:48:29.676 [OCR3] 00000E51
15:48:29.907 [OWL ] SEAOWLA2K-0144	3994	68	235	235	1374	268	2193	2193	2642	2642	114	681	681
15:48:30.002 [APLA] $utc,20220706,154830.0027
15:48:30.016 [DBG ] $STAT,RECORDING
15:48:30.004 [APLA] $GPZDA,154830.0027,06,07,2022,,*6B
15:48:30.040 [CTD ]  11.2634,  3.39413,    0.394, 2.7471, 2.5106
15:48:29.925 [OCR3] 00000E52
15:48:30.292 [CTD ]  11.2678,  3.36659,    0.308, 2.7487, 2.5105
15:48:30.320 [ECO ] 99/99/99	99:99:99	700	51	595	50	680	47	550
15:48:30.185 [OCR3] 00000E53
15:48:29.859 [OCR2] 00000E54
15:48:30.544 [CTD ]  11.2708,  3.39044,    0.166, 2.7468, 2.5101
15:48:30.769 [APLA] $PASHR,154830.765,192.14,T,1.95,3.92,0.01,0.020,0.020,0.021,2,1*14
15:48:30.775 [APLA] $GPGGA,154830.765,4946.91352,N,06421.45397,W,4,07,1.2,0.98,M,,,0,0004*18
15:48:30.719 [OWL ] SEAOWLA2K-0144	4003	68	237	237	1370	273	2235	2235	2644	2644	115	683	683
15:48:30.782 [APLA] $GPVTG,200.5,T,,M,3.7,N,6.9,D*04
15:48:30.435 [OCR3] 00000E55
15:48:30.796 [CTD ]  11.2720,  3.39595,    0.101, 2.7485, 2.5103
15:48:31.002 [APLA] $utc,20220706,154831.0027
15:48:31.008 [DBG ] $STAT,RECORDING
15:48:31.004 [APLA] $GPZDA,154831.0027,06,07,2022,,*6A
15:48:31.046 [CTD ]  11.2722,  3.39970,    0.168, 2.7479, 2.5124
15:48:30.798 [OCR3] 00000E56
15:48:29.911 [OCR1] 00000E57
15:48:30.562 [OCR2] 00000E58
15:48:31.298 [CTD ]  11.2720,  3.39968,    0.286, 2.7478, 2.5117
15:48:31.145 [OCR3] 00000E59
15:48:31.444 [ECO ] 99/99/99	99:99:99	700	51	595	50	680	46	550
15:48:31.548 [CTD ]  11.2721,  3.39955,    0.328, 2.7478, 2.5109
15:48:31.531 [OWL ] SEAOWLA2K-0144	3993	68	239	239	1373	260	2109	2109	2643	2643	115	688	688
15:48:31.395 [OCR3] 00000E5A
15:48:31.769 [APLA] $PASHR,154831.765,188.38,T,-3.40,4.90,0.03,0.020,0.020,0.021,2,1*30
15:48:31.775 [APLA] $GPGGA,154831.765,4946.91259,N,06421.45450,W,4,07,1.2,1.00,M,,,1,0004*1E
15:48:31.782 [APLA] $GPVTG,197.5,T,,M,3.5,N,6.5,K,D*07
15:48:31.802 [CTD ]  11.2733,  3.39945,    0.289, 2.7476, 2.5111
15:48:31.644 [OCR3] 00000E5B
15:48:31.265 [OCR2] 00000E5C
15:48:32.002 [APLA] $utc,20220706,154832.0027
15:48:32.008 [DBG ] $STAT,RECORDING
15:48:32.004 [APLA] $GPZDA,154832.0027,06,07,2022,,*69
15:48:32.063 [CTD ]  11.2741,  3.39939,    0.233, 2.7478, 2.5114
15:48:31.904 [OCR3] 00000E5D
15:48:32.313 [CTD ]  11.2741,  3.39977,    0.241, 2.7471, 2.5103
15:48:32.343 [OWL ] SEAOWLA2K-0144	4003	68	237	237	1370	272	2230	2230	2643	2643	115	687	687
15:48:31.202 [OCR1] 00000E5E
15:48:32.154 [OCR3] 00000E5F
15:48:32.568 [ECO ] 99/99/99	99:99:99	700	51	595	50	680	46	550
15:48:32.565 [CTD ]  11.2732,  3.39963,    0.265, 2.7476, 2.5102
15:48:31.968 [OCR2] 00000E60
15:48:32.769 [APLA] $PASHR,154832.765,188.49,1.16,5.81,-0.04,0.020,0.020,0.021,2,1*32
15:48:32.775 [APLA] $GPGGA,154832.765,4946.91165,N,06421.45485,W,4,07,1.2,0.92,M,,,0,0004*12
15:48:32.782 [APLA] $GPVTG,192.7,T,,M,3.4,N,6.4,K,D*00
15:48:32.815 [CTD ]  11.2715,  3.39948,    0.257, 2.7494, 2.5119
15:48:32.503 [OCR3] 00000E61
15:48:33.002 [APLA] $utc,20220706,154833.0027
15:48:33.009 [DBG ] $STAT,RECORDING
15:48:33.004 [APLA] $GPZDA,154833.0027,06,07,2022,,*68
15:48:32.864 [OCR3] 00000E62
15:48:33.067 [CTD ]  11.2696,  3.39943,    0.201, 2.7475, 2.5111
15:48:33.155 [OWL ] SEAOWLA2K-0144	3993	68	231	231	1373	269	2208	2208	2643	2643	115	682	682
15:48:33.113 [OCR3] 00000E63
15:48:33.319 [CTD ]  11.2681,  3.39911,    0.161, 2.7468, 2.5109
15:48:32.772 [OCR2] 00000E64
15:48:33.569 [CTD ]  11.2655,  3.39891,    0.161, 2.7476, 2.5118
15:48:33.362 [OCR3] 00000E65
15:48:32.418 [OCR1] 00000E66
15:48:33.691 [ECO ] 99/99/99	99:99:99	700	51	595	50	680	45	550
15:48:33.769 [APLA] $PASHR,154833.765,195.15,T,-4.73,5.86,0.06,0.020,0.020,0.021,2,1*35
15:48:33.775 [APLA] $GPGGA,154833.765,4946.91076,N,06421.45524,W,4,07,1.2,1.03,M,,,1,0004*12
15:48:33.782 [APLA] $GPVTG,197.6,T,,M,3.3,N,6.1,K,D*06
15:48:33.821 [CTD ]  11.2631,  3.39889,    0.192, 2.7468, 2.5120
15:48:33.622 [OCR3] 00000E67
15:48:34.002 [APLA] $utc,20220706,154834.0027
15:48:34.008 [DBG ] $STAT,RECORDING
15:48:34.004 [APLA] $GPZDA,154834.0027,06,07,2022,,*6F
15:48:33.967 [OWL ] SEAOWLA2K-0144	4003	68	237	237	1370	258	2093	2093	2643	2643	115	684	684
15:48:34.072 [CTD ]  11.2616,  3.39891,    0.257, 2.7468, 2.5116
15:48:33.872 [OCR3] 00000E68
15:48:33.575 [OCR2] 00000E69
15:48:34.322 [CTD ]  11.2610,  3.39911,    0.339, 2.7468, 2.5106
15:48:34.221 [OCR3] 00000E6A
15:48:34.574 [CTD ]  11.2618,  3.39869,    0.346, 2.7462, 2.5110
15:48:34.769 [APLA] $PASHR,154834.765,196.41,T,-2.08,2.66,0.01,0.020,0.020,0.021,2,1*34
15:48:34.775 [APLA] $GPGGA,154834.765,4946.90988,N,06421.45570,W,4,07,1.2,0.98,M,,,1,0004*1E
15:48:34.782 [APLA] $GPVTG,199.8,T,,M,3.6,N,6.7,K,D*05
15:48:34.581 [OCR3] 00000E6B
15:48:34.779 [OWL ] SEAOWLA2K-0144	3994	68	238	238	1373	273	2244	2244	2643	2643	115	684	684
15:48:34.815 [ECO ] 99/99/99	99:99:99	700	51	595	50	680	50	550
15:48:33.635 [OCR1] 00000E6C
15:48:34.824 [CTD ]  11.2636,  3.39788,    0.278, 2.7477, 2.5109
15:48:34.279 [OCR2] 00000E6D
15:48:35.002 [APLA] $utc,20220706,154835.0027
15:48:35.009 [DBG ] $STAT,RECORDING
15:48:35.004 [APLA] $GPZDA,154835.0027,06,07,2022,,*6E
15:48:34.832 [OCR3] 00000E6E
15:48:35.076 [CTD ]  11.2647,  3.39906,    0.217, 2.7472, 2.5117
15:48:35.081 [OCR3] 00000E6F
15:48:35.328 [CTD ]  11.2647,  3.39896,    0.234, 2.7475, 2.5110
15:48:35.341 [OCR3] 00000E70
15:48:35.578 [CTD ]  11.2631,  3.39889,    0.256, 2.7457, 2.5111
15:48:35.591 [OWL ] SEAOWLA2K-0144	4003	68	237	237	1370	264	2158	2158	2643	2643	115	683	683
15:48:34.982 [OCR2] 00000E71
15:48:35.769 [APLA] $PASHR,154835.765,192.24,T,0.47,5.39,0.03,0.020,0.020,0.021,2,1*19
15:48:35.775 [APLA] $GPGGA,154835.765,4946.90892,N,06421.45628,W,4,07,1.2,1.02,M,,,0,0004*18
15:48:35.782 [APLA] $GPVTG,203.0,T,,M,3.7,N,6.8,K,D*03
15:48:35.830 [CTD ]  11.2614,  3.39886,    0.236, 2.7477, 2.5109
15:48:35.591 [OCR3] 00000E72
15:48:35.939 [ECO ] 99/99/99	99:99:99	700	51	595	50	680	45	550
15:48:36.002 [APLA] $utc,20220706,154836.0027
15:48:36.008 [DBG ] $STAT,RECORDING
15:48:36.004 [APLA] $GPZDA,154836.0027,06,07,2022,,*6D
15:48:34.852 [OCR1] 00000E73
15:48:36.083 [CTD ]  11.2603,  3.39886,    0.198, 2.7474, 2.5103
15:48:35.940 [OCR3] 00000E74
15:48:36.332 [CTD ]  11.2597,  3.39891,    0.161, 2.7484, 2.5114
15:48:35.685 [OCR2] 00000E75
15:48:36.403 [OWL ] SEAOWLA2K-0144	3994	69	242	242	1374	259	2104	2104	2644	2644	116	692	692
15:48:36.300 [OCR3] 00000E76
15:48:36.582 [CTD ]  11.2598,  3.39889,    0.192, 2.7468, 2.5108
15:48:36.769 [APLA] $PASHR,154836.765,191.30,T,-5.26,5.58,-0.08,0.020,0.020,0.021,2,1*12
15:48:36.775 [APLA] $GPGGA,154836.765,4946.90800,N,06421.45679,W,4,07,1.2,0.91,M,,,1,0004*1E
15:48:36.782 [APLA] $GPVTG,195.4,T,,M,3.3,N,6.2,K,D*05
15:48:36.551 [OCR3] 00000E77
15:48:36.834 [CTD ]  11.2589,  3.39844,    0.308, 2.7473, 2.5105
15:48:37.002 [APLA] $utc,20220706,154837.0027
15:48:37.008 [DBG ] $STAT,RECORDING
15:48:37.004 [APLA] $GPZDA,154837.0027,06,07,2022,,*6C
15:48:36.800 [OCR3] 00000E78
15:48:37.062 [ECO ] 99/99/99	99:99:99	700	51	595	50	680	45	550
15:48:37.086 [CTD ]  11.2563,  3.39837,    0.332, 2.7479, 2.5099
15:48:36.388 [OCR2] 00000E79
15:48:37.215 [OWL ] SEAOWLA2K-0144	4003	68	234	234	1371	267	2177	2177	2643	2643	115	686	686
15:48:37.060 [OCR3] 00000E7A
15:48:37.336 [CTD ]  11.2543,  3.39842,    0.247, 2.7484, 2.5092
15:48:36.068 [OCR1] 00000E7B
15:48:37.588 [CTD ]  11.2535,  3.39852,    0.145, 2.7478, 2.5098
15:48:37.310 [OCR3] 00000E7C
15:48:37.769 [APLA] $PASHR,154837.765,193.11,T,-0.03,4.18,-0.02,0.020,0.020,0.021,2,1*1F
15:48:37.775 [APLA] $GPGGA,154837.765,4946.90710,N,06421.45722,W,4,07,1.2,0.96,M,,,1,0004*19
15:48:37.782 [APLA] $GPVTG,197.8,T,,M,3.6,N,6.6,K,D*0A
15:48:37.838 [CTD ]  11.2538,  3.39862,    0.110, 2.7475, 2.5117
15:48:37.192 [OCR2] 00000E7D
15:48:38.002 [APLA] $utc,20220706,154838.0027
15:48:38.008 [DBG ] $STAT,RECORDING
15:48:38.004 [APLA] $GPZDA,154838.0027,06,07,2022,,*63
15:48:37.659 [OCR3] 00000E7E
15:48:38.027 [OWL ] SEAOWLA2K-0144	3994	68	234	234	1374	266	2174	2174	2643	2643	115	687	687
15:48:38.090 [CTD ]  11.2543,  3.39842,    0.174, 2.7476, 2.5119
15:48:38.186 [ECO ] 99/99/99	99:99:99	700	51	595	50	680	46	550
15:48:38.019 [OCR3] 00000E7F
15:48:38.340 [CTD ]  11.2533,  3.39817,    0.274, 2.7470, 2.5118
15:48:38.269 [OCR3] 00000E80
15:48:38.592 [CTD ]  11.2517,  3.39805,    0.328, 2.7466, 2.5123
15:48:37.995 [OCR2] 00000E81
15:48:37.385 [OCR1] 00000E82
15:48:38.769 [APLA] $PASHR,154838.765,192.92,T,-4.47,3.790.00,0.020,0.020,0.021,2,1*1C
15:48:38.775 [APLA] $GPGGA,154838.765,49460614,N,06421.45767,4,07,1.2,0.97,M,,,1,0004*13
15:48:38.782 [APLA] $GPVTG,197.0,T,,M,3.7,N,6.8,K,D*0D
15:48:38.519 [OCR3] 00000E83
15:48:38.844 [CTD ]  11.2500,  3.39795,    0.339, 2.7481, 2.5117
15:48:38.840 [OWL ] SEAOWLA2K-0144	4003	68	235	235	1371	264	2153	2153	2642	2642	115	681	681
15:48:39.002 [APLA] $utc,20220706,154839.0027
15:48:39.008 [DBG ] $STAT,RECORDING
15:48:39.004 [APLA] $GPZDA,154839.0027,06,07,2022,,*62
15:48:38.797 [OCR3] 00000E84
15:48:39.094 [CTD ]  11.2489,  3.39773,    0.313, 2.7488, 2.5119
15:48:39.310 [ECO ] 99/99/99	99:99:99	700	51	595	50	680	48	550
15:48:39.028 [OCR3] 00000E85
15:48:39.346 [CTD ]  11.2479,  3.39795,    0.256, 2.7469, 2.5112
15:48:38.699 [OCR2] 00000E86
15:48:39.597 [CTD ]  11.2471,  3.39110,    0.213, 2.7466, 2.5122
15:48:39.652 [OWL ] SEAOWLA2K-0144	3994	68	234	234	1373	272	2229	2229	2644	2644	115	685	685
15:48:39.378 [OCR3] 00000E87
15:48:39.769 [APLA] $PASHR,154839.765,188.71,T,-0.62,3.85,-0.01,0.020,0.020,0.021,2,1*1A
15:48:39.775 [APLA] $GPGGA,154839.765,4946.90517,N,06421.45819,W,4,07,1.2,0.96,M,,,0,0004*14
15:48:39.782 [APLA] $GPVTG,197.0,T,,M,3.7,N,6.8,K,D*0D
15:48:39.849 [CTD ]  11.2470,  3.39800,    0.216, 2.7469, 2.5109
15:48:38.703 [OCR1] 00000E88
15:48:39.737 [OCR3] 00000E89
15:48:40.002 [APLA] $U,20220706,154840.0027
15:48:40.008 [DBG ] $STAT,RECORDING
15:48:40.004 [APLA] $GPZDA,154840.0027,06,07,2022,,*6C
15:48:39.402 [OCR2] 00000E8A
15:48:40.099 [CTD ]  11.2477,  3.39765,    0.262, 2.7480, 2.5108
15:48:39.988 [OCR3] 00000E8B
15:48:40.351 [CTD ]  11.2454,  3.39682,    0.273, 2.7474, 2.5110
15:48:40.434 [ECO ] 99/99/99	99:99:99	700	51	595	50	680	45	550
15:48:40.237 [OCR3] 00000E8C
15:48:40.464 [OWL ] SEAOWLA2K-0144	4003	68	236	236	1370	267	2175	2175	2643	2643	115	688	688
15:48:40.601 [CTD ]  11.2401,  3.39699,    0.223, 2.7479, 2.5103
15:48:40.499 [OCR3] 00000E8D
15:48:40.769 [APLA] $PASHR,154840.765,188.81,T,-0.67,4.81,0.01,0.020,0.020,0.021,2,1*30
15:48:40.775 [APLA] $GGA,154840.765,4946.90422,N,06421.45859,W,4,07,1.2,0.98,M,,,1,0004*16
15:48:40.782 [APLA] $GPVTG,193.9,T,,M,3.5,N,6.4,K,D*0E
15:48:40.105 [OCR2] 00000E8E
15:48:40.853 [CTD ]  11.2371,  3.39689,    0.170, 2.7471, 2.5105
15:48:41.002 [APLA] $utc,20220706,154841.0027
15:48:41.008 [DBG ] $STAT,RECORDING
15:48:41.004 [APLA] $GPZDA,154841.0027,06,07,2022,,*6D
15:48:40.748 [OCR3] 00000E8F
15:48:39.919 [OCR1] 00000E90
15:48:41.105 [CTD ]  11.2346,  3.39654,    0.189, 2.7482, 2.5107
15:48:41.276 [OWL ] SEAOWLA2K-0144	3994	68	233	233	1374	267	2180	2180	2643	2643	115	683	683
15:48:41.355 [CTD ]  11.2318,  3.39664,    0.202, 2.7466, 2.5109
15:48:41.097 [OCR3] 00000E91
15:48:41.558 [ECO ] 99/99/99	99:99:99	700	51	595	50	680	44	550
15:48:40.808 [OCR2] 00000E92
15:48:41.607 [CTD ]  11.2311,  3.39728,    0.195, 2.7481, 2.5110
15:48:41.457 [OCR3] 00000E93
15:48:41.769 [APLA] $PASHR,154841.765,192.55,T,-2.40,5.43,0.00,0.020,0.020,0.021,2,1*3A
15:48:41.775 [APLA] $GPGGA,154841.765,4946.90329,N,06421.45903,W,4,07,1.2,0.97,M,,,0004*1A
15:48:41.782 [APLA] $GPVTG,199.4,T,,M,3.5,N,6.5,K,D*08
15:48:41.857 [CTD ]  11.2341,  3.39773,    0.201, 2.7487, 2.5104
15:48:41.708 [OCR3] 00000E94
15:48:42.002 [APLA] $utc,20220706,154842.0027
15:48:42.008 [DBG ] $STAT,RECORDING
15:48:42.004 [APLA] $GPZDA,154842.0027,06,07,2022,,*6E
15:48:42.088 [OWL ] SEAOWLA2K-0144	4003	68	235	235	1371	270	2205	2205	2643	2643	115	688	688
15:48:42.109 [CTD ]  11.2381,  3.39763,    0.233, 2.7466, 2.5104
15:48:41.957 [OCR3] 00000E95
15:48:41.135 [OCR1] 00000E96
15:48:42.359 [CTD ]  11.2400,  3.39760,    0.279, 2.7475, 2.5114
15:48:41.611 [OCR2] 00000E97
15:48:42.219 [OCR3] 00000E98
15:48:42.611 [CTD ]  11.2410,  3.39770,    0.298, 2.7483, 2.5109
15:48:42.681 [ECO ] 99/99/99	99:99:99	700	51	595	50	680	45	550
15:48:42.769 [APLA] $PASHR,154842.765,188.63,T,-2.36,4.72,0.00,0.020,0.020,0.021,2,1*35
15:48:42.775 [APLA] $GPGGA,154842.765,4946.90237,N,06421.45950,W,4,07,1.2,0.97,M,,,0,0004*10
15:48:42.782 [APLA] $GPVTG,196.4,T,,M,3.5,N,6.5,K,D*07
15:48:42.468 [OCR3] 00000E99
15:48:42.863 [CTD ]  11.2419,  3.39768,    0.271, 2.7477, 2.5112
15:48:42.900 [OWL ] SEAOWLA2K-0144	3994	69	240	240	1373	270	2207	2207	2643	2643	115	689	689
15:48:43.002 [APLA] $utc,20220706,154843.0027
15:48:43.008 [DBG ] $STAT,RECORDING
15:48:43.004 [APLA] $GPZDA,154843.0027,06,07,2022,,*6F
15:48:42.414 [OCR2] 00000E9A
15:48:43.113 [CTD ]  11.2429,  3.39790,    0.230, 2.7471, 2.5116
15:48:42.817 [OCR3] 00000E9B
15:48:43.365 [CTD ]  11.2441,  3.39792,    0.222, 2.7481, 2.5109
15:48:43.177 [OCR3] 00000E9C
15:48:42.351 [OCR1] 00000E9D
15:48:43.616 [CTD ]  11.2448,  3.39780,    0.243, 2.7464, 2.5113
15:48:43.428 [OCR3] 00000E9E
15:48:43.769 [APLA] $PASHR,154843.765,184.20,T,0.87,4.56,0.00,0.020,0.020,0.021,2,1*1C
15:48:43.712 [OWL ] SEAOWLA2K-0144	4003	69	242	242	1371	264	2148	2148	2644	2644	115	687	687
15:48:43.775 [APLA] $GPGGA,154843.765,4946.90141,N,06421.45988,W,4,07,1.2,0.97,M,,,1,0004*17
15:48:43.782 [APLA] $GPVTG,193.9,T,,M,3.6,N,6.6,K,D*0F
15:48:43.117 [OCR2] 00000E9F
15:48:43.805 [ECO ] 99/99/99	99:99:99	700	51	595	50	680	48	550
15:48:43.866 [CTD ]  11.2447,  3.39773,    0.249, 2.7472, 2.5106
15:48:43.677 [OCR3] 00000EA0
15:48:44.002 [APLA] $utc,20220706,154844.0027
15:48:44.008 [DBG ] $STAT,RECORDING
15:48:44.004 [APLA] $GPZDA,154844.0027,06,07,2022,,*68
15:48:44.118 [CTD ]  11.2443,  3.39775,    0.210, 2.7471, 2.5110
15:48:43.939 [OCR3] 00000EA1
15:48:44.370 [CTD ]  11.2439,  3.39783,    0.157, 2.7462, 2.5101
15:48:43.820 [OCR2] 00000EA2
15:48:44.188 [OCR3] 00000EA3
15:48:44.524 [OWL ] SEAOWLA2K-0144	3993	69	241	241	1373	263	2141	2141	2643	2643	115	688	688
15:48:44.623 [CTD ]  11.2442,  3.39797,    0.170, 2.7471, 2.5094
15:48:44.769 [APLA] $PASHR,154844.765,188.56,T,-2.72,6.50,0.04,0.020,0.020,0.021,2,1*33
15:48:44.775 [APLA] $GPGGA,154844.765,4946.90047,N,06421.46027,W,4,07,1.2,1.02,M,,,0,0004*14
15:48:44.782 [APLA] $GPVTG,194.6,T,,M,3.3,N,6.1,K,D*05
15:48:43.567 [OCR1] 00000EA4
15:48:44.537 [OCR3] 00000EA5
15:48:44.872 [CTD ]  11.2446,  3.39790,    0.222, 2.7468, 2.5100
15:48:44.929 [ECO ] 99/99/99	99:99:99	700	51	595	50	680	46	550
15:48:45.002 [APLA] $utc,20220706,154845.0027
15:48:45.016 [DBG ] $STAT,RECORDING
15:48:45.004 [APLA] $GPZDA,154845.0027,06,07,2022,,*69
15:48:44.898 [OCR3] 00000EA6
15:48:45.122 [CTD ]  11.2445,  3.39760,    0.277, 2.7481, 2.5107
15:48:44.522 [OCR2] 00000EA7
15:48:45.147 [OCR3] 00000EA8
15:48:45.336 [OWL ] SEAOWLA2K-0144	4003	68	236	236	1371	268	2185	2185	2643	2643	116	694	694
15:48:45.374 [CTD ]  11.2426,  3.39738,    0.319, 2.7466, 2.5116
15:48:45.397 [OCR3] 00000EA9
15:48:45.626 [CTD ]  11.2405,  3.39731,    0.338, 2.7473, 2.5116
15:48:45.769 [APLA] $PASHR,154845.765,190.34,T,-2.70,3.32,-0.05,0.020,0.020,0.021,2,1*10
15:48:45.775 [APLA] $GPGGA,154845.765,4946.89955,N,06421.46059,W,4,07,1.2,0.93,M,,,0,0004*17
15:48:45.782 [APLA] $GPVTG,191.2,T,,M,3.6,N,6.6,K,D*06
15:48:45.658 [OCR3] 00000EAA
15:48:45.876 [CTD ]  11.2390,  3.39677,    0.306, 2.7482, 2.5109
15:48:46.002 [APLA] $utc,20220706,154846.0028
15:48:46.008 [DBG ] $STAT,RECORDING
15:48:46.004 [APLA] $GPZDA,154846.0028,06,07,2022,,*65
15:48:45.225 [OCR2] 00000EAB
15:48:46.052 [ECO ] 99/99/99	99:99:99	700	51	595	50	680	46	550
15:48:46.128 [CTD ]  11.2381,  3.39723,    0.237, 2.7475, 2.5116
15:48:44.884 [OCR1] 00000EAC
15:48:46.148 [OWL ] SEAOWLA2K-0144	3994	69	240	240	1373	269	2201	2201	2643	2643	115	686	686
15:48:45.908 [OCR3] 00000EAD
15:48:46.378 [CTD ]  11.2370,  3.39701,    0.184, 2.7481, 2.5115
15:48:46.257 [OCR3] 00000EAE
15:48:46.630 [CTD ]  11.2357,  3.39689,    0.176, 2.7475, 2.5115
15:48:46.769 [APLA] $PASHR,154846.765,195.60,T,-0.54,5.02,0.00,0.020,0.020,0.021,2,1*3E
15:48:46.776 [APLA] $GPGGA,154846.765,4946.89857,N,06421.46096,W,4,07,1.2,0.98,M,,,1,0004*1E
15:48:46.782 [APLA] $GPVTG,197.7,T,,M,3.6,N,6.7,K,D*04
15:48:46.029 [OCR2] 00000EAF
15:48:46.618 [OCR3] 00000EB0
15:48:46.882 [CTD ]  11.2344,  3.39691,    0.214, 2.7478, 2.5116
15:48:47.002 [APLA] $utc,20220706,154847.0028
15:48:47.008 [DBG ] $STAT,RECORDING
15:48:47.004 [APLA] $GPZDA,154847.0028,06,07,2022,,*64
15:48:46.960 [OWL ] SEAOWLA2K-0144	4003	69	239	239	1370	264	2148	2148	2642	2642	115	687	687
15:48:46.867 [OCR3] 00000EB1
15:48:47.132 [CTD ]  11.2339,  3.39701,    0.251, 2.7492, 2.5118
15:48:47.176 [ECO ] 99/99/99	99:99:99	700	51	595	50	680	47	550
15:48:47.117 [OCR3] 00000EB2
15:48:46.200 [OCR1] 00000EB3
15:48:47.384 [CTD ]  11.2345,  3.39728,    0.244, 2.7476, 2.5106
15:48:46.831 [OCR2] 00000EB4
15:48:47.378 [OCR3] 00000EB5
15:48:47.634 [CTD ]  11.2358,  3.39721,    0.242, 2.7482, 2.5097
15:48:47.769 [APLA] $PASHR,154847.765,198.70,T,-4.91,5.03,0.02,0.020,0.020,0.021,2,1*3D
15:48:47.775 [APLA] $GPGGA,154847.765,4946.89768,N,06421.46150,W,4,07,1.2,1.00,M,,,0,0004*16
15:48:47.782 [APLA] $GPVTG,203.8,T,,M,3.4,N,6.2,K,D*02
15:48:47.772 [OWL ] SEAOWLA2K-0144	3992	68	234	234	1373	266	2176	2176	2643	2643	114	683	683
15:48:47.886 [CTD ]  11.2359,  3.39684,    0.270, 2.7484, 2.5098
15:48:47.628 [OCR3] 00000EB6
15:48:48.002 [APLA] $utc,20220706,154848.0028
15:48:48.009 [DBG ] $STAT,RECORDING
15:48:48.004 [APLA] $GPZDA,154840028,06,07,2022,,*6B
15:48:48.136 [CTD ]  11.2335,  3.39645,    0.271, 2.7468, 2.5104
15:48:47.534 [OCR2] 00000EB7
15:48:48.300 [ECO ] 99/99/99	99:99:99	700	51	595	50	680	47	550
15:48:47.978 [OCR3] 00000EB8
15:48:48.388 [CTD ]  11.2302,  3.39662,    0.248, 2.7485, 2.5118
15:48:48.339 [OCR3] 00000EB9
15:48:47.416 [OCR1] 00000EBA
15:48:48.584 [OWL ] SEAOWLA2K-0144	4003	68	236	236	1370	273	2242	2242	2643	2643	115	683	683
15:48:48.640 [CTD ]  11.2292,  3.39684,    0.269, 2.7494, 2.5115
15:48:48.770 [APLA] $PASHR,154848.765,195.19,T,-2.18,3.04,-0.01,0.020,0.020,0.021,2,1*18
15:48:48.776 [APLA] $GPGGA,154848.765,4946.89681,N,06421.46208,W,4,07,1.2,0.97,M,,,0,0004*1E
15:48:48.782 [APLA] $GPVTG,202.5,T,,M,3.5,N,6.6,K,D*0B
15:48:48.588 [OCR3] 00000EBB
15:48:48.891 [CTD ]  11.2298,  3.39704,    0.270, 2.7497, 2.5111
15:48:48.237 [OCR2] 00000EBC
15:48:49.002 [APLA] $utc,20220706,154849.0028
15:48:49.008 [DBG ] $STAT,RECORDING
15:48:49.004 [APLA] $GPZDA,154849.0028,06,07,2022,,*6A
15:48:48.838 [OCR3] 00000EBD
15:48:49.141 [CTD ]  11.2316,  3.39723,    0.253, 2.7486, 2.5112
15:48:49.099 [OCR3] 00000EBE
15:48:49.393 [CTD ]  11.2336,  3.39667,    0.243, 2.7489, 2.5108
15:48:49.423 [ECO ] 99/99/99	99:99:99	700	51	595	50	680	46	550
15:48:49.396 [OWL ] SEAOWLA2K-0144	3993	68	234	234	1372	270	2212	2212	2643	2643	115	689	689
15:48:48.940 [OCR2] 00000EBF
15:48:49.645 [CTD ]  11.2350,  3.39440,    0.258, 2.7483, 2.5111
15:48:49.349 [OCR3] 00000EC0
15:48:49.770 [APLA] $PASHR,154849.765,193.61,T,-1.75.45,-0.04,0.020,0.020,0.021,2,1*1A
15:48:49.776 [APLA] $GPGGA,154849.765,4946.89588,N,06421.46260,W,4,07,1.2,0.94,M,,,1,0004*19
15:48:49.782 [APLA] $GPVTG,198.9,T,,M,3.5,N,6.5,K,D*04
15:48:48.633 [OCR1] 00000EC1
15:48:49.895 [CTD ]  11.2355,  3.39586,    0.280, 2.7501, 2.5112
15:48:50.002 [APLA] $utc,20220706,154850.0028
15:48:50.008 [DBG ] $STAT,RECORDING
15:48:50.004 [APLA] $GPZDA,154850.0028,06,07,2022,,*62
15:48:49.700 [OCR3] 00000EC2
15:48:50.147 [CTD ]  11.2340,  3.39667,    0.281, 2.7486, 2.5115
15:48:50.208 [OWL ] SEAOWLA2K-0144	3993	69	243	243	1373	268	2194	2194	2643	2643	115	686	686
15:48:50.061 [OCR3] 00000EC3
15:48:50.397 [CTD ]  11.2317,  3.39657,    0.261, 2.7483, 2.5110
15:48:49.643 [OCR2] 00000EC4
15:48:50.310 [OCR3] 00000EC5
15:48:50.547 [ECO ] 99/99/99	99:99:99	700	51	595	50	680	46	550
15:48:50.649 [CTD ]  11.2298,  3.39642,    0.228, 2.7492, 2.5119
15:48:50.770 [APLA] $PASHR,154850.765,191.28,T,-0.59,4.62,0.02,0.020,0.020,0.021,2,1*39
15:48:50.776 [APLA] $GPGGA,154850.765,4946.89496,N,06421.46311,W,4,07,1.2,0.99,M,,,0,0004*14
15:48:50.782 [APLA] $GPVTG,199.9,T,,M,3.6,N,6.6,K,D*05
15:48:50.561 [OCR3] 00000EC6
15:48:50.901 [CTD ]  11.2309,  3.39728,    0.191, 2.7479, 2.5111
15:48:51.002 [APLA] $utc,20220706,154851.0028
15:48:51.008 [DBG ] $STAT,RECORDING
15:48:51.004 [APLA] $GPZDA,154851.0028,06,07,2022,,*63
15:48:49.850 [OCR1] 00000EC7
15:48:50.821 [OCR3] 00000EC8
15:48:51.020 [OWL ] SEAOWLA2K-0144	4003	68	235	235	1370	266	2167	2167	2642	2642	115	687	687
15:48:51.151 [CTD ]  11.2332,  3.39746,    0.170, 2.7503, 2.5112
15:48:50.446 [OCR2] 00000EC9
15:48:51.072 [OCR3] 00000ECA
15:48:51.403 [CTD ]  11.2362,  3.39795,    0.181, 2.7498, 2.5108
15:48:51.653 [CTD ]  11.2400,  3.39810,    0.204, 2.7493, 2.5110
15:48:51.671 [ECO ] 99/99/99	99:99:99	700	51	595	50	680	47	550
15:48:51.770 [APLA] $PASHR,154851.765,191.58,T,-3.76,4.17,-0.04,0.020,0.020,0.021,2,1*18
15:48:51.776 [APLA] $GPGGA,154851.765,4946.89403,N,06421.46362,W,4,07,1.2,0.93,M,,,1,0004*16
15:48:51.782 [APLA] $GPVTG,197.5,T,,M,3.6,N,6.7,D*06
15:48:51.423 [OCR3] 00000ECB
15:48:51.832 [OWL ] SEAOWLA2K-0144	3992	68	237	237	1373	269	2204	2204	2644	2644	115	688	688
15:48:51.905 [CTD ]  11.2428,  3.39785,    0.244, 2.7510, 2.5106
15:48:51.249 [OCR2] 00000ECC
15:48:52.002 [APLA] $utc,20220706,154852.0028
15:48:52.008 [DBG ] $STAT,RECORDING
15:48:52.004 [APLA] $GPZDA,154852.0028,06,07,2022,,*60
15:48:51.797 [OCR3] 00000ECD
15:48:52.155 [CTD ]  11.2436,  3.39810,    0.265, 2.7491, 2.5109
15:48:52.034 [OCR3] 00000ECE
15:48:51.067 [OCR1] 00000ECF
15:48:52.407 [CTD ]  11.2450,  3.39847,    0.247, 2.7487, 2.5108
15:48:52.285 [OCR3] 00000ED0
15:48:51.954 [OCR2] 00000ED1
15:48:52.659 [CTD ]  11.2480,  3.39829,    0.236, 2.7489, 2.5111
15:48:52.645 [OWL ] SEAOWLA2K-0144	4003	68	235	235	1370	265	2160	2160	2642	2642	115	685	685
15:48:52.770 [APLA] $PASHR,154852.765,191.36,T,-0.98,5.30,0.00,0.020,0.020,0.021,2,1*3D
15:48:52.776 [APLA] $GPGGA,154852.765,4946.89306,N,06421.46406,W,4,07,1.2,0.96,M,,,1,0004*17
15:48:52.782 [APLA] $GPVTG,197.1,T,,M,3.6,N,6.6,K,D*03
15:48:52.545 [OCR3] 00000ED2
15:48:52.794 [ECO ] 99/99/99	99:99:99	700	51	595	50	680	43	550
15:48:52.910 [CTD ]  11.2497,  3.39792,    0.250, 2.7499, 2.5110
15:48:53.002 [APLA] $utc,20220706,154853.0028
15:48:53.008 [DBG ] $STAT,RECORDING
15:48:53.004 [APLA] $GPZDA,154853.0028,06,07,2022,,*61
15:48:52.797 [OCR3] 00000ED3
15:48:53.163 [CTD ]  11.2469,  3.39731,    0.249, 2.7487, 2.5109
15:48:52.655 [OCR2] 00000ED4
15:48:53.412 [CTD ]  11.2416,  3.39682,    0.221, 2.7497, 2.5110
15:48:53.147 [OCR3] 00000ED5
15:48:53.457 [OWL ] SEAOWLA2K-0144	3994	68	237	237	1373	274	2251	2251	2643	2643	115	687	687
15:48:52.383 [OCR1] 00000ED6
15:48:53.664 [CTD ]  11.2354,  3.39595,    0.201, 2.7495, 2.5109
15:48:53.509 [OCR3] 00000ED7
15:48:53.769 [APLA] $PASHR,154853.765,189.73,T,-2,3.58,0.05,0.020,0.0,0.021,2,1*30
15:48:53.776 [APLA] $GPGGA,154853.765,4946.89215,N,06421.46453,W,4,07,1.2,1.03,M,,,0,0004*19
15:48:53.782 [APLA] $GPVTG,196.7,T,,M,3.5,N,6.4,K,D*05
15:48:53.918 [ECO ] 99/99/99	99:99:99	700	51	595	50	680	46	550
15:48:53.914 [CTD ]  11.2268,  3.39490,    0.234, 2.7503, 2.5110
15:48:54.002 [APLA] $utc,20220706,154854.0028
15:48:54.008 [DBG ] $STAT,RECORDING
15:48:54.004 [APLA] $GPZDA,154854.0028,06,07,2022,,*66
15:48:53.758 [OCR3] 00000ED8
15:48:53.358 [OCR2] 00000ED9
15:48:54.166 [CTD ]  11.2158,  3.39359,    0.275, 2.7498, 2.5112
15:48:54.017 [OCR3] 00000EDA
15:48:54.269 [OWL ] SEAOWLA2K-0144	4003	68	240	240	1369	270	2210	2210	2643	2643	115	693	693
15:48:54.416 [CTD ]  11.2036,  3.39329,    0.276, 2.7501, 2.5103
15:48:54.269 [OCR3] 00000EDB
15:48:54.668 [CTD ]  11.1946,  3.39317,    0.243, 2.7515, 2.5106
15:48:54.770 [APLA] $PASHR,154854.765,190.17,T,0.74,5.20,-0.02,0.019,0.019,0.021,2,1*38
15:48:54.776 [APLA] $GPGGA,154854.765,4946.89121,N,06421.46496,W,4,07,1.2,0.96,M,,,1,0004*1F
15:48:54.782 [APLA] $GPVTG,196.4,T,,M,3.6,N,6.7,K,D*06
15:48:54.061 [OCR2] 00000EDC
15:48:54.521 [OCR3] 00000EDD
15:48:53.698 [OCR1] 00000EDE
15:48:54.920 [CTD ]  11.1902,  3.39396,    0.187, 2.7494, 2.5098
15:48:55.002 [APLA] $utc,20220706,154855.0028
15:48:55.008 [DBG ] $STAT,RECORDING
15:48:55.004 [APLA] $GPZDA,154855.0028,06,07,2022,,*67
15:48:55.042 [ECO ] 99/99/99	99:99:99	700	51	595	50	680	43	550
15:48:55.081 [OWL ] SEAOWLA2K-0144	3995	69	239	239	1373	275	2266	2266	2643	2643	115	692	692
15:48:55.170 [CTD ]  11.1915,  3.39421,    0.173, 2.7505, 2.5115
15:48:54.871 [OCR3] 00000EDF
15:48:55.422 [CTD ]  11.1938,  3.39401,    0.222, 2.7495, 2.5112
15:48:55.233 [OCR3] 00000EE0
15:48:54.864 [OCR2] 00000EE1
15:48:55.674 [CTD ]  11.1943,  3.39421,    0.297, 2.7486, 2.5111
15:48:55.482 [OCR3] 00000EE2
15:48:55.770 [APLA] $PASHR,154855.765,191.10,T,-2.31,6.63,-0.02,0.018,0.018,0.021,2,1*15
15:48:55.776 [APLA] $GPGGA,154855.765,4946.89024,N,06421.46535,W,4,07,1.2,0.95,M,,,1,0004*11
15:48:55.782 [APLA] $GPVTG,194.6,T,,M,3.5,N,6.5,K,D*07
15:48:55.893 [OWL ] SEAOWLA2K-0144	4003	69	244	244	1369	267	2177	2177	2643	2643	116	691	691
15:48:55.923 [CTD ]  11.1956,  3.39453,    0.305, 2.7507, 2.5111
15:48:55.732 [OCR3] 00000EE3
15:48:56.002 [APLA] $utc,20220706,154856.0028
15:48:56.009 [DBG ] $STAT,RECORDING
15:48:56.004 [APLA] $GPZDA,154856.0006,07,2022,,*64
15:48:54.915 [OCR1] 00000EE4
15:48:56.166 [ECO ] 99/99/99	99:99:99	700	51	595	50	680	48	550
15:48:56.176 [CTD ]  11.1981,  3.39475,    0.231, 2.7507, 2.5115
15:48:55.992 [OCR3] 00000EE5
15:48:55.667 [OCR2] 00000EE6
15:48:56.426 [CTD ]  11.2009,  3.39519,    0.178, 2.7497, 2.5093
15:48:56.243 [OCR3] 00000EE7
15:48:56.678 [CTD ]  11.2050,  3.39571,    0.176, 2.7506, 2.5112
15:48:56.705 [OWL ] SEAOWLA2K-0144	3994	69	241	241	1373	272	2235	2235	2644	2644	116	693	693
15:48:56.770 [APLA] $PASHR,154856.765,192.34,T,-1.75,3.93,0.01,0.018,0.018,0.021,2,1*34
15:48:56.776 [APLA] $GPGGA,154856.765,4946.88930,N,06421.46579,W,4,07,1.2,0.98,M,,,1,0004*1A
15:48:56.782 [APLA] $GPVTG,196.7,T,,M,3.5,N,6.5,K,D*04
15:48:56.593 [OCR3] 00000EE8
15:48:56.930 [CTD ]  11.2104,  3.39630,    0.212, 2.7497, 2.5117
15:48:57.002 [APLA] $utc,20220706,154857.0028
15:48:57.009 [DBG ] $STAT,RECORDING
15:48:57.005 [APLA] $GPZDA,154857.0028,06,07,2022,,*65
15:48:56.370 [OCR2] 00000EE9
15:48:56.954 [OCR3] 00000EEA
15:48:57.180 [CTD ]  11.2171,  3.39701,    0.266, 2.7505, 2.5107
15:48:57.289 [ECO ] 99/99/99	99:99:99	700	51	595	50	680	47	550
15:48:56.131 [OCR1] 00000EEB
15:48:57.204 [OCR3] 00000EEC
15:48:57.432 [CTD ]  11.2241,  3.39741,    0.308, 2.7502, 2.5109
15:48:57.517 [OWL ] SEAOWLA2K-0144	4003	69	241	241	1369	271	2217	2217	2644	2644	116	690	690
15:48:57.453 [OCR3] 00000EED
15:48:57.682 [CTD ]  11.2301,  3.39709,    0.302, 2.7499, 2.5103
15:48:57.770 [APLA] $PASHR,154857.765,191.92,T,-2.34,4.68,0.03,09,0.019,0.021,2,1*3D
15:48:57.776 [APLA] $GPGG54857.765,4946.88838,N,06421.46620,W,4,07,1.2,1.00,M,,,0,0004*1C
15:48:57.782 [APLA] $GPVTG,198.0,T,,M,3.4,N,6.3,K,D*0A
15:48:57.073 [OCR2] 00000EEE
15:48:57.713 [OCR3] 00000EEF
15:48:57.935 [CTD ]  11.2336,  3.39736,    0.272, 2.7509, 2.5104
15:48:58.002 [APLA] $utc,20220706,154858.0028
15:48:58.008 [DBG ] $STAT,RECORDING
15:48:58.004 [APLA] $GPZDA,154858.0028,06,07,2022,,*6A
15:48:58.185 [CTD ]  11.2346,  3.39679,    0.211, 2.7494, 2.5109
15:48:57.963 [OCR3] 00000EF0
15:48:58.329 [OWL ] SEAOWLA2K-0144	3993	69	237	237	1372	272	2227	2227	2644	2644	115	685	685
15:48:58.413 [ECO ] 99/99/99	99:99:99	700	51	595	50	680	44	550
15:48:57.797 [OCR2] 00000EF1
15:48:58.436 [CTD ]  11.2325,  3.39650,    0.149, 2.7505, 2.5113
15:48:57.348 [OCR1] 00000EF2
15:48:58.312 [OCR3] 00000EF3
15:48:58.686 [CTD ]  11.2292,  3.39630,    0.162, 2.7515, 2.5115
15:48:58.770 [APLA] $PASHR,154858.765,188.26,T,-3.59,3.69,-0.01,0.020,0.020,0.021,2,1*16
15:48:58.776 [APLA] $GPGGA,154858.765,4946.88747,N,06421.46668,W,4,07,1.2,0.98,M,,,1,0004*19
15:48:58.782 [APLA] $GPVTG,197.0,T,,M,3.5,N,6.4,K,D*03
15:48:58.672 [OCR3] 00000EF4
15:48:58.939 [CTD ]  11.2261,  3.39622,    0.228, 2.7498, 2.5108
15:48:59.002 [APLA] $utc,20220706,154859.0028
15:48:59.009 [DBG ] $STAT,RECORDING
15:48:59.004 [APLA] $GPZDA,154859.0028,06,07,2022,,*6B
15:48:58.923 [OCR3] 00000EF5
15:48:59.141 [OWL ] SEAOWLA2K-0144	4003	68	239	239	1370	268	2190	2190	2643	2643	115	688	688
15:48:59.191 [CTD ]  11.2240,  3.39637,    0.301, 2.7513, 2.5115
15:48:58.479 [OCR2] 00000EF6
15:48:59.172 [OCR3] 00000EF7
15:48:59.441 [CTD ]  11.2237,  3.39672,    0.314, 2.7506, 2.5106
15:48:59.537 [ECO ] 99/99/99	99:99:99	700	51	595	50	680	46	550
15:48:59.433 [OCR3] 00000EF8
15:48:59.692 [CTD ]  11.2257,  3.39689,    0.268, 2.7505, 2.5097
15:48:59.770 [APLA] $PASHR,154859.765,186.42,T,-0.31,4.87,-0.07,0.020,0.020,0.021,2,1*17
15:48:59.776 [APLA] $GPGGA,154859.765,4946.88651,N,06421.46701,W,4,07,1.2,0.89,M,,,0,0004*11
15:48:59.782 [APLA] $GPVTG,189.7,T,,M,3.6,N,6.6,K,D*0A
15:48:58.565 [OCR1] 00000EF9
15:48:59.942 [CTD ]  11.2275,  3.39689,    0.224, 2.7501, 2.5103
15:49:00.002 [APLA] $utc,20220706,154900.0028
15:49:00.016 [DBG ] $STAT,RECORDING
15:49:00.004 [APLA] $GPZDA,154900.0028,06,07,2022,,*66
15:48:59.953 [OWL ] SEAOWLA2K-0144	3994	68	237	237	1372	271	2219	2219	2643	2643	116	693	693
15:48:59.683 [OCR3] 00000EFA
15:48:59.283 [OCR2] 00000EFB
15:49:00.195 [CTD ]  11.2288,  3.39689,    0.219, 2.7510, 2.5104
15:49:00.032 [OCR3] 00000EFC
15:49:00.447 [CTD ]  11.2297,  3.39684,    0.239, 2.7499, 2.5110
15:49:00.392 [OCR3] 00000EFD
15:49:00.661 [ECO ] 99/99/99	99:99:99	700	51	595	50	680	45	550
15:49:00.697 [CTD ]  11.2295,  3.39662,    0.260, 2.7517, 2.5115
15:49:00.770 [APLA] $PASHR,154900.765,188.50,T,-0.26,5.27,0.01,0.020,0.020,0.021,2,1*31
15:49:00.776 [APLA] $GPGGA,154900.765,4946.88551,N,06421.46725,W,4,07,1.2,0.96,M,,,1,0004*16
15:49:00.782 [APLA] $GPVTG,191.1,T,,M,3.6,N,6.7,K,D*04
15:49:00.086 [OCR2] 00000EFE
15:49:00.765 [OWL ] SEAOWLA2K-0144	4003	69	244	244	1370	269	2203	2203	2643	2643	115	688	688
15:49:00.642 [OCR3] 00000EFF
15:49:00.948 [CTD ]  11.2288,  3.39669,    0.273, 2.7504, 2.5116
15:49:01.002 [APLA] $utc,20220706,154901.0028
15:49:01.008 [DBG ] $STAT,RECORDING
15:49:01.004 [APLA] $GPZDA,154901.0028,06,07,2022,,*67
15:49:00.891 [OCR3] 00000F00
15:48:59.881 [OCR1] 00000F01
15:49:01.198 [CTD ]  11.2281,  3.39650,    0.218, 2.7505, 2.5108
15:49:01.153 [OCR3] 00000F02
15:49:00.797 [OCR2] 00000F03
15:49:01.451 [CTD ]  11.2261,  3.39610,    0.137, 2.7504, 2.5106
15:49:01.577 [OWL ] SEAOWLA2K-0144	3994	69	242	242	1372	265	2165	2165	2644	2644	116	693	693
15:49:01.703 [CTD ]  11.2233,  3.39615,    0.136, 2.7506, 2.5100
15:49:01.402 [OCR3] 00000F04
15:49:01.770 [APLA] $PASHR,154901.765,194.45,T,-5.76,5.48,0.03,0.020,0.020,0.021,2,1*32
15:49:01.776 [APLA] $GPGGA,154901.765,4946.88457,N,06421.4676,4,07,1.2,1.00,M,,,1,0004*19
15:49:01.782 [APLA] $GPVTG,197.1,T,,M,3.4,N,6.3,K,D*04
