####################
# TYPE: TEXT
# DATE: 2022/07/02
# TIME: 15:41:24
####################
#
16:31:00.009 [DBG ] $STAT,RECORDING
16:31:00.004 [APLA] $UTC,20220702,163100.0047
16:31:00.007 [APLA] $GPZDA,163100.0047,02,07,2022,,*67
16:31:00.028 [CTD ]  15.2336,  3.43891,    0.172, 2.6926, 2.5349
16:31:00.220 [ECO ] 99/99/99	99:99:99	700	52	595	50	680	46	543
16:31:00.278 [CTD ]  15.2341,  3.43856,    0.166, 2.6919, 2.5353
16:31:00.056 [OCR3] 0000526C
16:31:00.414 [OWL ] SEAOWLA2K-0144	3834	111	665	665	1230	419	3687	3687	2593	2593	158	1106	1106
16:31:00.528 [CTD ]  15.2331,  3.43864,    0.169, 2.6943, 2.5354
16:31:00.365 [OCR3] 0000526E
16:31:00.778 [CTD ]  15.2306,  3.43844,    0.158, 2.6923, 2.5361
16:31:00.877 [APLA] $PASHR,163100.872,13.67,T,-0.75,6.51,0.11,0.021,0.021,0.021,2,1*06
16:31:00.883 [APLA] $GPGGA,163100.872,4946.85036,N,06421.86492,W,4,08,1.3,1.23,M,,,0,0004*19
16:31:00.890 [APLA] $GPVTG,5.2,T,,M,4.0,N,7.3,K,D*0F
16:31:01.001 [DBG ] $STAT,RECORDING
16:31:01.004 [APLA] $UTC,20220702,163101.0047
16:31:01.007 [APLA] $GPZDA,163101.0047,02,07,2022,,*66
16:31:01.028 [CTD ]  15.2273,  3.43836,    0.154, 2.6930, 2.5366
16:31:00.785 [OCR3] 0000526F
16:31:01.229 [OWL ] SEAOWLA2K-0144	3834	110	655	655	1230	420	3692	3692	2594	2594	156	1090	1090
16:31:01.278 [CTD ]  15.2244,  3.43829,    0.165, 2.6932, 2.5361
16:31:01.344 [ECO ] 99/99/99	99:99:99	700	52	595	50	680	49	543
16:31:00.163 [OCR2] 00005270
16:31:01.192 [OCR3] 00005271
16:31:01.528 [CTD ]  15.2222,  3.43844,    0.178, 2.6940, 2.5356
16:31:01.512 [OCR3] 00005272
16:31:01.778 [CTD ]  15.2212,  3.43779,    0.187, 2.6933, 2.5354
16:31:01.877 [APLA] $PASHR,163101.872,11.77,T,-0.72,9.89,-0.07,0.1,0.021,0.021,2,1*23
16:31:01.883 [APLA] $GPGGA,163101.872,4946.85128,N,06421.86477,W,4,08,1.3,1.05,M,,,1,0004*18
16:31:01.890 [APLA] $GPVTG,5.7,T,,M,2.8,N,5.1,K,D*04
16:31:00.588 [OCR1] 00005273
16:31:02.001 [DBG ] $STAT,RECORDING
16:31:02.004 [APLA] $UTC,20220702,163102.0047
16:31:02.007 [APLA] $GPZDA,163102.0047,02,07,2022,,*65
16:31:02.028 [CTD ]  15.2219,  3.43546,    0.183, 2.6943, 2.5349
16:31:02.044 [OWL ] SEAOWLA2K-0144	3834	112	681	681	1230	422	3719	3719	2591	2591	156	1089	1089
16:31:01.819 [OCR3] 00005274
16:31:02.278 [CTD ]  15.2246,  3.43911,    0.179, 2.6940, 2.5337
16:31:02.139 [OCR3] 00005275
16:31:02.468 [ECO ] 99/99/99	99:99:99	700	52	595	50	680	50	543
16:31:02.528 [CTD ]  15.2288,  3.43924,    0.181, 2.6948, 2.5334
16:31:01.380 [OCR2] 00005276
16:31:02.778 [CTD ]  15.2326,  3.43929,    0.187, 2.6948, 2.5341
16:31:02.446 [OCR3] 00005277
16:31:02.877 [APLA] $PASHR,163102.872,12.T,-2.40,5.00,-0.14,0.021,0.021,0.021,2,1*22
16:31:02.883 [APLA] $GPGGA,163102.872,4946.85199,N,06421.86463,W,4,08,1.3,0.95,M,,,0,0004*1D
16:31:02.890 [APLA] $GPVTG,12.7,T,,M,2.7,N,5.0,K,D*3C
16:31:02.859 [OWL ] SEAOWLA2K-0144	3833	110	658	658	1230	423	3727	3727	2596	2596	159	1108	1108
16:31:03.001 [DBG ] $STAT,RECORDING
16:31:03.004 [APLA] $UTC,20220702,163103.0047
16:31:03.007 [APLA] $GPZDA,163103.0047,02,07,2022,,*64
16:31:03.028 [CTD ]  15.2354,  3.43931,    0.183, 2.6946, 2.5353
16:31:01.906 [OCR1] 00005278
16:31:02.866 [OCR3] 00005279
16:31:03.278 [CTD ]  15.2376,  3.43926,    0.190, 2.6964, 2.5370
16:31:03.528 [CTD ]  15.2394,  3.43926,    0.202, 2.6966, 2.5364
16:31:03.276 [OCR3] 0000527A
16:31:03.592 [ECO ] 99/99/99	99:99:99	700	52	595	50	680	46	543
16:31:03.675 [OWL ] SEAOWLA2K-0144	3834	111	675	675	1230	424	3731	3731	2593	2593	157	1094	1094
16:31:02.596 [OCR2] 0000527B
16:31:03.778 [CTD ]  15.2406,  3.43919,    0.195, 2.6975, 2.5361
16:31:03.877 [APLA] $PASHR,163103.872,18.29,T,-5.64,4.51,-0.07,0.021,0.021,0.021,2,1*29
16:31:03.883 [APLA] $GPGGA,163103.872,4946.85280,N,06421.86427,4,08,1.3,0.98,M,,,1,0004*1B
16:31:03.890 [APLA] $GPVTG,12.1,T,,M,3.3,N,6.1,K,D*3D
16:31:03.593 [OCR3] 0000527C
16:31:04.001 [DBG ] $STAT,RECORDING
16:31:04.004 [APLA] $UTC,20220702,163104.0047
16:31:04.007 [APLA] $GPZDA,163104.0047,02,07,2022,,*63
16:31:04.028 [CTD ]  15.2411,  3.43916,    0.178, 2.6959, 2.5362
16:31:03.904 [OCR3] 0000527D
16:31:04.278 [CTD ]  15.2401,  3.43899,    0.170, 2.6971, 2.5356
16:31:03.221 [OCR1] 0000527E
16:31:04.221 [OCR3] 0000527F
16:31:04.490 [OWL ] SEAOWLA2K-0144	3834	112	676	676	1230	423	3728	3728	2596	2596	157	1095	1095
16:31:04.528 [CTD ]  15.2378,  3.43889,    0.179, 2.6967, 2.5346
16:31:04.715 [ECO ] 99/99/99	99:99:99	700	52	595	50	680	48	543
16:31:04.778 [CTD ]  15.2355,  3.43879,    0.194, 2.6969, 2.5337
16:31:04.877 [APLA] $PASHR,163104.872,22.16,T,-3.54,5.63,0.03,0.021,0.021,0.021,2,1*07
16:31:04.883 [APLA] $GPGGA,163104.872,4946.85375,N,06421.86400,W,4,08,1.3,1.08,M,,,0,0004*1B
16:31:04.889 [APLA] $GPVTG,13.6,T,,M,3.4,N,6.3,K,D*3E
16:31:04.530 [OCR3] 00005280
16:31:05.001 [DBG ] $STAT,RECORDING
16:31:05.004 [APLA] $UTC,20220702,163105.0047
16:31:05.007 [APLA] $GPZDA,163105.0047,02,07,2022,,*62
16:31:03.813 [OCR2] 00005281
16:31:05.028 [CTD ]  15.2343,  3.43871,    0.197, 2.6973, 2.5358
16:31:05.278 [CTD ]  15.2335,  3.43876,    0.192, 2.6969, 2.5362
16:31:04.950 [OCR3] 00005282
16:31:05.305 [OWL ] SEAOWLA2K-0144	3834	111	670	670	1230	446	3948	3948	2594	2594	156	1081	1081
16:31:05.528 [CTD ]  15.2324,  3.43876,    0.186, 2.6976, 2.5345
16:31:04.440 [OCR1] 00005283
16:31:05.357 [OCR3] 00005284
16:31:05.778 [CTD ]  15.2311,  3.43881,    0.182, 2.6985, 2.5336
16:31:05.030 [OCR2] 00005285
16:31:05.839 [ECO ] 99/99/99	99:99:99	700	52	595	50	680	47	543
16:31:05.877 [APLA] $PASHR,163105.872,19.87,T,-1.67,5.66,0.00,0.020,0.020,0.021,2,1*02
16:31:05.883 [APLA] $GPGGA,163105.872,4946.85457,N,06421.86357,W,4,08,1.3,1.05,M,,,1,0004*14
16:31:05.889 [APLA] $GPVTG,21.4,T,,M,2.9,N,5.5,K,D*34
16:31:05.677 [OCR3] 00005286
16:31:06.001 [DBG ] $STAT,RECORDING
16:31:06.004 [APLA] $UTC,20220702,163106.0047
16:31:06.006 [APLA] $GPZDA,163106.0047,02,07,2022,,*61
16:31:06.027 [CTD ]  15.2313,  3.43901,    0.174, 2.6983, 2.5342
16:31:06.119 [OWL ] SEAOWLA2K-0144	3834	112	675	675	1229	431	3807	3807	2593	2593	157	1095	1095
16:31:05.984 [OCR3] 00005287
16:31:06.277 [CTD ]  15.2337,  3.43921,    0.178, 2.6990, 2.5351
16:31:06.527 [CTD ]  15.2370,  3.43946,    0.183, 2.6995, 2.5354
16:31:06.303 [OCR3] 00005288
16:31:06.780 [CTD ]  15.2401,  3.43949,    0.189, 2.6989, 2.5344
16:31:05.655 [OCR1] 00005289
16:31:06.876 [APLA] $PASHR,163106.872,15.17,T,-4.26,4.24,0.05,0.020,0.020,0.021,2,1*06
16:31:06.882 [APLA] $GPGGA,163106.872,4945537,N,06421.86309,W,4,08,1.3,1.10,M,,,0,0004*1E
16:31:06.888 [APLA] $GPVTG,17.5,T,,M,3.4,N,6.2,K,D*38
16:31:06.962 [ECO ] 99/99/99	99:99:99	700	52	595	50	680	45	543
16:31:07.000 [DBG ] $STAT,RECORDING
16:31:06.935 [OWL ] SEAOWLA2K-0144	3834	112	685	685	1231	446	3958	3958	2595	2595	159	1109	1109
16:31:07.004 [APLA] $UTC,20220702,163107.0047
16:31:07.006 [APLA] $GPZDA,163107.0047,02,07,2022,,*60
16:31:06.611 [OCR3] 0000528A
16:31:07.027 [CTD ]  15.2429,  3.43954,    0.194, 2.6997, 2.5353
16:31:05.834 [OCR2] 0000528B
16:31:07.277 [CTD ]  15.2452,  3.43946,    0.190, 2.7002, 2.5357
16:31:07.029 [OCR3] 0000528C
16:31:07.526 [CTD ]  15.2480,  3.43964,    0.163, 2.6996, 2.5354
16:31:07.439 [OCR3] 0000528D
16:31:07.750 [OWL ] SEAOWLA2K-0144	3834	113	683	683	1229	428	3776	3776	2596	2596	157	1091	1091
16:31:07.776 [CTD ]  15.2502,  3.43944,    0.144, 2.7023, 2.5356
16:31:07.876 [APLA] $PASHR,163107.872,12.74,T,-2.01,5.89,0.12,0.020,0.020,0.021,2,1*06
16:31:07.882 [APLA] $GPGGA,163107.872,4946.85637,N,06421.86281,W,4,08,1.3,1.21,M,,,1,0004*1E
16:31:07.888 [APLA] $GPVTG,8.4,T,,M,3.8,N,7.0,K,D*08
16:31:08.000 [DBG ] $STAT,RECORDING
16:31:08.004 [APLA] $UTC,20220702,163108.0047
16:31:08.006 [APLA] $GPZDA,163108.0047,02,07,2022,,*6F
16:31:07.756 [OCR3] 0000528E
16:31:08.026 [CTD ]  15.2504,  3.43921,    0.149, 2.7002, 2.5357
16:31:06.870 [OCR1] 0000528F
16:31:08.086 [ECO ] 99/99/99	99:99:99	700	52	595	50	680	49	543
16:31:08.276 [CTD ]  15.2485,  3.43909,    0.166, 2.7015, 2.5362
16:31:07.150 [OCR2] 00005290
16:31:08.066 [OCR3] 00005291
16:31:08.526 [CTD ]  15.2461,  3.43916,    0.189, 2.7017, 2.5355
16:31:08.565 [OWL ] SEAOWLA2K-0144	3833	111	673	673	1229	427	3771	3771	2592	2592	157	1097	1097
16:31:08.383 [OCR3] 00005292
16:31:08.776 [CTD ]  15.2446,  3.43956,    0.200, 2.7027, 2.5343
16:31:08.876 [APLA] $PASHR,163108.872,12.17,T,-3.02,6.47,0.00,0.020,0.020,0.021,2,1*0C
16:31:08.882 [APLA] $GPGGA,163108.872,4946.85735,N,06421.86261,W,4,09,0.9,1.10,M,,,0,0004*15
16:31:08.889 [APLA] $GPVTG,3.1,T,,M,3.4,N,6.2,K,D*09
16:31:09.000 [DBG ] $STAT,RECORDING
16:31:09.004 [APLA] $UTC,20220702,163109.0047
16:31:09.006 [APLA] $GPZDA,163109.0047,02,07,2022,,*6E
16:31:09.026 [CTD ]  15.2454,  3.43896,    0.194, 2.7004, 2.5339
16:31:08.692 [OCR3] 00005293
16:31:09.210 [ECO ] 99/99/99	99:99:99	700	52	595	50	680	47	543
16:31:09.276 [CTD ]  15.2473,  3.43956,    0.180, 2.7016, 2.5332
16:31:08.088 [OCR1] 00005294
16:31:09.380 [OWL ] SEAOWLA2K-0144	3833	114	703	703	1230	415	3643	3643	2594	2594	158	1101	1101
16:31:09.111 [OCR3] 00005295
16:31:09.526 [CTD ]  15.2490,  3.43954,    0.165, 2.7001, 2.5340
16:31:08.366 [OCR2] 00005296
16:31:09.776 [CTD ]  15.2498,  3.43976,    0.164, 2.7009, 2.5349
16:31:09.518 [OCR3] 00005297
16:31:09.876 [APLA] $PASHR,163109.872,10.48,T,0.19,8.12,-0.06,0.020,0.020,0.021,2,1*04
16:31:09.882 [APLA] $GPGGA,163109.872,4946.85823,N,06421.86260,W,4,09,0.9,1.05,M,,,1,0004*18
16:31:09.889 [APLA] $GPVTG,5.8,T,,M,2.9,N,5.3,K,D*08
16:31:10.000 [DBG ] $STAT,RECORDING
16:31:10.004 [APLA] $UTC,20220702,163110.0047
16:31:10.006 [APLA] $GPZDA,163110.0047,02,07,2022,,*66
16:31:10.026 [CTD ]  15.2504,  3.43964,    0.172, 2.6997, 2.5363
16:31:09.838 [OCR3] 00005298
16:31:10.195 [OWL ] SEAOWLA2K-0144	3834	111	672	672	1230	444	3936	3936	2595	2595	156	1090	1090
16:31:10.276 [CTD ]  15.2504,  3.43981,    0.188, 2.7016, 2.5362
16:31:10.333 [ECO ] 99/99/99	99:99:99	700	52	595	50	680	48	543
16:31:10.145 [OCR3] 00005299
16:31:10.526 [CTD ]  15.2513,  3.43989,    0.202, 2.7004, 2.5357
16:31:09.403 [OCR1] 0000529A
16:31:10.465 [OCR3] 0000529B
16:31:09.582 [OCR2] 0000529C
16:31:10.775 [CTD ]  15.2530,  3.43991,    0.188, 2.7005, 2.5349
16:31:10.876 [APLA] $PASHR,163110.872,16.07,T,-3.34,4.21,-0.12,0.019,0.019,0.021,2,1*29
16:31:10.882 [APLA] $GPGGA,163110.872,4946.85898,N,06421.86237,W,4,09,0.9,0.95,M,,,0,0004*1B
16:31:10.889 [APLA] $GPVTG,14.1,T,,M,3.0,N,5.6,K,D*3C
16:31:11.000 [DBG ] $STAT,RECORDING
16:31:11.004 [APLA] $UTC,20220702,163111.0047
16:31:11.006 [APLA] $GPZDA,163111.0047,02,07,2022,,*67
16:31:11.025 [CTD ]  15.2551,  3.43989,    0.167, 2.7014, 2.5345
16:31:11.011 [OWL ] SEAOWLA2K-0144	3833	114	701	701	1230	436	3857	3857	2594	2594	158	1107	1107
16:31:10.772 [OCR3] 0000529D
16:31:11.275 [CTD ]  15.2571,  3.43994,    0.168, 2.7004, 2.5351
16:31:11.457 [ECO ] 99/99/99	99:99:99	700	52	595	50	680	48	543
16:31:11.525 [CTD ]  15.2594,  3.43984,    0.201, 2.7000, 2.5359
16:31:11.191 [OCR3] 0000529E
16:31:11.775 [CTD ]  15.2609,  3.43991,    0.224, 2.7011, 2.5360
16:31:11.876 [APLA] $PASHR,163111.872,20.42,T,-7.47,5.85,-0.00,0.019,0.019,0.021,2,1*20
16:31:11.882 [APLA] $GPGGA,163111.872,4946.85983,N,06421.86204,W,4,09,0.9,1.04,M,,,1,0004*19
16:31:11.826 [OWL ] SEAOWLA2K-0144	3833	113	683	683	1230	428	3771	3771	2594	2594	158	1103	1103
16:31:11.889 [APLA] $GPVTG,8.4,T,,M,3.2,N,5.9,K,D*09
16:31:11.600 [OCR3] 0000529F
16:31:10.722 [OCR1] 000052A0
16:31:12.000 [DBG ] $STAT,RECORDING
16:31:12.004 [APLA] $UTC,20220702,163112.0048
16:31:12.006 [APLA] $GPZDA,163112.0048,02,07,2022,,*6B
16:31:10.799 [OCR2] 000052A1
16:31:12.025 [CTD ]  15.2618,  3.43999,    0.217, 2.7009, 2.5356
16:31:11.918 [OCR3] 000052A2
16:31:12.275 [CTD ]  15.2619,  3.43981,    0.179, 2.7010, 2.5349
16:31:12.227 [OCR3] 000052A3
16:31:12.525 [CTD ]  15.2611,  3.43991,    0.145, 2.7004, 2.5352
16:31:12.581 [ECO ] 99/99/99	99:99:99	700	52	595	50	680	46	543
16:31:12.641 [OWL ] SEAOWLA2K-0144	3834	114	695	695	1230	427	3760	3760	2589	2589	158	1108	1108
16:31:12.775 [CTD ]  15.2602,  3.43999,    0.151, 2.7007, 2.5354
16:31:12.544 [OCR3] 000052A4
16:31:12.876 [APLA] $PASHR,163112.872,18.22,T,1.21,5.99,-0.05,0.019,0.019.021,2,1*0D
16:31:12.882 [APLA] $GPGGA,163112.872,4946.86064,N,06421.86178,W,4,09,0.9,1.00,M,,,1,0004*15
16:31:12.889 [APLA] $GPVTG,24.5,T,,M,2.8,N,5.2,K,D*36
16:31:13.000 [DBG ] $STAT,RECORDING
16:31:13.004 [APLA] $UTC,20220702,163113.0048
16:31:13.006 [APLA] $GPZDA,163113.0048,02,07,2022,,*6A
16:31:13.025 [CTD ]  15.2595,  3.43994,    0.165, 2.7020, 2.5344
16:31:11.937 [OCR1] 000052A5
16:31:12.854 [OCR3] 000052A6
16:31:13.275 [CTD ]  15.2591,  3.43994,    0.209, 2.7026, 2.5343
16:31:12.016 [OCR2] 000052A7
16:31:13.456 [OWL ] SEAOWLA2K-0144	3833	113	693	693	1229	439	3880	3880	2590	2590	157	1099	1099
16:31:13.525 [CTD ]  15.2579,  3.43989,    0.241, 2.7022, 2.5333
16:31:13.273 [OCR3] 000052A8
16:31:13.705 [ECO ] 99/99/99	99:99:99	700	52	595	50	680	47	543
16:31:13.775 [CTD ]  15.2571,  3.43996,    0.216, 2.7039, 2.5346
16:31:13.876 [APLA] $PASHR,163113.872,15.94,T,-8.34,3.59,0.18,0.019,0.019,0.021,2,1*07
16:31:13.883 [APLA] $GPGGA,163113.872,4946.86143,N,06421.86139,W,4,09,0.9,1.23,M,,,1,0004*14
16:31:13.889 [APLA] $GPVTG,3.4,T,,M,3.6,N,6.7,K,D*0B
16:31:14.000 [DBG ] $STAT,RECORDING
16:31:13.680 [OCR3] 000052A9
16:31:14.004 [APLA] $UTC,20220702,163114.0048
16:31:14.006 [APLA] $GPZDA,163114.0048,02,07,2022,,*6D
16:31:14.025 [CTD ]  15.2575,  3.43989,    0.171, 2.7031, 2.5346
16:31:14.003 [OCR3] 000052AA
16:31:14.275 [CTD ]  15.2582,  3.44014,    0.162, 2.7031, 2.5351
16:31:14.271 [OWL ] SEAOWLA2K-0144	3833	112	677	677	1229	425	3746	3746	2592	2592	157	1097	1097
16:31:13.153 [OCR1] 000052AB
16:31:14.525 [CTD ]  15.2591,  3.43986,    0.168, 2.7034, 2.5362
16:31:14.307 [OCR3] 000052AC
16:31:13.332 [OCR2] 000052AD
16:31:14.775 [CTD ]  15.2598,  3.44019,    0.171, 2.7029, 2.5361
16:31:14.829 [ECO ] 99/99/99	99:99:99	700	52	595	50	680	44	543
16:31:14.876 [APLA] $PASHR,163114.872,11.27,T,-0.75,8.14,0.09,0.019,0.019,0.021,1,1*00
16:31:14.882 [APLA] $GPGGA,163114.872,4946.86247,N,06421.86128,W,4,09,0.9,1.21,M,,,0,0004*17
16:31:14.889 [APLA] $GPVTG,5.9,T,,M,3.5,N,6.5,K,D*01
16:31:14.627 [OCR3] 000052AE
16:31:15.008 [DBG ] $STAT,RECORDING
16:31:15.004 [APLA] $UTC,20220702,163115.0048
16:31:15.006 [APLA] $GPZDA,163115.0048,02,07022,,*6C
16:31:15.025 [CTD ]  15.2598,  3.44004,    0.193, 2.7030, 2.5360
16:31:15.087 [OWL ] SEAOWLA2K-0144	3833	110	661	661	1229	437	3860	3860	2590	2590	157	1092	1092
16:31:15.278 [CTD ]  15.2603,  3.44049,    0.210, 2.7041, 2.5352
16:31:14.934 [OCR3] 000052AF
16:31:15.525 [CTD ]  15.2625,  3.44064,    0.201, 2.7034, 2.5348
16:31:14.371 [OCR1] 000052B0
16:31:15.353 [OCR3] 000052B1
16:31:15.775 [CTD ]  15.2655,  3.44059,    0.181, 2.7042, 2.5346
16:31:14.648 [OCR2] 000052B2
16:31:15.876 [APLA] $PASHR,163115.872,7.51,T,0.17.23,-0.15,0.019,0.019,0.021,2,1*31
16:31:15.882 [APLA] $GPGGA,163115.872,4946.86331,N,06421.86113,W,4,09,0.9,0.96,M,,,1,0004*12
16:31:15.889 [APLA] $GPVTG,7.4,T,,M,2.7,N,5.0,K,D*0B
16:31:15.902 [OWL ] SEAOWLA2K-0144	3833	113	694	694	1229	422	3715	3715	2592	2592	158	1104	1104
16:31:15.952 [ECO ] 99/99/99	99:99:99	700	52	595	50	680	48	543
16:31:16.000 [DBG ] $STAT,RECORDING
16:31:16.004 [APLA] $UTC,20220702,163116.0048
16:31:16.006 [APLA] $GPZDA,163116.0048,02,07,2022,,*6F
16:31:16.025 [CTD ]  15.2666,  3.44019,    0.175, 2.7054, 2.5349
16:31:15.763 [OCR3] 000052B3
16:31:16.275 [CTD ]  15.2664,  3.44046,    0.177, 2.7034, 2.5358
16:31:16.080 [OCR3] 000052B4
16:31:16.525 [CTD ]  15.2659,  3.44056,    0.175, 2.7029, 2.5357
16:31:16.390 [OCR3] 000052B5
16:31:16.717 [OWL ] SEAOWLA2K-0144	3833	112	685	685	1229	442	3913	3913	2593	2593	158	1108	1108
16:31:16.775 [CTD ]  15.2665,  3.44064,    0.176, 2.7036, 2.5360
16:31:16.876 [APLA] $PASHR,163116.872,7.00,T,-2.47,5.44,-0.20,0.019,0.019,0.021,2,1*1E
16:31:16.882 [APLA] $GPGGA,163116.872,4946.86399,N,06421.86094,W,4,09,0.9,0.86,M,,,0,0004*1D
16:31:16.889 [APLA] $GPVTG,12.8,T,,M,2.6,N,4.8,K,D*3B
16:31:15.585 [OCR1] 000052B6
16:31:17.000 [DBG ] $STAT,RECORDING
16:31:17.004 [APLA] $UTC,20220702,163117.0048
16:31:17.006 [APLA] $GPZDA,163117.0048,02,07,2022,,*6E
16:31:16.707 [OCR3] 000052B7
16:31:17.025 [CTD ]  15.2667,  3.44059,    0.183, 2.7031, 2.5362
16:31:15.865 [OCR2] 000052B8
16:31:17.076 [ECO ] 99/99/99	99:99:99	700	52	595	50	680	45	543
16:31:17.275 [CTD ]  15.2666,  3.44054,    0.203, 2.7031, 2.5345
16:31:17.016 [OCR3] 000052B9
16:31:17.525 [CTD ]  15.2659,  3.44049,    0.207, 2.7027, 2.5343
16:31:17.532 [OWL ] SEAOWLA2K-0144	3833	112	670	670	1229	423	3724	3724	2595	2595	157	1097	1097
16:31:17.775 [CTD ]  15.2655,  3.44056,    0.186, 2.7023, 2.5358
16:31:17.436 [OCR3] 000052BA
16:31:17.876 [APLA] $PASHR,163117.872,13.97,T,-8.38,2.22,0.10,0.019,0.019,0.021,2,1*0F
16:31:17.882 [APLA] $GPGGA,163117.872,4946.86486,N,06421.86083,W,4,09,0.9,1.13,M,,,1,0004*1F
16:31:17.889 [APLA] $GPVTG,357.5,T,,M,3.9,N,7.2,K,D*03
16:31:18.000 [DBG ] $STAT,RECORDING
16:31:18.004 [APLA] $UTC,20220702,163118.0048
16:31:18.006 [APLA] $GPZDA,163118.0048,02,07,2022,,*61
16:31:18.025 [CTD ]  15.2664,  3.44049,    0.165, 2.7026, 2.5363
16:31:17.843 [OCR3] 000052BB
16:31:16.904 [OCR1] 000052BC
16:31:18.200 [ECO ] 99/99/99	99:99:99	700	52	595	50	680	46	543
16:31:17.082 [OCR2] 000052BD
16:31:18.275 [CTD ]  15.2667,  3.44044,    0.147, 2.7029, 2.5358
16:31:18.347 [OWL ] SEAOWLA2K-0144	3833	113	684	684	1229	430	3793	3793	2594	2594	157	1099	1099
16:31:18.163 [OCR3] 000052BE
16:31:18.525 [CTD ]  15.2681,  3.44069,    0.137, 2.7022, 2.5350
16:31:18.469 [OCR3] 000052BF
16:31:18.775 [CTD ]  15.2714,  3.44071,    0.151, 2.7019, 2.5351
16:31:18.876 [APLA] $PASHR,163118.872,18.41,T,-1.07,8.81,0.18,0.020,0.020,0.021,2,1*0E
16:31:18.882 [APLA] $GPGGA,163118.872,4946.86596,N,06421.86091,W,4,09,0.9,1.27,M,,,0,0004*15
16:31:18.889 [APLA] $GPVTG,0.0,T,,M,3.6,N,6.7,K,D*0C
16:31:19.000 [DBG ] $STAT,RECORDING
16:31:19.004 [APLA] $UTC,20220702,163119.0048
16:31:19.006 [APLA] $GPZDA,163119.0048,02,07,2022,,*60
16:31:19.025 [CTD ]  15.2739,  3.44081,    0.162, 2.7018, 2.5351
16:31:18.789 [OCR3] 000052C0
16:31:19.163 [OWL ] SEAOWLA2K-0144	3832	113	688	688	1229	429	3780	3780	2594	2594	157	1097	1097
16:31:19.275 [CTD ]  15.2750,  3.44069,    0.172, 2.7005, 2.5350
16:31:19.324 [ECO ] 99/99/99	99:99:99	700	52	595	50	680	49	543
16:31:18.219 [OCR1] 000052C1
16:31:18.298 [OCR2] 000052C2
16:31:19.096 [OCR3] 000052C3
16:31:19.525 [CTD ]  15.2738,  3.44054,    0.175, 2.7017, 2.5345
16:31:19.775 [CTD ]  15.2721,  3.44051,    0.188, 2.7013, 2.5341
16:31:19.876 [APLA] $PASHR,163119.872,20.57,T,-1.03,5.43,-0.04,0.020,0.020,0.021,2,1*24
16:31:19.882 [APLA] $GPGGA,163119.872,4946.86681,N,06421.86067,W,4,09,0.9,1.06,M,,,1,0004*1A
16:31:19.889 [APLA] $GPVTG,17.8,T,,M,3.0,N,5.6,K,D*36
16:31:19.517 [OCR3] 000052C4
16:31:20.000 [DBG ] $STAT,RECORDING
16:31:20.004 [APLA] $UTC,20220702,163120.0048
16:31:20.006 [APLA] $GPZDA,163120.0048,02,07,2022,,*6A
16:31:19.978 [OWL ] SEAOWLA2K-0144	3833	115	711	711	1229	455	4037	4037	2591	2591	158	1105	1105
16:31:20.025 [CTD ]  15.2713,  3.44071,    0.194, 2.7009, 2.5342
16:31:19.926 [OCR3] 000052C5
16:31:20.275 [CTD ]  15.2723,  3.44076,    0.179, 2.7013, 2.5346
16:31:20.447 [ECO ] 99/99/99	99:99:99	700	52	595	50	680	46	543
16:31:20.242 [OCR3] 000052C6
16:31:20.525 [CTD ]  15.2740,  3.44079,    0.169, 2.6992, 2.5350
16:31:19.437 [OCR1] 000052C7
16:31:20.775 [CTD ]  15.2738,  3.44076,    0.171, 2.7009, 2.5349
16:31:19.514 [OCR2] 000052C8
16:31:20.793 [OWL ] SEAOWLA2K-0144	3833	113	688	688	1229	412	3610	3610	2594	2594	156	1084	1084
16:31:20.552 [OCR3] 000052C9
16:31:20.876 [APLA] $PASHR,163120.872,22.07,T,-4.68,6.56,-0.01,0.020,0.020,0.021,2,1*23
16:31:20.883 [APLA] $GP,163120.872,4946.86764,N,06421.86025,W,4,09,0.9,1.09,M,,,0,0004*12
16:31:20.889 [APLA] $GPVTG,20.2,T,,M,3.1,N,5.8,K,D*37
16:31:21.000 [DBG ] $STAT,RECORDING
16:31:21.004 [APLA] $UTC,20220702,163121.0048
16:31:21.006 [APLA] $GPZDA,163121.0048,02,07,2022,,*6B
16:31:21.025 [CTD ]  15.2735,  3.44096,    0.179, 2.7012, 2.5354
16:31:20.869 [OCR3] 000052CA
16:31:21.275 [CTD ]  15.2747,  3.44116,    0.197, 2.7020, 2.5356
16:31:21.525 [CTD ]  15.2768,  3.44124,    0.212, 2.7010, 2.5345
16:31:21.178 [OCR3] 000052CB
16:31:21.571 [ECO ] 99/99/99	99:99:99	700	52	595	50	680	50	543
16:31:21.608 [OWL ] SEAOWLA2K-0144	3833	112	682	682	1229	444	3933	3933	2591	2591	159	1114	1114
16:31:21.775 [CTD ]  15.2787,  3.44124,    0.219, 2.7014, 2.5337
16:31:20.652 [OCR1] 000052CC
16:31:21.876 [APLA] $PASHR,163121.872,17.66,T,-2.81,6.90,-0.09,0.020,0.020,0.021,2*20
16:31:21.882 [APLA] $GPGGA,163121.872,4946.86838,N,06421.85977,W,4,09,0.9,0.99,M,,,1,0004*11
16:31:21.889 [APLA] $GPVTG,20.0,T,,M,2.7,N,5.1,K,D*3B
16:31:22.000 [DBG ] $STAT,RECORDING
16:31:21.598 [OCR3] 000052CD
16:31:22.004 [APLA] $UTC0220702,163122.0048
16:31:22.006 [APLA] $GPZDA,163122.0048,02,07,2022,,*68
16:31:22.025 [CTD ]  15.2803,  3.44126,    0.198, 2.7012, 2.5343
16:31:20.831 [OCR2] 000052CE
16:31:22.275 [CTD ]  15.2813,  3.44136,    0.171, 2.7013, 2.5346
16:31:22.005 [OCR3] 000052CF
16:31:22.424 [OWL ] SEAOWLA2K-0144	3833	112	679	679	1229	419	3686	3686	2593	2593	158	1103	1103
16:31:22.523 [CTD ]  15.2826,  3.44144,    0.154, 2.7010, 2.5357
16:31:22.325 [OCR3] 000052D0
16:31:22.695 [ECO ] 99/99/99	99:99:99	700	52	595	50	680	49	543
16:31:22.773 [CTD ]  15.2838,  3.44156,    0.158, 2.7002, 2.5356
16:31:22.876 [APLA] $PASHR,163122.872,15.28,T,-3.67,4.24,-0.01,0.020,0.020,0.021,2,1*27
16:31:22.882 [APLA] $GPGGA,163122.872,4946.86918,N,06421.85941,W,4,09,0.9,1.06,M,,,1,0004*13
16:31:22.889 [APLA] $GPVTG,13.7,T,,M,3.2,N,5.9,K,D*30
16:31:22.632 [OCR3] 000052D1
16:31:23.000 [DBG ] $STAT,RECORDING
16:31:23.004 [APLA] $UTC,20220702,163123.0048
16:31:23.006 [APLA] $GPZDA,163123.0048,02,07,2022,,*69
16:31:23.023 [CTD ]  15.2858,  3.44169,    0.176, 2.6997, 2.5360
16:31:21.868 [OCR1] 000052D2
16:31:22.951 [OCR3] 000052D3
16:31:23.239 [OWL ] SEAOWLA2K-0144	3832	112	677	677	1229	432	3813	3813	2593	2593	157	1093	1093
16:31:23.273 [CTD ]  15.2880,  3.44199,    0.186, 2.6996, 2.5362
16:31:22.147 [OCR2] 000052D4
16:31:23.523 [CTD ]  15.2904,  3.44199,    0.192, 2.6997, 2.5354
16:31:23.258 [OCR3] 000052D5
16:31:23.776 [CTD ]  15.2933,  3.44229,    0.181, 2.7000, 2.5347
16:31:23.819 [ECO ] 99/99/99	99:99:99	700	52	595	50	680	47	543
16:31:23.876 [APLA] $PASHR,163123.872,15.11,T,-2.77,7.08,0.07,0.020,0.020,0.021,2,1*0A
16:31:23.882 [APLA] $GPGGA,163123.872,4946.87008,N,06421.85923,W,4,09,0.9,1.15,M,,,1,0004*1D
16:31:23.889 [APLA] $GPVTG,1.4,T,,M,3.2,N,6.0,K,D*0A
16:31:24.000 [DBG ] $STAT,RECORDING
16:31:24.004 [APLA] $UTC,20220702,163124.0048
16:31:24.006 [APLA] $GPZDA,163124.0048,02,07,2022,,*6E
16:31:24.023 [CTD ]  15.2959,  3.44234,    0.161, 2.6986, 2.5349
16:31:23.678 [OCR3] 000052D6
16:31:24.054 [OWL ] SEAOWLA2K-0144	3833	112	680	680	1229	427	3771	3771	2591	2591	158	1100	1100
16:31:24.273 [CTD ]  15.2984,  3.44236,    0.155, 2.6994, 2.5352
16:31:23.086 [OCR1] 000052D7
16:31:24.088 [OCR3] 000052D8
16:31:24.523 [CTD ]  15.2997,  3.44219,    0.163, 2.6986, 2.5358
16:31:23.364 [OCR2] 000052D9
16:31:24.405 [OCR3] 000052DA
16:31:24.773 [CTD ]  15.2993,  3.44194,    0.175, 2.6984, 2.5367
16:31:24.876 [APLA] $PASHR,163124.872,16.10,T,1.50,5.80,-0.14,0.020,0.020,0.021,2,1*09
16:31:24.882 [APLA] $GPGGA,163124.872,4946.87091,N,06421.85908,W,4,09,0.9,0.95,M,,,0,0004*1B
16:31:24.889 [APLA] $GPVTG,19.3,T,,M,2.9,N,5.4,K,D*39
16:31:24.869 [OWL ] SEAOWLA2K-0144	3832	113	688	688	1230	437	3864	3864	2592	2592	157	1099	1099
16:31:24.942 [ECO ] 99/99/99	99:99:99	700	52	595	50	680	48	543
16:31:25.000 [DBG ] $STAT,RECORDING
16:31:25.004 [APLA] $UTC,20220702,163125.0049
16:31:25.006 [APLA] $GPZDA,163125.0049,02,07,2022,,*6E
16:31:24.715 [OCR3] 000052DB
16:31:25.023 [CTD ]  15.2972,  3.44181,    0.190, 2.6971, 2.5352
16:31:25.273 [CTD ]  15.2949,  3.44181,    0.197, 2.6986, 2.5345
16:31:25.032 [OCR3] 000052DC
16:31:25.523 [CTD ]  15.2951,  3.44161,    0.199, 2.6966, 2.5342
16:31:24.401 [OCR1] 000052DD
16:31:25.684 [OWL ] SEAOWLA2K-0144	3832	113	693	693	1229	427	3761	3761	2594	2594	158	1109	1109
16:31:25.341 [OCR3] 000052DE
16:31:24.580 [OCR2] 000052DF
16:31:25.773 [CTD ]  15.2960,  3.44166,    0.195, 2.6972, 2.5345
16:31:25.876 [APLA] $PASHR,163125.872,18.63,T,-7.05,4.53,-0.02,0.020,0.020,0.021,2,1*21
16:31:25.882 [APLA] $GPGGA,163125.872,4946.87168,N,06421.85858,W,4,09,0.9,1.02,M,,,1,0004*17
16:31:25.889 [APLA] $GPVTG,16.1,T,,M,3.2,N,5.9,K,D*33
16:31:26.000 [DBG ] $STAT,RECORDING
16:31:26.004 [APLA] $UTC,20220702,163126.0049
16:31:26.006 [APLA] $GPZDA,163126.0049,02,07,2022,,*6D
16:31:26.023 [CTD ]  15.2969,  3.44191,    0.191, 2.6982, 2.5351
16:31:26.066 [ECO ] 99/99/99	99:99:99	700	52	595	50	680	49	543
16:31:25.760 [OCR3] 000052E0
16:31:26.273 [CTD ]  15.2975,  3.44186,    0.180, 2.6966, 2.5360
16:31:26.167 [OCR3] 000052E1
16:31:26.500 [OWL ] SEAOWLA2K-0144	3832	112	679	679	1229	410	3598	3598	2591	2591	157	1089	1089
16:31:26.523 [CTD ]  15.2971,  3.44191,    0.182, 2.6964, 2.5348
16:31:26.487 [OCR3] 000052E2
16:31:26.773 [CTD ]  15.2964,  3.44189,    0.180, 2.6969, 2.5350
16:31:26.876 [APLA] $PASHR,163126.872,18.52,T,-2.68,5.92,0.09,0.019,0.019,0.021,2,1*04
16:31:26.882 [APLA] $GPGGA,163126.872,4946.87260,N,06421.85823,W,4,09,0.9,1.15,M,,,0,0004*14
16:31:26.889 [APLA] $GPVTG,15.1,T,,M,3.5,N,6.5,K,D*38
16:31:25.719 [OCR1] 000052E3
16:31:27.000 [DBG ] $STAT,RECORDING
16:31:27.004 [APLA] $UTC,20220702,163127.0049
16:31:27.006 [APLA] $GPZDA,163127.0049,02,07,2022,,*6C
16:31:25.797 [OCR2] 000052E4
16:31:27.023 [CTD ]  15.2971,  3.44204,    0.176, 2.6965, 2.5356
16:31:26.794 [OCR3] 000052E5
16:31:27.190 [ECO ] 99/99/99	99:99:99	700	52	595	50	680	50	543
16:31:27.273 [CTD ]  15.2993,  3.44201,    0.168, 2.6964, 2.5355
16:31:27.315 [OWL ] SEAOWLA2K-0144	3832	112	676	676	1229	436	3851	3851	2593	2593	159	1118	1118
16:31:27.114 [OCR3] 000052E6
16:31:27.533 [CTD ]  15.3018,  3.44196,    0.174, 2.6966, 2.5351
16:31:27.783 [CTD ]  15.3036,  3.44199,    0.186, 2.6952, 2.5353
16:31:27.421 [OCR3] 000052E7
16:31:27.876 [APLA] $PASHR,163127.872,17.87,T,-4.31,5.31,0.07,0.019,0.019,0.021,2,1*0F
16:31:27.882 [APLA] $GPGGA,163127.872,4946.87352,N,06421.85776,W,4,09,0.9,1.15,M,,,1,0004*1B
16:31:27.889 [APLA] $GPVTG,16.9,T,,M,3.5,N,6.5,K,D*33
16:31:28.000 [DBG ] $STAT,RECORDING
16:31:28.004 [APLA] $UTC,20220702,163128.0049
16:31:28.006 [APLA] $GPZDA,163128.0049,02,07,2022,,*63
16:31:28.033 [CTD ]  15.3047,  3.44184,    0.192, 2.6953, 2.5347
16:31:26.934 [OCR1] 000052E8
16:31:28.130 [OWL ] SEAOWLA2K-0144	3832	114	694	694	1229	431	3805	3805	2591	2591	158	1107	1107
16:31:27.840 [OCR3] 000052E9
16:31:28.283 [CTD ]  15.3057,  3.44224,    0.191, 2.6957, 2.5354
16:31:27.015 [OCR2] 000052EA
16:31:28.314 [ECO ] 99/99/99	99:99:99	700	52	595	50	680	50	543
16:31:28.250 [OCR3] 000052EB
16:31:28.533 [CTD ]  15.3066,  3.44231,    0.186, 2.6960, 2.5358
16:31:28.783 [CTD ]  15.3071,  3.44209,    0.172, 2.6962, 2.5353
16:31:28.567 [OCR3] 000052EC
16:31:28.876 [APLA] $PASHR,163128.872,16.00,T,-4.49,6.65,0.14,0.020,0.020,0.021,2,1*01
16:31:28.882 [APLA] $GPGGA,163128.872,4946.87450,N,06421.85751,W,4,09,0.9,1.25,M,,,0,0004*16
16:31:28.889 [APLA] $GPVTG,1.0,M,3.6,N,6.7,K,D*0D
16:31:29.000 [DBG ] $STAT,RECORDING
16:31:29.004 [APLA] $UTC,20220702,163129.0049
16:31:29.006 [APLA] $GPZDA,163129.0049,02,07,2022,,*62
16:31:28.945 [OWL ] SEAOWLA2K-0144	3832	113	690	690	1228	430	3790	3790	2595	2595	158	1104	1104
16:31:29.033 [CTD ]  15.3077,  3.44229,    0.158, 2.6936, 2.5349
16:31:28.876 [OCR3] 000052ED
16:31:29.283 [CTD ]  15.3072,  3.44231,    0.156, 2.6941, 2.5351
16:31:28.152 [OCR1] 000052EE
16:31:29.437 [ECO ] 99/99/99	99:99:99	700	52	595	50	680	47	543
16:31:29.194 [OCR3] 000052EF
16:31:29.533 [CTD ]  15.3065,  3.44226,    0.154, 2.6945, 2.5358
16:31:28.332 [OCR2] 000052F0
16:31:29.760 [OWL ] SEAOWLA2K-0144	3832	114	696	696	1228	428	3774	3774	2589	2589	158	1103	1103
16:31:29.783 [CTD ]  15.3054,  3.44221,    0.148, 2.6938, 2.5344
16:31:29.876 [APLA] $PASHR,163129.872,15.37,T,4.34,9.89,-0.14,0.020,0.020,0.021,2,1*00
16:31:29.882 [APLA] $GPGGA,163129.872,4946.87539,N,06421.85754,W,4,09,0.9,0.98,M,,,1,0004*1A
16:31:29.889 [APLA] $GPVTG,6.6,T,,M,2.5,N,4.7,K,D*0C
16:31:29.503 [OCR3] 000052F1
16:31:30.008 [DBG ] $STAT,RECORDING
16:31:30.004 [APLA] $UTC,20220702,163130.0049
16:31:30.006 [APLA] $GPZDA,163130.0049,02,07,2022,,*6A
16:31:30.033 [CTD ]  15.3048,  3.44231,    0.159, 2.6937, 2.5340
16:31:29.923 [OCR3] 000052F2
16:31:30.283 [CTD ]  15.3051,  3.44241,    0.178, 2.6938, 2.5342
16:31:30.533 [CTD ]  15.3062,  3.44246,    0.219, 2.6938, 2.5343
16:31:29.367 [OCR1] 000052F3
16:31:30.561 [ECO ] 99/99/99	99:99:99	700	52	595	50	680	49	543
16:31:30.576 [OWL ] SEAOWLA2K-0144	3832	115	704	704	1229	461	4102	4102	2595	2595	158	1105	1105
16:31:30.330 [OCR3] 000052F4
16:31:30.783 [CTD ]  15.3082,  3.44264,    0.245, 2.6926, 2.5333
16:31:29.646 [OCR2] 000052F5
16:31:30.877 [APLA] ASHR,163130.872,13.14,T,-4.06,1.16,-0.34,0.019,0.019,0.021,2,1*2F
16:31:30.882 [APLA] $GPGGA,163130.872,4946.87592,N,06421.85705,W,4,09,0.9,0.68,M,,,0,0004*19
16:31:30.889 [APLA] $GPVTG,31.3,T,,.6,N,4.7,K,D*3E
16:31:30.649 [OCR3] 000052F6
16:31:31.000 [DBG ] $STAT,RECORDING
16:31:31.004 [APLA] $UTC,20220702,163131.0049
16:31:31.006 [APLA] $GPZDA,163131.0049,02,07,2022,,*6B
16:31:31.033 [CTD ]  15.3111,  3.44279,    0.226, 2.6940, 2.5348
16:31:30.956 [OCR3] 000052F7
16:31:31.283 [CTD ]  15.3142,  3.44276,    0.158, 2.6932, 2.5349
16:31:31.391 [OWL ] SEAOWLA2K-0144	3832	115	710	710	1228	438	3873	3873	2593	2593	158	1103	1103
16:31:31.533 [CTD ]  15.3170,  3.44264,    0.109, 2.6937, 2.5352
16:31:31.276 [OCR3] 000052F8
16:31:31.685 [ECO ] 99/99/99	99:99:99	700	52	595	50	680	45	543
16:31:31.783 [CTD ]  15.3191,  3.44276,    0.127, 2.6933, 2.5349
16:31:31.876 [APLA] $PASHR,163131.872,19.87,T,-10.30,2.57,0.21,0.019,0.019,0.021,2,1*31
16:31:31.882 [APLA] $GPGGA,163131.872,4946.87690,N,06421.85674,W,4,09,0.9,1.21,M,,,1,0004*13
16:31:31.889 [APLA] $GPVTG,5.0,T,,M,4.3,N,8.0,K,D*02
16:31:30.583 [OCR1] 000052F9
16:31:32.000 [DBG ] $STAT,RECORDING
16:31:31.583 [OCR3] 000052FA
16:31:32.004 [APLA] $UTC,20220702,163132.0049
16:31:32.006 [APLA] $GPZDA,163132.0049,02,07,2022,,*68
16:31:30.863 [OCR2] 000052FB
16:31:32.033 [CTD ]  15.3212,  3.44304,    0.157, 2.6937, 2.5350
16:31:32.206 [OWL ] SEAOWLA2K-0144	3832	113	690	690	1228	441	3906	3906	2592	2592	158	1109	1109
16:31:32.286 [CTD ]  15.3235,  3.44306,    0.174, 2.6935, 2.5368
16:31:32.003 [OCR3] 000052FC
16:31:32.531 [CTD ]  15.3253,  3.44289,    0.189, 2.6938, 2.5358
16:31:32.413 [OCR3] 000052FD
16:31:32.080 [OCR2] 000052FE
16:31:32.781 [CTD ]  15.3256,  3.44284,    0.197, 2.6920, 2.5351
16:31:32.809 [ECO ] 99/99/99	99:99:99	700	52	595	50	680	49	543
16:31:32.876 [APLA] $PASHR,163132.872,20.97,T,-0.43,7.04,0.18,0.019,0.019,0.021,2,1*05
16:31:32.882 [APLA] $GPGGA,163132.872,4946.87804,N,06421.85652,W,4,09,0.9,1.25,M,,,1,0004*13
16:31:32.889 [APLA] $GPVTG,10.3,T,,M,3.8,N,7.0,K,D*36
16:31:33.000 [DBG ] $STAT,RECORDING
16:31:33.004 [APLA] $UTC,20220702,163133.0049
16:31:33.006 [APLA] $GPZDA,163133.0049,02,07,2022,,*69
16:31:32.729 [OCR3] 000052FF
16:31:33.031 [CTD ]  15.3257,  3.44284,    0.196, 2.6926, 2.5350
16:31:33.021 [OWL ] SEAOWLA2K-0144	3832	114	699	699	1228	455	4046	4046	2595	2595	159	1112	1112
16:31:31.903 [OCR1] 00005300
16:31:33.281 [CTD ]  15.3257,  3.44081,    0.180, 2.6926, 2.5348
16:31:33.039 [OCR3] 00005301
16:31:33.531 [CTD ]  15.3269,  3.44319,    0.163, 2.6930, 2.5352
16:31:33.356 [OCR3] 00005302
16:31:33.781 [CTD ]  15.3293,  3.44341,    0.166, 2.6913, 2.5358
16:31:33.876 [APLA] $PASHR,163133.872,16.51,T,-2.37,9.96,0.07,0.019,0.019,0.021,0,1*03
16:31:33.882 [APLA] $GPGGA,163133.872,4946.87894,N,06421.85629,W,4,09,0.9,1.18,M,,,1,0004*19
16:31:33.889 [APLA] $GPVTG,10.1,T,,M,2.8,N,5.1,K,D*36
16:31:33.836 [OWL ] SEAOWLA2K-0144	3832	115	712	712	1229	418	3677	3677	2590	2590	158	1107	1107
16:31:33.932 [ECO ] 99/99/99	99:99:99	700	52	595	50	680	48	543
16:31:32.783 [OCR2] 00005303
16:31:34.001 [DBG ] $STAT,RECORDING
16:31:34.004 [APLA] $UTC,20220702,163134.0049
16:31:34.006 [APLA] $GPZDA,163134.0049,02,07,2022,,*6E
16:31:34.031 [CTD ]  15.3328,  3.44371,    0.182, 2.6921, 2.5353
16:31:33.665 [OCR3] 00005304
16:31:34.281 [CTD ]  15.3371,  3.44384,    0.200, 2.6922, 2.5350
16:31:33.218 [OCR1] 00005305
16:31:34.085 [OCR3] 00005306
16:31:34.531 [CTD ]  15.3412,  3.44401,    0.225, 2.6917, 2.5349
16:31:34.652 [OWL ] SEAOWLA2K-0144	3832	115	707	707	1229	454	4031	4031	2593	2593	160	1119	1119
16:31:34.491 [OCR3] 00005307
16:31:34.781 [CTD ]  15.3448,  3.44414,    0.233, 2.6921, 2.5349
16:31:34.876 [APLA] $PASHR,163134.872,12.53,T,-2.95,4.09,-0.14,0.019,0.019,0.021,2,1*2C
16:31:34.883 [APLA] $GPGGA,163134.872,4946.87961,N,06421.85599,W,4,09.9,0.96,M,,,0,0004*1B
16:31:34.889 [APLA] $GPVTG,19.9,T,,M,2.8,N,5.1,K,D*37
16:31:35.000 [DBG ] $STAT,RECORDING
16:31:35.004 [APLA] $UTC,20220702,163135.0049
16:31:35.006 [APLA] $GPZDA,163135.0049,02,07,2022,,*6F
16:31:35.031 [CTD ]  15.3482,  3.44371,    0.218, 2.6919, 2.5345
16:31:35.056 [ECO ] 99/99/99	99:99:99	700	52	595	50	680	49	543
16:31:34.811 [OCR3] 00005308
16:31:33.999 [OCR2] 00005309
16:31:35.281 [CTD ]  15.3501,  3.44401,    0.201, 2.6917, 2.5348
16:31:35.118 [OCR3] 0000530A
16:31:35.467 [OWL ] SEAOWLA2K-0144	3832	115	711	711	1229	434	3833	3833	2589	2589	158	1106	1106
16:31:35.531 [CTD ]  15.3512,  3.44376,    0.190, 2.6916, 2.5354
16:31:34.434 [OCR1] 0000530B
16:31:35.437 [OCR3] 0000530C
16:31:35.781 [CTD ]  15.3524,  3.44409,    0.166, 2.6911, 2.5343
16:31:35.877 [APLA] $PASHR,163135.872,15.25,T,-5.42,4.04,0.04,0.019,0.019,0.021,2,1*07
16:31:35.882 [APLA] $GPGGA,163135.872,4946.88055,N,06421.85569,W,4,09,0.9,1.12,M,,,1,0004*18
16:31:35.889 [APLA] $GPVTG,1.1,T,,M,3.9,N,7.2,K,D*07
16:31:36.000 [DBG ] $STAT,RECORDING
16:31:36.004 [APLA] $UTC,20220702,163136.0049
16:31:36.006 [APLA] $GPZDA,163136.0049,02,07,2022,,*6C
16:31:36.031 [CTD ]  15.3532,  3.44414,    0.132, 2.6914, 2.5342
16:31:35.745 [OCR3] 0000530D
16:31:36.180 [ECO ] 99/99/99	99:99:99	700	52	595	50	680	47	543
16:31:36.281 [CTD ]  15.3540,  3.44414,    0.128, 2.6920, 2.5350
16:31:36.282 [OWL ] SEAOWLA2K-0144	3832	117	727	727	1229	433	3829	3829	2591	2591	159	1110	1110
16:31:36.164 [OCR3] 0000530E
16:31:36.529 [CTD ]  15.3543,  3.44411,    0.144, 2.6910, 2.5359
16:31:35.316 [OCR2] 0000530F
16:31:36.780 [CTD ]  15.3540,  3.44406,    0.168, 2.6906, 2.5368
16:31:35.650 [OCR1] 00005310
16:31:36.876 [APLA] $PASHR,163136.872,18.56,T,2.13,10.35,-0.02,0.019,0.019021,2,1*3F
16:31:36.883 [APLA] $GPGGA,163136.872,4946.88151,N,06421.85568,W,4,09,0.9,1.09,M,,,0,0004*14
16:31:36.889 [APLA] $GPVTG,8.4,T,,M,2.7,N,4.,D*0C
16:31:36.574 [OCR3] 00005311
16:31:37.000 [DBG ] $STAT,RECORDING
16:31:37.004 [APLA] $UTC,20220702,163137.0049
16:31:37.006 [APLA] $GPZDA,163137.0049,02,07,2022,,*6D
16:31:37.030 [CTD ]  15.3538,  3.44401,    0.185, 2.6912, 2.5355
16:31:37.097 [OWL ] SEAOWLA2K-0144	3832	118	733	733	1228	494	4425	4425	2594	2594	160	1127	1127
16:31:36.904 [OCR3] 00005312
16:31:37.280 [CTD ]  15.3532,  3.44384,    0.202, 2.6897, 2.5330
16:31:37.304 [ECO ] 99/99/99	99:99:99	700	52	595	50	680	50	543
16:31:37.201 [OCR3] 00005313
16:31:37.530 [CTD ]  15.3521,  3.44121,    0.211, 2.6904, 2.5350
16:31:37.780 [CTD ]  15.3515,  3.44379,    0.204, 2.6897, 2.5358
16:31:37.519 [OCR3] 00005314
16:31:36.632 [OCR2] 00005315
16:31:37.877 [APLA] PASHR,163137.872,21.50,T,-4.53,3.07,-0.10,0.019,0.019,0.021,2,1*2D
16:31:37.883 [APLA] $GPGGA,163137.872,4946.88215,N,06421.85531,W,4,09,0.9,0.97,M,,,1,0004*1D
16:31:37.889 [APLA] $GPVTG,21.7,T,,M,2.9,5.3,K,D*31
16:31:37.912 [OWL ] SEAOWLA2K-0144	3831	118	738	738	1228	469	4179	4179	2593	2593	159	1117	1117
16:31:38.000 [DBG ] $STAT,RECORDING
16:31:38.005 [APLA] $UTC,20220702,163138.0050
16:31:38.007 [APLA] $GPZDA,163138.0050,02,07,2022,,*6A
16:31:38.031 [CTD ]  15.3517,  3.44381,    0.182, 2.6893, 2.5351
16:31:36.868 [OCR1] 00005316
16:31:37.829 [OCR3] 00005317
16:31:38.281 [CTD ]  15.3523,  3.44396,    0.175, 2.6896, 2.5342
16:31:38.428 [ECO ] 99/99/99	99:99:99	700	52	595	50	680	46	543
16:31:38.541 [CTD ]  15.3525,  3.44380,    0.193, 2.6895, 2.5346
16:31:38.249 [OCR3] 00005318
16:31:38.729 [OWL ] SEAOWLA2K-0144	3832	116	718	718	1228	444	3936	3936	2592	2592	158	1103	1103
16:31:38.791 [CTD ]  15.3520,  3.44376,    0.204, 2.6893, 2.5353
16:31:38.878 [APLA] $PASHR,163138.872,25.86,T,-5.85,4.50,0.03,0.019,0.019,0.021,2,1*0D
16:31:38.884 [APLA] $GPGGA,163138.872,4946.88304,N,06421.85482,W,4,09,0.9,1.10,M,,,0,0004*15
16:31:38.890 [APLA] $GPVTG,19.9,T,,M,3.6,N,6.7,K,D*3D
16:31:38.655 [OCR3] 00005319
16:31:39.001 [DBG ] $STAT,RECORDING
16:31:39.005 [APLA] $UTC,20220702,163139.0050
16:31:39.007 [APLA] $GPZDA,163139.0050,02,07,2022,,*6B
16:31:37.849 [OCR2] 0000531A
16:31:39.041 [CTD ]  15.3506,  3.44371,    0.203, 2.6882, 2.5358
16:31:38.974 [OCR3] 0000531B
16:31:39.291 [CTD ]  15.3495,  3.44371,    0.197, 2.6895, 2.5352
16:31:38.084 [OCR1] 0000531C
16:31:39.552 [ECO ] 99/99/99	99:99:99	700	52	595	50	680	46	543
16:31:39.541 [CTD ]  15.3483,  3.44359,    0.191, 2.6890, 2.5360
16:31:39.282 [OCR3] 0000531D
16:31:39.544 [OWL ] SEAOWLA2K-0144	3831	114	694	694	1228	465	4134	4134	2591	2591	159	1113	1113
16:31:39.791 [CTD ]  15.3470,  3.44356,    0.184, 2.6885, 2.5356
16:31:39.878 [APLA] $PASHR,163139.872,21.77,T,-0.47,7.58,0.00,0.019,0.019,0.021,2,1*05
16:31:39.884 [APLA] $GPGGA,163139.872,4946.88390,N,06421.85427,W,4,09,0.9,1.07,M,,,1,0004*11
16:31:39.890 [APLA] $GPVTG,25.5,T,,M,3.1,N,5.7,K,D*3A
16:31:39.601 [OCR3] 0000531E
16:31:40.001 [DBG ] $STAT,RECORDING
16:31:40.005 [APLA] $UTC,20220702,163140.0050
16:31:40.007 [APLA] $GPZDA,163140.0050,02,07,2022,,*65
16:31:40.041 [CTD ]  15.3462,  3.44396,    0.185, 2.6885, 2.5355
16:31:39.066 [OCR2] 0000531F
16:31:39.909 [OCR3] 00005320
16:31:40.291 [CTD ]  15.3483,  3.44429,    0.190, 2.6892, 2.5349
16:31:40.359 [OWL ] SEAOWLA2K-0144	3832	114	702	702	1227	453	4022	4022	2590	2590	160	1121	1121
16:31:40.541 [CTD ]  15.3522,  3.44436,    0.188, 2.6894, 2.5349
16:31:40.676 [ECO ] 99/99/99	99:99:99	700	52	595	50	680	47	543
16:31:39.402 [OCR1] 00005321
16:31:40.328 [OCR3] 00005322
16:31:40.794 [CTD ]  15.3556,  3.44436,    0.182, 2.6888, 2.5338
16:31:40.878 [APLA] $PASHR,163140.872,19.34,T,-4.68,3.22,0.07,0.019,0.019,0.021,2,1*00
16:31:40.883 [APLA] $GPGGA,163140.872,4946.88468,N,06421.85372,W,4,09,0.9,1.14,M,,,1,0004*1A
16:31:40.890 [APLA] $GPVTG,19.8,T,,M,3.4,N,6.2,K,D*3B
16:31:41.001 [DBG ] $STAT,RECORDING
16:31:41.005 [APLA] $UTC,20220702,163141.0050
16:31:41.007 [APLA] $GPZDA,163141.0050,02,07,2022,,*64
16:31:40.737 [OCR3] 00005323
16:31:41.039 [CTD ]  15.3582,  3.44447,    0.184, 2.6880, 2.5339
16:31:41.174 [OWL ] SEAOWLA2K-0144	3831	115	717	717	1228	444	3935	3935	2594	2594	161	1141	1141
16:31:41.289 [CTD ]  15.3600,  3.44459,    0.176, 2.6888, 2.5352
16:31:41.055 [OCR3] 00005324
16:31:40.283 [OCR2] 00005325
16:31:41.539 [CTD ]  15.3607,  3.44449,    0.160, 2.6896, 2.5352
16:31:41.364 [OCR3] 00005326
16:31:41.800 [ECO ] 99/99/99	99:99:99	700	52	595	50	680	46	543
16:31:41.789 [CTD ]  15.3598,  3.44439,    0.147, 2.6888, 2.5358
16:31:41.878 [APLA] $PASHR,163141.872,23.81,T,-8.60,5.62,0.30,0.019,0.019,0.021,2,1*04
16:31:41.884 [APLA] $GPGGA,163141.872,4946.88575,N,06421.85349,W,4,09,0.9,1.42,M,,,1,0004*1D
16:31:41.890 [APLA] $GPVTG,0.0,T,,M,4.3,N,8.0,K,D*07
16:31:40.717 [OCR1] 00005327
16:31:41.682 [OCR3] 00005328
16:31:42.001 [DBG ] $STAT,RECORDING
16:31:42.005 [APLA] $UTC,20220702,163142.0050
16:31:42.007 [APLA] $GPZDA,163142.0050,02,07,2022,,7
16:31:41.990 [OWL ] SEAOWLA2K-0144	3831	114	698	698	1227	433	3816	3816	2594	2594	159	1112	1112
16:31:42.039 [CTD ]  15.3585,  3.44436,    0.156, 2.6895, 2.5360
16:31:42.289 [CTD ]  15.3587,  3.44436,    0.166, 2.6890, 2.5359
16:31:41.990 [OCR3] 00005329
16:31:42.539 [CTD ]  15.3601,  3.44442,    0.161, 2.6893, 2.5358
16:31:41.499 [OCR2] 0000532A
16:31:42.410 [OCR3] 0000532B
16:31:42.789 [CTD ]  15.3615,  3.44436,    0.148, 2.6888, 2.5355
16:31:42.805 [OWL ] SEAOWLA2K-0144	3831	114	703	703	1228	467	4160	4160	2590	2590	159	1116	1116
16:31:42.878 [APLA] ASHR,16314872,21.35,T,6.39,11.31,-0.08,0.019,0.019,0.021,2,1*30
16:31:42.884 [APLA] $GPGGA,163142.872,4946.88675,N,06421.85344,W,4,09,0.9,1.10,M,,,0,0004*1
16:31:42.890 [APLA] $GPVTG,15,T,,M,2.7,N,5.0,K,D*3B
16:31:42.924 [ECO ] 99/99/99	99:99:99	700	52	595	50	680	46	543
16:31:43.001 [DBG ] $STAT,RECORDING
16:31:43.005 [APLA] $UTC,20220702,163143.0050
16:31:43.007 [APLA] $GPZDA,163143.0050,02,07,2022,,*66
16:31:43.039 [CTD ]  15.3618,  3.44429,    0.143, 2.6880, 2.5349
16:31:42.819 [OCR3] 0000532C
16:31:41.934 [OCR1] 0000532D
16:31:43.289 [CTD ]  15.3616,  3.44421,    0.174, 2.6880, 2.5344
16:31:43.136 [OCR3] 0000532E
16:31:43.539 [CTD ]  15.3609,  3.44416,    0.229, 2.6877, 2.5329
16:31:43.620 [OWL ] SEAOWLA2K-0144	3831	118	733	733	1227	501	4486	4486	2590	2590	159	1114	1114
16:31:43.444 [OCR3] 0000532F
16:31:43.789 [CTD ]  15.3605,  3.44414,    0.247, 2.6876, 2.5337
16:31:43.878 [APLA] $PASHR,163143.872,17.88,T,-4.50,3.52,-0.38,0.019,0.019,0.021,2,1*27
16:31:43.884 [APLA] $GPGGA,163143.872,4946.88730,N,06421.85283,W,4,09,0.9,0.70,M,,,1,0004*1B
16:31:43.890 [APLA] $GPVTG,36.8,T,,M,2.7,N,4.9,K,D*3D
16:31:44.001 [DBG ] $STAT,RECORDING
16:31:44.005 [APLA] $UTC,20220702,163144.0050
16:31:44.007 [APLA] $GPZDA,163144.0050,02,07,2022,,*61
16:31:43.762 [OCR3] 00005330
16:31:44.047 [ECO ] 99/99/99	99:99:99	700	52	595	51	680	48	543
16:31:44.039 [CTD ]  15.3595,  3.44411,    0.236, 2.6871, 2.5344
16:31:42.816 [OCR2] 00005331
16:31:44.289 [CTD ]  15.3589,  3.44409,    0.195, 2.6870, 2.5352
16:31:43.150 [OCR1] 00005332
16:31:44.071 [OCR3] 00005333
16:31:44.435 [OWL ] SEAOWLA2K-0144	3831	119	747	747	1227	449	3977	3977	2593	2593	160	1130	1130
16:31:44.537 [CTD ]  15.3580,  3.44409,    0.171, 2.6875, 2.5354
16:31:44.787 [CTD ]  15.3578,  3.44406,    0.158, 2.6869, 2.5362
16:31:44.878 [APLA] $PASHR,163144.872,18.30,T,-3.75,3.37,-0.07,0.019,0.019,0.021,2,1*23
16:31:44.884 [APLA] $GPGGA,163144.872,4946.88803,N,06421.85221,W,4,09,0.9,0.95,M,,,0,0004*11
16:31:44.890 [APLA] $GPVTG,24.0,T,,M,3.3,N,6.2,K,D*3A
16:31:44.489 [OCR3] 00005334
16:31:45.009 [DBG ] $STAT,RECORDING
16:31:45.005 [APLA] $UTC,20220702,163145.0050
16:31:45.007 [APLA] $GPZDA,163145.0050,02,07,2022,,*60
16:31:45.037 [CTD ]  15.3573,  3.44399,    0.155, 2.6872, 2.5364
16:31:45.171 [ECO ] 99/99/99	99:99:99	700	52	595	50	680	49	543
16:31:44.905 [OCR3] 00005335
16:31:45.250 [OWL ] SEAOWLA2K-0144	3831	115	706	706	1227	459	4077	4077	2592	2592	159	1120	1120
16:31:45.287 [CTD ]  15.3566,  3.44399,    0.168, 2.6880, 2.5359
16:31:44.133 [OCR2] 00005336
16:31:45.216 [OCR3] 00005337
16:31:44.367 [OCR1] 00005338
16:31:45.537 [CTD ]  15.3564,  3.44406,    0.180, 2.6885, 2.5334
16:31:45.787 [CTD ]  15.3568,  3.44426,    0.175, 2.6864, 2.5333
16:31:45.525 [OCR3] 00005339
16:31:45.878 [APLA] $PASHR,163145.872,20.90,T,-4.65,5.47,0.18,0.019,0.019,0.021,2,1*07
16:31:45.884 [APLA] $GPGGA,163145.872,4946.88893,N,06421.85177,W,4,09,0.9,1.19,M,,,1,0004*1D
16:31:45.890 [APLA] $GPVTG,10.9,T,,M,3.6,N,6.7,K,D*34
16:31:46.001 [DBG ] $STAT,RECORDING
16:31:46.005 [APLA] $UTC,20220702,163146.0050
16:31:46.007 [APLA] $GPZDA,163146.0050,02,07,2022,,*63
16:31:46.037 [CTD ]  15.3567,  3.44431,    0.159, 2.6864, 2.5346
16:31:46.066 [OWL ] SEAOWLA2K-0144	3831	115	712	712	1227	455	4041	4041	2592	2592	160	1129	1129
16:31:45.845 [OCR3] 0000533A
16:31:46.295 [ECO ] 99/99/99	99:99:99	700	52	595	50	680	46	543
16:31:46.287 [CTD ]  15.3563,  3.44429,    0.153, 2.6864, 2.5347
16:31:45.349 [OCR2] 0000533B
16:31:46.152 [OCR3] 0000533C
16:31:46.537 [CTD ]  15.3559,  3.44419,    0.163, 2.6861, 2.5348
16:31:46.787 [CTD ]  15.3551,  3.44424,    0.171, 2.6862, 2.5354
16:31:46.878 [APLA] $PASHR,163146.872,25.54,T,-3.38,6.91,0.24,0.019,0.019,0.021,2,1*01
16:31:46.884 [APLA] $GPGGA,163146.872,4946.88994,N,06421.85147,W,4,09,0.9,1.32,M,,,0,0004*13
16:31:46.890 [APLA] $GPVTG,12.4,T,,M,3.7,N,6.8,K,D*35
16:31:45.582 [OCR1] 0000533D
16:31:46.881 [OWL ] SEAOWLA2K-0144	3831	118	740	740	1227	453	4020	4020	2595	2595	160	1121	1121
16:31:46.573 [OCR3] 0000533E
16:31:47.001 [DBG ] $STAT,RECORDING
16:31:47.005 [APLA] $UTC,20220702,3147.0050
16:31:47.007 [APLA] $GPZDA,163147.0050,02,07,2022,,*62
16:31:47.037 [CTD ]  15.3557,  3.44429,    0.178, 2.6869, 2.5355
16:31:46.979 [OCR3] 0000533F
16:31:47.287 [CTD ]  15.3564,  3.42609,    0.192, 2.6855, 2.5351
16:31:47.418 [ECO ] 99/99/99	99:99:99	700	52	595	50	680	50	543
16:31:47.537 [CTD ]  15.3566,  3.42841,    0.194, 2.6865, 2.5355
16:31:47.298 [OCR3] 00005340
16:31:47.696 [OWL ] SEAOWLA2K-0144	3830	115	714	714	1227	467	4154	4154	2590	2590	160	1127	1127
16:31:46.565 [OCR2] 00005341
16:31:47.787 [CTD ]  15.3566,  3.44154,    0.198, 2.6847, 2.5362
16:31:47.878 [APLA] $PASHR,163147.872,27.41,T,-2.54,5.36,0.05,0.019,0.019,0.021,2,1*00
16:31:47.884 [APLA] $GPGGA,163147.872,4946.89088,N,06421.85101,W,4,09,0.9,1.18,M,,,1,0004*1C
16:31:47.890 [APLA] $GPVTG,23.5,T,,M,3.4,N,6.3,K,D*3E
16:31:47.606 [OCR3] 00005342
16:31:48.001 [DBG ] $STAT,RECORDING
16:31:48.005 [APLA] $UTC,20220702,163148.0050
16:31:48.007 [APLA] $GPZDA,163148.0050,02,07,2022,,*6D
16:31:48.036 [CTD ]  15.3574,  3.44386,    0.208, 2.6846, 2.5368
16:31:46.904 [OCR1] 00005343
16:31:47.925 [OCR3] 00005344
16:31:48.286 [CTD ]  15.3585,  3.44431,    0.209, 2.6862, 2.5357
16:31:48.542 [ECO ] 99/99/99	99:99:99	700	52	595	50	680	45	543
16:31:48.511 [OWL ] SEAOWLA2K-0144	3830	115	709	709	1227	478	4266	4266	2593	2593	160	1126	1126
16:31:48.536 [CTD ]  15.3604,  3.44429,    0.195, 2.6853, 2.5355
16:31:48.235 [OCR3] 00005345
16:31:48.786 [CTD ]  15.3610,  3.44426,    0.185, 2.6854, 2.5350
16:31:48.878 [APLA] $PASHR,163148.872,21.89,T,-1.55,8.05,-0.08,0.020,0.020,0.021,2,1*22
16:31:48.884 [APLA] $GPGGA,163148.872,4946.89167,N,06421.85043,W,4,09,0.9,1.04,M,,,1,0004*19
16:31:48.890 [APLA] $GPVTG,25.5,T,,M,2.8,N,5.2,K,D*37
16:31:47.782 [OCR2] 00005346
16:31:49.001 [DBG ] $STAT,RECORDING
16:31:49.005 [APLA] $UTC,20220702,163149.0050
16:31:49.007 [APLA] $GPZDA,163149.0050,02,07,2022,,*6C
16:31:48.652 [OCR3] 00005347
16:31:49.046 [CTD ]  15.3612,  3.44430,    0.180, 2.6863, 2.5346
16:31:49.299 [CTD ]  15.3617,  3.44444,    0.172, 2.6860, 2.5352
16:31:49.061 [OCR3] 00005348
16:31:49.326 [OWL ] SEAOWLA2K-0144	3831	116	722	722	1227	482	4302	4302	2591	2591	159	1118	1118
16:31:48.215 [OCR1] 00005349
16:31:49.546 [CTD ]  15.3631,  3.44447,    0.172, 2.6855, 2.5356
16:31:49.379 [OCR3] 0000534A
16:31:49.666 [ECO ] 99/99/99	99:99:99	700	52	595	51	680	45	543
16:31:49.796 [CTD ]  15.3642,  3.44442,    0.183, 2.6869, 2.5346
16:31:49.878 [APLA] $PASHR,163149.872,16.89,T,-0.71,4.73,-0.25,0.019,0.019,0.021,2,1*22
16:31:49.884 [APLA] $GPGGA,163149.872,4946.89231,N,06421.84990,W,4,09,0.9,0.83,M,,,1,0004*10
16:31:49.890 [APLA] $GPVTG,30.5,T,,M,2.6,N,4.8,K,D*36
16:31:50.001 [DBG ] $STAT,RECORDING
16:31:49.687 [OCR3] 0000534B
16:31:50.005 [APLA] $UTC,20222,163150.0050
16:31:50.007 [APLA] $GPZDA,163150.0050,02,07,2022,,*64
16:31:50.046 [CTD ]  15.3643,  3.44431,    0.193, 2.6859, 2.5345
16:31:50.142 [OWL ] SEAOWLA2K-0144	3830	116	714	714	1227	451	3998	3998	2589	2589	160	1120	1120
16:31:50.006 [OCR3] 0000534C
16:31:48.998 [OCR2] 0000534D
16:31:50.296 [CTD ]  15.3634,  3.44431,    0.176, 2.6863, 2.5346
16:31:50.546 [CTD ]  15.3625,  3.44444,    0.152, 2.6861, 2.5333
16:31:49.433 [OCR1] 0000534E
16:31:50.313 [OCR3] 0000534F
16:31:50.790 [ECO ] 99/99/99	99:99:99	700	52	595	50	680	48	543
16:31:50.796 [CTD ]  15.3621,  3.44469,    0.142, 2.6858, 2.5343
16:31:50.878 [APLA] $PASHR,163150.872,18.74,T,-4.65,3.43,-0.01,0.019,0.019,0.021,2,1*25
16:31:50.884 [APLA] $GPGGA,163150.872,4946.89307,N,06421.84945,W,4,09,0.9,1.02,M,,,0,0004*1D
16:31:50.890 [APLA] $GPVTG,14.0,T,,M,3.4,N,6.2,K,D*3E
16:31:51.001 [DBG ] $STAT,RECORDING
16:31:51.000 [APLA] $UTC,20220702,163151.0001
16:31:51.003 [APLA] $GPZDA,163151.0001,02,07,2022,,*61
16:31:50.957 [OWL ] SEAOWLA2K-0144	3831	115	711	711	1227	442	3918	3918	2592	2592	159	1115	1115
16:31:51.046 [CTD ]  15.3628,  3.44472,    0.147, 2.6863, 2.5351
16:31:50.734 [OCR3] 00005350
16:31:51.296 [CTD ]  15.3629,  3.44442,    0.156, 2.6851, 2.5359
16:31:51.140 [OCR3] 00005351
16:31:51.546 [CTD ]  15.3629,  3.44454,    0.163, 2.6855, 2.5361
16:31:50.316 [OCR2] 00005352
16:31:51.459 [OCR3] 00005353
16:31:51.772 [OWL ] SEAOWLA2K-0144	3830	114	699	699	1227	460	4093	4093	2590	2590	161	1131	1131
16:31:51.796 [CTD ]  15.3625,  3.44457,    0.174, 2.6852, 2.5363
16:31:50.648 [OCR1] 00005354
16:31:51.878 [APLA] $PASHR,163151.872,25.94-3.68,5.79,0.10,0.019,0.019,0.021,2,1*0C
16:31:51.884 [APLA] $GPGGA,163151.872,4946.89404,N,06421.84907,W,4,09,0.9,1.14,M,,,1,0004*18
16:31:51.890 [APLA] $GPVTG,15.2,T,,M,3.6,N,6.7,K,D*3A
16:31:51.914 [ECO ] 99/99/99	99:99:99	700	52	595	50	680	48	543
16:31:52.001 [DBG ] $STAT,RECORDING
16:31:52.000 [APLA] $UTC,20220702,163152.0001
16:31:52.003 [APLA] $GPZDA,163152.0001,02,07,2022,,*62
16:31:51.768 [OCR3] 00005355
16:31:52.046 [CTD ]  15.3618,  3.44457,    0.185, 2.6850, 2.5356
16:31:52.296 [CTD ]  15.3613,  3.44054,    0.189, 2.6838, 2.5344
16:31:52.086 [OCR3] 00005356
16:31:52.544 [CTD ]  15.3603,  3.44331,    0.197, 2.6843, 2.5343
16:31:52.587 [OWL ] SEAOWLA2K-0144	3830	114	698	698	1226	464	4130	4130	2588	2588	158	1101	1101
16:31:52.395 [OCR3] 00005357
16:31:52.794 [CTD ]  15.3593,  3.44439,    0.202, 2.6832, 2.5337
16:31:51.632 [OCR2] 00005358
16:31:52.878 [APLA] $PASHR,163152.872,31.52,T,-4.96,6.28,0.10,0.019,0.019,0.021,2,1*01
16:31:52.884 [APLA] $GPGGA,163152.872,4946.89496,N,06421.848,W,4,09,0.9,1.18,M,,,1,0004*1B
16:31:52.890 [APLA] $GPVTG,21.0,T,,M,3.4,N,6.4,K,D*3E
16:31:53.001 [DBG ] $STAT,RECORDING
16:31:53.000 [APLA] $UTC,20220702,163153.0001
16:31:53.003 [APLA] $GPZDA,163153.0001,02,07,2022,,*63
16:31:53.037 [ECO ] 99/99/99	99:99:99	700	52	595	50	680	48	543
16:31:51.866 [OCR1] 00005359
16:31:53.044 [CTD ]  15.3588,  3.44442,    0.196, 2.6851, 2.5357
16:31:52.813 [OCR3] 0000535A
16:31:53.294 [CTD ]  15.3581,  3.44444,    0.185, 2.6845, 2.5355
16:31:53.402 [OWL ] SEAOWLA2K-0144	3830	116	718	718	1227	440	3895	3895	2594	2594	160	1123	1123
16:31:53.222 [OCR3] 0000535B
16:31:53.544 [CTD ]  15.3578,  3.44434,    0.177, 2.6843, 2.5346
16:31:53.794 [CTD ]  15.3567,  3.44431,    0.190, 2.6839, 2.5354
16:31:53.541 [OCR3] 0000535C
16:31:53.878 [APLA] $PASHR,163153.872,33.84,T,-3.07,7.61,0.05,0.020,0.020,0.021,2,1*0E
16:31:53.884 [APLA] $GPGGA,163153.872,4946.89581,N,06421.84800,W,4,09,0.9,1.17,M,,,1,0004*13
16:31:53.890 [APLA] $GPVTG,24.6,T,,M,3.1,N,5.7,K,D*38
16:31:54.001 [DBG ] $STAT,RECORDING
16:31:54.000 [APLA] $UTC,20220702,163154.0001
16:31:54.003 [APLA] $GPZDA,163154.0001,02,07,2022,,*64
16:31:52.848 [OCR2] 0000535D
16:31:54.045 [CTD ]  15.3549,  3.44431,    0.187, 2.6845, 2.5351
16:31:53.848 [OCR3] 0000535E
16:31:54.161 [ECO ] 99/99/99	99:99:99	700	52	595	50	680	47	543
16:31:54.218 [OWL ] SEAOWLA2K-0144	3831	113	693	693	1227	448	3972	3972	2590	2590	159	1117	1117
16:31:54.293 [CTD ]  15.3535,  3.44434,    0.191, 2.6837, 2.5357
16:31:53.081 [OCR1] 0000535F
16:31:54.168 [OCR3] 00005360
16:31:54.543 [CTD ]  15.3524,  3.44439,    0.206, 2.6840, 2.5332
16:31:54.793 [CTD ]  15.3517,  3.44414,    0.221, 2.6839, 2.5337
16:31:54.878 [APLA] $PASHR,163154.872,30.47,T,-1.95,5.92,-0.16,0.020,0.020,0.021,2,1*2D
16:31:54.884 [APLA] $GPGGA,163154.872,4946.89642,N,06421.84734,W,4,09,0.9,0.94,M,,,1,0004*1A
16:31:54.890 [APLA] $GPVTG,43.8,T,,M,2.6,N,4.8,K,D*3F
16:31:54.475 [OCR3] 00005361
16:31:55.001 [DBG ] $STAT,RECORDING
16:31:55.000 [APLA] $UTC,20220702,163155.0001
16:31:55.003 [APLA] $GPZDA,163155.0001,02,07,2022,,*65
16:31:55.043 [CTD ]  15.3517,  3.44024,    0.226, 2.6844, 2.5342
16:31:55.033 [OWL ] SEAOWLA2K-0144	3831	116	718	718	1227	468	4163	4163	2591	2591	160	1120	1120
16:31:54.064 [OCR2] 00005362
16:31:54.905 [OCR3] 00005363
16:31:55.285 [ECO ] 99/99/99	99:99:99	700	52	595	50	680	48	543
16:31:55.293 [CTD ]  15.3520,  3.44299,    0.218, 2.6839, 2.5354
16:31:55.543 [CTD ]  15.3520,  3.44429,    0.195, 2.6836, 2.5364
16:31:55.302 [OCR3] 00005364
16:31:54.398 [OCR1] 00005365
16:31:55.793 [CTD ]  15.3519,  3.43721,    0.176, 2.6839, 2.5362
16:31:55.878 [APLA] $PASHR,163155.872,28.17,T,-5.20,4.25,-0.01,0.020,0.020,0.021,2,1*21
16:31:55.884 [APLA] $GPGGA,163155.872,4946.89708,N,06421.84655,W,4,09,0.9,1.05,M,,,0,0004*1A
16:31:55.890 [APLA] $GPVTG,26.9,T,,M,3.4,N,6.2,K,D*36
16:31:55.848 [OWL ] SEAOWLA2K-0144	3830	114	700	700	1227	444	3936	3936	2591	2591	159	1120	1120
16:31:55.621 [OCR3] 00005366
16:31:56.001 [DBG ] $STAT,RECORDING
16:31:56.000 [APLA] $UTC,20220702,163156.0001
16:31:56.003 [APLA] $GPZDA,163156.00,02,07,2022,,*66
16:31:56.043 [CTD ]  15.3518,  3.44419,    0.163, 2.6839, 2.5365
16:31:55.930 [OCR3] 00005367
16:31:56.293 [CTD ]  15.3519,  3.44419,    0.157, 2.6835, 2.5360
16:31:56.409 [ECO ] 99/99/99	99:99:99	700	52	595	50	680	48	543
16:31:55.280 [OCR2] 00005368
16:31:56.248 [OCR3] 00005369
16:31:56.543 [CTD ]  15.3532,  3.44424,    0.149, 2.6857, 2.5355
16:31:56.663 [OWL ] SEAOWLA2K-0144	3830	115	713	713	1226	461	4096	4096	2593	2593	161	1130	1130
16:31:56.793 [CTD ]  15.3550,  3.44429,    0.163, 2.6841, 2.5349
16:31:56.878 [APLA] $PASHR,163156.872,26.74,T,-0.86,7.51,-0.03,0.019,0.019,0.021,2,1*22
16:31:55.714 [OCR1] 0000536A
16:31:56.558 [OCR3] 0000536B
16:31:57.001 [DBG ] $STAT,RECORDING
16:31:56.884 [APLA] $GPGGA,163156.872,4946.89793,N,06421.84590,W,4,0.9,1.04,M,,,1,0004*11
16:31:57.005 [APLA] $GPVTG,29.4,T,,M,3,N,6.0,K,D*30
16:31:57.000 [APLA] $UTC,20220702,163157.0001
16:31:57.035 [CTD ]  15.3564,  3.44426,    0.180, 2.6847, 2.5357
16:31:57.011 [APLA] $GPZDA,163157.0001,02,07,2022,,*67
16:31:57.285 [CTD ]  15.3571,  3.44411,    0.192, 2.6843, 2.5353
16:31:56.975 [OCR3] 0000536C
16:31:57.470 [OWL ] SEAOWLA2K-0144	3830	115	717	717	1227	465	4133	4133	2591	2591	160	1124	1124
16:31:57.524 [ECO ] 99/99/99	99:99:99	700	52	595	50	680	48	543
16:31:57.535 [CTD ]  15.3566,  3.44401,    0.191, 2.6845, 2.5347
16:31:57.376 [OCR3] 0000536D
16:31:56.497 [OCR2] 0000536E
16:31:57.785 [CTD ]  15.3551,  3.44391,    0.179, 2.6838, 2.5332
16:31:57.870 [APLA] $PASHR,163157.872,26.99,T,-3.73,5.63,0.03,0.019,0.019,0.021,2,1*07
16:31:57.876 [APLA] $GPGGA,163157.872,4946.89866,N,06421.845,W,4,09,0.9,1.09,M,,,0,0004*1A
16:31:57.882 [APLA] $GPVTG,23.9,T,,M,3.0,N,5.5,K,D*33
16:31:58.000 [APLA] $UTC,20220702,163158.0001
16:31:57.995 [APLA] $GPZDA,163158.0001,02,07,2022,,*68
16:31:58.012 [DBG ] $STAT,RECORDING
16:31:57.696 [OCR3] 0000536F
16:31:58.056 [CTD ]  15.3540,  3.44404,    0.171, 2.6840, 2.5333
16:31:56.931 [OCR1] 00005370
16:31:58.015 [OCR3] 00005371
16:31:58.303 [CTD ]  15.3528,  3.44401,    0.176, 2.6842, 2.5339
16:31:58.294 [OWL ] SEAOWLA2K-0144	3830	114	704	704	1227	448	3978	3978	2592	2592	159	1108	1108
16:31:58.553 [CTD ]  15.3516,  3.44436,    0.191, 2.6842, 2.5352
16:31:58.331 [OCR3] 00005372
16:31:58.656 [ECO ] 99/99/99	99:99:99	700	52	595	50	680	46	543
16:31:58.803 [CTD ]  15.3507,  3.44449,    0.207, 2.6846, 2.5357
16:31:58.878 [APLA] $PASHR,163158.872,27.39,T,-5.14,4.73,0.08,0.019,0.019,0.021,2,1*0F
16:31:58.884 [APLA] $GPGGA,163158.872,4946.89948,N,06421.84472,W,4,09,0.9,1.16,M,,,1,0004*19
16:31:58.890 [APLA] $GPVTG,20.6,T,,M,3.4,N,6.4,K,D*39
16:31:59.001 [DBG ] $STAT,RECORDING
16:31:59.000 [APLA] $UTC,20220702,163159.0001
16:31:59.003 [APLA] $GPZDA,163159.0001,02,07,2022,,*69
16:31:58.637 [OCR3] 00005373
16:31:59.053 [CTD ]  15.3507,  3.44424,    0.200, 2.6846, 2.5358
16:31:57.806 [OCR2] 00005374
16:31:59.109 [OWL ] SEAOWLA2K-0144	3830	112	681	681	1226	429	3781	3781	2594	2594	158	1107	1107
16:31:59.303 [CTD ]  15.3508,  3.44452,    0.173, 2.6851, 2.5353
16:31:58.146 [OCR1] 00005375
16:31:59.057 [OCR3] 00005376
16:31:59.553 [CTD ]  15.3509,  3.44459,    0.157, 2.6854, 2.5354
16:31:59.465 [OCR3] 00005377
16:31:59.780 [ECO ] 99/99/99	99:99:99	700	52	595	50	680	48	543
16:31:59.803 [CTD ]  15.3500,  3.44457,    0.154, 2.6851, 2.5362
16:31:59.878 [APLA] $PASHR,163159.872,25.22,T,1.59,7.73,-0.07,0.019,0.019,0.021,2,1*07
16:31:59.884 [APLA] $GPGGA,163159.872,4946.90038,N,06421.84414,W,4,09,0.9,1.03,M,,,0,0004*1B
16:31:59.890 [APLA] $GPVTG,30.7,T,,M,3.3,N,6.1,K,D*3B
16:31:59.924 [OWL ] SEAOWLA2K-0144	3830	112	683	683	1227	441	3893	3893	2594	2594	159	1114	1114
16:32:00.009 [DBG ] $STAT,RECORDING
16:32:00.000 [APLA] $UTC,20220702,163200.0001
16:32:00.003 [APLA] $GPZDA,163200.0001,02,07,2022,,*66
16:31:59.783 [OCR3] 00005378
16:32:00.053 [CTD ]  15.3483,  3.44449,    0.166, 2.6845, 2.5364
16:31:59.130 [OCR2] 00005379
16:32:00.303 [CTD ]  15.3468,  3.44436,    0.192, 2.6850, 2.5354
16:32:00.093 [OCR3] 0000537A
16:31:59.363 [OCR1] 0000537B
16:32:00.551 [CTD ]  15.3470,  3.44447,    0.215, 2.6846, 2.5334
16:32:00.410 [OCR3] 0000537C
16:32:00.739 [OWL ] SEAOWLA2K-0144	3829	112	683	683	1226	440	3891	3891	2592	2592	159	1120	1120
16:32:00.801 [CTD ]  15.3478,  3.44381,    0.214, 2.6844, 2.5345
16:32:00.878 [APLA] $PASHR,163200.872,22.89,T,-5.74,3.96,-0.06,0.019,0.019,0.021,2,1*26
16:32:00.884 [APLA] $GPGGA,163200.872,4946.90105,N,06421.84342,W,4,09,0.9,1.01,M,,,1,0004*1C
16:32:00.890 [APLA] $GPVTG,27.4,T,,M,2.9,N,5.5,K,D*32
16:32:00.904 [ECO ] 99/99/99	99:99:99	700	52	595	50	680	47	543
16:32:00.720 [OCR3] 0000537D
16:32:00.347 [OCR2] 0000537F
16:32:00.579 [OCR1] 00005381
19:08:23.004 [DBG ] $STAT,RECORDING
19:08:23.003 [APLA] $UTC,20220702,190823.0037
19:08:23.005 [APLA] $GPZDA,190823.0037,02,07,2022,,*64
19:08:23.184 [CTD ]  14.6924,  3.41877,    0.164, 2.7662, 2.5349
19:08:23.254 [ECO ] 99/99/99	99:99:99	700	50	595	50	680	47	544
19:08:23.434 [CTD ]  14.6919,  3.41884,    0.125, 2.7666, 2.5342
19:08:23.072 [OCR3] 00012025
19:08:23.633 [OWL ] SEAOWLA2K-0144	3838	96	513	513	1243	217	1683	1683	2596	2596	143	956	956
19:08:23.686 [CTD ]  14.6922,  3.41886,    0.144, 2.7666, 2.5353
19:08:23.492 [OCR3] 00012026
19:08:23.946 [APLA] $PASHR,190823.941,131.83,T,-2.15,6.21,0.08,0.019,0.019,0.021,2,1*33
19:08:23.952 [APLA] $GPGGA,190823.941,4946.85525,N,06421.78087,W,4,08,1.0,1.81,M,,,0,0004*11
19:08:23.958 [APLA] $GPVTG,152.5,T,,M,1.5,N,2.8,K,D*05
19:08:23.936 [CTD ]  14.6924,  3.41891,    0.169, 2.7669, 2.5353
19:08:24.004 [DBG ] $STAT,RECORDING
19:08:24.003 [APLA] $UTC,20220702,190824.0037
19:08:24.005 [APLA] $GPZDA,190824.0037,02,07,2022,,*63
19:08:23.902 [OCR3] 00012027
19:08:24.186 [CTD ]  14.6926,  3.41891,    0.167, 2.7666, 2.5357
19:08:23.134 [OCR2] 00012028
19:08:24.377 [ECO ] 99/99/99	99:99:99	700	50	595	50	680	46	544
19:08:24.438 [CTD ]  14.6926,  3.41886,    0.172, 2.7670, 2.5358
19:08:24.445 [OWL ] SEAOWLA2K-0144	3843	94	492	492	1239	213	1638	1638	2596	2596	143	963	963
19:08:23.199 [OCR1] 00012029
19:08:24.222 [OCR3] 0001202A
19:08:24.688 [CTD ]  14.6927,  3.41886,    0.174, 2.7678, 2.5345
19:08:24.530 [OCR3] 0001202B
19:08:24.946 [APLA] $PASHR,190824.941,123.86,T,-1.03,-2.11,-0.16,0.019,0.019,0.021,2,1*3E
19:08:24.952 [APLA] $GPGGA,190824.941,4946.85487,N,06421.78048,W,4,08,1.0,1.58,M,,,0,0004*18
19:08:24.958 [APLA] $GPVTG,142.6,T,,M,2.1,N,3.9,K,D*00
19:08:24.938 [CTD ]  14.6927,  3.41889,    0.176, 2.7674, 2.5349
19:08:25.004 [DBG ] $STAT,RECORDING
19:08:25.003 [APLA] $UTC,20220702,190825.0037
19:08:25.006 [APLA] $GPZDA,190825.0037,02,07,2022,,*62
19:08:24.850 [OCR3] 0001202C
19:08:25.188 [CTD ]  14.6924,  3.41884,    0.156, 2.7669, 2.5342
19:08:25.257 [OWL ] SEAOWLA2K-0144	3838	94	492	492	1244	220	1710	1710	2595	2595	143	960	960
19:08:25.440 [CTD ]  14.6921,  3.41882,    0.182, 2.7673, 2.5339
19:08:25.501 [ECO ] 99/99/99	99:99:99	700	50	595	50	680	47	544
19:08:24.351 [OCR2] 0001202D
19:08:25.160 [OCR3] 0001202E
19:08:24.517 [OCR1] 0001202F
19:08:25.690 [CTD ]  14.6917,  3.41879,    0.196, 2.7666, 2.5338
19:08:25.946 [APLA] $PASHR,190825.941,116.67,T,-2.38,4.06,-0.12,0.019,0.019,0.021,2,1*14
19:08:25.940 [CTD ]  14.6917,  3.41874,    0.192, 2.7669, 2.5344
19:08:25.579 [OCR3] 00012030
19:08:26.004 [DBG ] $STAT,RECORDING
19:08:25.952 [APLA] $GPGGA,190825.941,4946.85444,N,06421.77992,W,4,08,1.0,1.56,M,,,1,0004*18
19:08:26.008 [APLA] $GPVTG,138.8,T,,M,2.0,N,3.7,K,D*0C
19:08:26.003 [APLA] $UTC,20220702,190826.0037
19:08:26.014 [APLA] $GPZDA,190.0037,02,07,2022,,*61
