####################
# TYPE: TEXT
# DATE: 2022/07/08
# TIME: 16:52:54
####################
#
19:10:42.000 [DBG ] $STAT,RECORDING
19:10:42.000 [APLA] $UTC,20220708,191042.0006
19:10:42.002 [APLA] $GPZDA,191042.0006,08,07,2022,,*62
19:10:42.063 [APLA] $PASHR,191042.058,123.48,T,-2.08,7.60,-0.06,0.020,0.020,0.020,2,1*12
19:10:42.069 [APLA] $GPGGA,191042.058,4946.98776,N,06423.85221,W,4,08,1.1,0.82,M,,,1,0004*1A
19:10:42.075 [APLA] $GPVTG,123.1,T,,M,5.1,N,9.5,K,D*01
19:10:42.202 [CTD ]  13.0473,  3.24383,    0.261, 2.9689, 2.5018
19:10:42.457 [CTD ]  13.0519,  3.24723,    0.259, 2.9692, 2.5016
19:10:42.305 [OCR3] 0000CD1C
19:10:42.713 [CTD ]  13.0575,  3.24638,    0.234, 2.9684, 2.5016
19:10:42.727 [OWL ] SEAOWLA2K-0144	3894	112	677	677	1294	209	1602	1602	2608	2608	152	1038	1038
19:10:42.671 [OCR3] 0000CD1D
19:10:43.000 [DBG ] $STAT,RECORDING
19:10:43.000 [APLA] $UTC,20220708,191043.0007
19:10:43.002 [APLA] $GPZDA,191043.0007,08,07,2022,,*62
19:10:42.969 [CTD ]  13.0596,  3.24066,    0.208, 2.9687, 2.5008
19:10:43.063 [APLA] $PASHR,191043.058,121.75,T,-2.25,3.66,0.02,0.020,0.020,0.020,2,1*3B
19:10:43.069 [APLA] $GPGGA,191043.058,4946.98707,N,06423.85036,W,4,08,1.1,0.92,M,,,1,0004*18
19:10:43.054 [ECO ] 99/99/99	99:99:99	700	50	595	50	680	50	547
19:10:43.075 [APLA] $GPVTG,119.8,T,,M,5.0,N,9.3,K,D*06
19:10:42.926 [OCR3] 0000CD1F
19:10:43.225 [CTD ]  13.0577,  3.23947,    0.230, 2.9688, 2.5015
19:10:43.181 [OCR3] 0000CD21
19:10:43.480 [CTD ]  13.0546,  3.23879,    0.264, 2.9687, 2.5024
19:10:43.541 [OWL ] SEAOWLA2K-0144	3894	110	657	657	1295	217	1677	1677	2609	2609	152	1038	1038
19:10:43.446 [OCR3] 0000CD22
19:10:43.735 [CTD ]  13.0517,  3.24040,    0.249, 2.9696, 2.5021
19:10:44.000 [DBG ] $STAT,RECORDING
19:10:44.000 [APLA] $UTC,20220708,191044.0007
19:10:44.002 [APLA] $GPZDA,191044.0007,08,07,2022,,*65
19:10:43.991 [CTD ]  13.0503,  3.24094,    0.213, 2.9693, 2.5013
19:10:43.701 [OCR3] 0000CD23
19:10:44.063 [APLA] $PASHR,191044.058,124.33,T,0.5.68,-0.03,0.020,0.020,0.020,2,1*34
19:10:44.069 [APLA] $GPGGA,191044.058,4946.98634,N,06423.84858,W,4,08,1.1,0.86,M,,,0,0004*1B
19:10:44.076 [APLA] $GPVTG,123.6,T,,M,4.9,N,9.1,K,D*0B
19:10:44.178 [ECO ] 99/99/99	99:99:99	700	50	595	50	680	48	547
19:10:44.247 [CTD ]  13.0505,  3.24106,    0.192, 2.9688, 2.5016
19:10:43.197 [OCR2] 0000CD24
19:10:44.066 [OCR3] 0000CD25
19:10:44.356 [OWL ] SEAOWLA2K-0144	3894	109	652	652	1294	210	1612	1612	2608	2608	153	1052	1052
19:10:43.150 [OCR1] 0000CD26
19:10:44.503 [CTD ]  13.0509,  3.24288,    0.209, 2.9700, 2.5021
19:10:44.421 [OCR3] 0000CD27
19:10:44.758 [CTD ]  13.0525,  3.24316,    0.255, 2.9687, 2.5019
19:10:44.685 [OCR3] 0000CD28
19:10:45.000 [DBG ] $STAT,RECORDING
19:10:45.000 [APLA] $UTC,20220708,191045.0007
19:10:45.002 [APLA] $GPZDA,191045.0007,08,07,2022,,*64
19:10:45.014 [CTD ]  13.0534,  3.24342,    0.255, 2.9695, 2.5022
19:10:45.063 [APLA] $PASHR,191045.058,130.86,T,-1.59,7.69,-0.00,0.020,0.020,0.020,2,1*1D
19:10:45.069 [APLA] $GPGGA,191045.058,4946.98557,N,06423.84686,W,4,08,1.1,0.87,M,,,1,0004*11
19:10:45.183 [APLA] $GPVTG,127.3,T,,M,4.8,N,9.0,K,D*0A
19:10:44.940 [OCR3] 0000CD29
19:10:45.171 [OWL ] SEAOWLA2K-0144	3894	110	656	656	1294	213	1642	1642	2608	2608	153	1050	1050
19:10:45.271 [CTD ]  13.0539,  3.24283,    0.238, 2.9687, 2.5023
19:10:45.301 [ECO ] 99/99/99	99:99:99	700	50	595	50	680	47	547
19:10:45.197 [OCR3] 0000CD2A
19:10:45.527 [CTD ]  13.0540,  3.24325,    0.224, 2.9701, 2.5017
19:10:44.467 [OCR1] 0000CD2B
19:10:44.414 [OCR2] 0000CD2C
19:10:45.459 [OCR3] 0000CD2D
19:10:45.782 [CTD ]  13.0549,  3.24629,    0.226, 2.9687, 2.5007
19:10:46.000 [DBG ] $STAT,RECORDING
19:10:46.000 [APLA] $UTC,20220708,191046.0007
19:10:46.002 [APLA] $GPZDA,191046.0007,08,07,2022,,*67
19:10:45.985 [OWL ] SEAOWLA2K-0144	3894	113	687	687	1295	211	1620	1620	2607	2607	153	1056	1056
19:10:46.063 [APLA] $PASHR,191046.058,137.62,T,-4.16,4.29,0.00,0.020,0.020,0.020,2,1*37
19:10:46.069 [APLA] $GPGGA,191046.058,4946.98476,N,06423.84517,W,4,08,1.1,0.88,M,,,1,0004*14
19:10:46.038 [CTD ]  13.0576,  3.25231,    0.246, 2.9690, 2.5019
19:10:46.076 [APLA] $GPVTG,126.6,T,,M,5.1,N,9.4,K,D*02
19:10:45.814 [OCR3] 0000CD2E
19:10:46.291 [CTD ]  13.0628,  3.25268,    0.253, 2.9688, 2.5023
19:10:46.181 [OCR3] 0000CD2F
19:10:46.425 [ECO ] 99/99/99	99:99:99	700	50	595	50	680	50	547
19:10:46.547 [CTD ]  13.0670,  3.24975,    0.247, 2.9693, 2.5023
19:10:46.436 [OCR3] 0000CD30
19:10:46.802 [CTD ]  13.0680,  3.24804,    0.222, 2.9688, 2.5022
19:10:46.800 [OWL ] SEAOWLA2K-0144	3894	111	667	667	1294	213	1639	1639	2608	2608	153	1051	1051
19:10:45.684 [OCR1] 0000CD31
19:10:46.692 [OCR3] 0000CD32
19:10:47.000 [DBG ] $STAT,RECORDING
19:10:47.000 [APLA] $UTC,20220708,191047.0007
19:10:47.002 [APLA] $GPZDA,191047.0007,08,07,2022,,*66
19:10:45.731 [OCR2] 0000CD33
19:10:47.063 [APLA] $PASHR,191047.058,145.31,T,-1.90,7.05,0.05,0.020,0.020,0.020,2,1*36
19:10:47.069 [APLA] $GPGGA,191047.058,4946.98388,N,06423.84350,W,4,08,1.1,0.93,M,,,0,0004*1
19:10:47.076 [APLA] $GPVTG,131.1,T,,M,4.9,N,9.1,K,D*0F
19:10:47.058 [CTD ]  13.0674,  3.25453,    0.219, 2.9694, 2.5022
19:10:46.958 [OCR3] 0000CD34
19:10:47.314 [CTD ]  13.0697,  3.25212,    0.235, 2.9696, 2.5021
19:10:47.549 [ECO ] 99/99/99	99:99:99	700	50	595	50	680	47	547
19:10:47.213 [OCR3] 0000CD35
19:10:47.569 [CTD ]  13.0691,  3.24996,    0.257, 2.9702, 2.5019
19:10:47.615 [OWL ] SEAOWLA2K-0144	3894	113	682	682	1295	210	1616	1616	2609	2609	152	1048	1048
19:10:47.826 [CTD ]  13.0677,  3.24987,    0.262, 2.9699, 2.5018
19:10:47.580 [OCR3] 0000CD36
19:10:48.000 [DBG ] $STAT,RECORDING
19:10:48.000 [APLA] $UTC,20220708,191048.0007
19:10:48.002 [APLA] $GPZDA,191048.0007,,07,2022,,*69
19:10:48.063 [APLA] $PASHR,191048.058,148.16,T,-2.51,4.04,0.06,0.020,0.020,0.020,1,1*3D
19:10:48.069 [APLA] $GPGGA,191048.058,4946.98297,N,06423.84208,W,4,08,1.1,0.97,M,,,1,0004*14
19:10:48.076 [APLA] $GPVTG,139.2,T,,M,4.6,N,8.5,K,D*0E
19:10:46.901 [OCR1] 0000CD37
19:10:48.079 [CTD ]  13.0680,  3.25400,    0.246, 2.9692, 2.5024
19:10:47.932 [OCR3] 0000CD38
19:10:47.048 [OCR2] 0000CD39
19:10:48.335 [CTD ]  13.0707,  3.25369,    0.242, 2.9702, 2.5017
19:10:48.198 [OCR3] 0000CD3A
19:10:48.429 [OWL ] SEAOWLA2K-0144	3894	110	657	657	1295	217	1679	1679	2609	2609	153	1048	1048
19:10:48.591 [CTD ]  13.0735,  3.25367,    0.259, 2.9698, 2.5024
19:10:48.673 [ECO ] 99/99/99	99:99:99	700	50	595	50	680	47	547
19:10:48.452 [OCR3] 0000CD3B
19:10:48.848 [CTD ]  13.0741,  3.25341,    0.277, 2.9709, 2.5015
19:10:48.706 [OCR3] 0000CD3C
19:10:49.000 [DBG ] $STAT,RECORDING
19:10:49.000 [APLA] $UTC,20220708,191049.0007
19:10:49.002 [APLA] $GPZDA,191049.0007,08,07,2022,,*68
19:10:49.063 [APLA] $PASHR,191049.058,143.45,T,-3.28,5.97,-0.01,0.020,0.020,0.020,2,1*1C
19:10:49.069 [APLA] $GPGGA,191049.058,4946.98199,N,06423.84088,W,4,08,1.1,0.89,M,,,1,0004*1D
19:10:49.076 [APLA] $GPVTG,141.8,T,,M,4.6,N,8.5,K,D*0B
19:10:49.102 [CTD ]  13.0735,  3.25529,    0.266, 2.9718, 2.5007
19:10:49.244 [OWL ] SEAOWLA2K-0144	3894	111	670	670	1295	207	1586	1586	2609	2609	152	1046	1046
19:10:48.971 [OCR3] 0000CD3D
19:10:48.120 [OCR1] 0000CD3E
19:10:49.357 [CTD ]  13.0741,  3.25332,    0.237, 2.9703, 2.5010
19:10:48.265 [OCR2] 0000CD3F
19:10:49.613 [CTD ]  13.0727,  3.24489,    0.232, 2.9700, 2.5016
19:10:49.326 [OCR3] 0000CD40
19:10:49.796 [ECO ] 99/99/99	99:99:99	700	50	595	50	680	47	547
19:10:49.869 [CTD ]  13.0693,  3.24982,    0.259, 2.9706, 2.5015
19:10:49.693 [OCR3] 0000CD41
19:10:50.000 [DBG ] $STAT,RECORDING
19:10:50.000 [APLA] $UTC,20220708,191050.0007
19:10:50.003 [APLA] $GPZDA,191050.0007,08,07,2022,,*60
19:10:50.063 [APLA] $PASHR,191050.058,132.87,T,-3.60,7.14,-0.15,0.020,0.020,0.020,1,1*1F
19:10:50.069 [APLA] $GPGGA,191050.058,4946.98100,N,06423.83952,W,4,08,1.1,0.72,M,,,0,0004*19
19:10:50.075 [APLA] $GPVTG,134.5,T,,M,5.0,N,9.2,K,D*05
19:10:50.059 [OWL ] SEAOWLA2K-0144	3894	110	655	655	1294	216	1669	1669	2609	2609	154	1062	1062
19:10:50.123 [CTD ]  13.0679,  3.25170,    0.291, 2.9711, 2.5020
19:10:49.947 [OCR3] 0000CD42
19:10:50.379 [CTD ]  13.0680,  3.24999,    0.280, 2.9703, 2.5013
19:10:50.202 [OCR3] 0000CD43
19:10:49.336 [OCR1] 0000CD44
19:10:50.633 [CTD ]  13.0668,  3.24313,    0.250, 2.9709, 2.5006
19:10:49.482 [OCR2] 0000CD45
19:10:50.468 [OCR3] 0000CD46
19:10:50.889 [CTD ]  13.0630,  3.23935,    0.217, 2.9709, 2.5013
19:10:50.873 [OWL ] SEAOWLA2K-0144	3894	110	655	655	1294	209	1607	1607	2608	2608	155	1074	1074
19:10:50.920 [ECO ] 99/99/99	99:99:99	700	50	595	50	680	46	547
19:10:51.000 [DBG ] $STAT,RECORDING
19:10:51.000 [APLA] $UTC,20220708,191051.0007
19:10:51.003 [APLA] $GPZDA,191051.0007,08,07,2022,,*61
19:10:51.063 [APLA] $PASHR,191051.058,122.78,T,-1.47,6.56,0.09,0.020,0.020,0.020,2,1*3C
19:10:51.069 [APLA] $GPGGA,191051.058,4946.98013,N,06423.83793,W,4,08,1.1,0.95,M,,,1,0004*10
19:10:51.076 [APLA] $GPVTG,126.0,T,,M,4.8,N,8.8,K,D*01
19:10:50.723 [OCR3] 0000CD47
19:10:51.145 [CTD ]  13.0581,  3.23464,    0.213, 2.9719, 2.5021
19:10:51.091 [OCR3] 0000CD48
19:10:51.402 [CTD ]  13.0524,  3.22936,    0.217, 2.9712, 2.5019
19:10:51.658 [CTD ]  13.0458,  3.22608,    0.202, 2.9717, 2.5024
19:10:51.443 [OCR3] 0000CD49
19:10:51.688 [OWL ] SEAOWLA2K-0144	3894	110	657	657	1295	208	1596	1596	2609	2609	156	1079	1079
19:10:50.699 [OCR2] 0000CD4A
19:10:51.914 [CTD ]  13.0401,  3.22249,    0.216, 2.9712, 2.5031
19:10:51.708 [OCR3] 0000CD4B
19:10:50.654 [OCR1] 0000CD4C
19:10:52.000 [DBG ] $STAT,RECORDING
19:10:52.000 [APLA] $UTC,20220708,191052.0007
19:10:52.003 [APLA] $GPZDA,191052.0007,08,07,2022,,*62
19:10:52.063 [APLA] $PASHR,191052.058,112.13,T,-1.64,4.84,0.09,0.020,0.020,0.020,2,1*3D
19:10:52.044 [ECO ] 99/99/99	99:99:99	700	50	595	50	680	49	547
19:10:52.069 [APLA] $GPGGA,191052.058,4946.97945,N,06423.83626,W,4,08,1.1,0.99,M,,,1,0004*15
19:10:52.076 [APLA] $GPVTG,119.7,T,,M,4.6,N,8.6,K,D*0A
19:10:51.963 [OCR3] 0000CD4D
19:10:52.171 [CTD ]  13.0360,  3.22246,    0.236, 2.9700, 2.5020
19:10:52.427 [CTD ]  13.0328,  3.21855,    0.248, 2.9699, 2.5025
19:10:52.216 [OCR3] 0000CD4E
19:10:52.503 [OWL ] SEAOWLA2K-0144	3894	110	658	658	1295	209	1604	1604	2609	2609	155	1070	1070
19:10:52.683 [CTD ]  13.0295,  3.21656,    0.244, 2.9700, 2.5023
19:10:52.485 [OCR3] 0000CD4F
19:10:52.939 [CTD ]  13.0264,  3.21524,    0.227, 2.9694, 2.5019
19:10:53.000 [DBG ] $STAT,RECORDING
19:10:53.000 [APLA] $UTC,20220708,191053.0008
19:10:53.003 [APLA] $GPZDA,191053.0008,08,07,2022,,*6C
19:10:53.063 [APLA] $PASHR,191053.058,101.76,T,-1.12,4.69,-0.08,0.020,0.020,0.020,2,1*13
19:10:53.069 [APLA] $GPGGA,191053.058,4946.97891,N,06423.83445,W,4,08,1.1,0.82,M,,,1,0004*11
19:10:53.076 [APLA] $GPVTG,110.9,T,,M,4.9,N,9.1,K,D*04
19:10:51.971 [OCR1] 0000CD50
19:10:53.168 [ECO ] 99/99/99	99:99:99	700	50	595	50	680	49	547
19:10:52.835 [OCR3] 0000CD51
19:10:51.916 [OCR2] 0000CD52
19:10:53.197 [CTD ]  13.0243,  3.21413,    0.227, 2.9691, 2.5015
19:10:53.317 [OWL ] SEAOWLA2K-0144	3894	114	695	695	1295	211	1624	1624	2609	2609	155	1068	1068
19:10:53.200 [OCR3] 0000CD53
19:10:53.452 [CTD ]  13.0226,  3.21216,    0.231, 2.9693, 2.5024
19:10:53.454 [OCR3] 0000CD54
19:10:53.710 [CTD ]  13.0211,  3.20978,    0.231, 2.9698, 2.5026
19:10:53.708 [OCR3] 0000CD55
19:10:54.000 [DBG ] $STAT,RECORDING
19:10:54.000 [APLA] $UTC,20220708,191054.0008
19:10:54.003 [APLA] $GPZDA,191054.0008,08,07,2022,,*6B
19:10:53.966 [CTD ]  13.0197,  3.20960,    0.243, 2.9693, 2.5023
19:10:54.063 [APLA] $PASHR,191054.058,92.74,T,-1.41,6.73,-0.07,0.020,0.020,0.020,2,1*2D
19:10:54.069 [APLA] $GPGGA,191054.058,4946.97846,N,06423.83248,W,4,08,1.1,0.80,M,,,1,0004*15
19:10:54.076 [APLA] $GPVTG,107.6,T,,M,4.9,N,9.0,K,D*0C
19:10:54.132 [OWL ] SEAOWLA2K-0144	3894	113	689	689	1294	211	1625	1625	2608	2608	153	1053	1053
19:10:53.973 [OCR3] 0000CD56
19:10:54.223 [CTD ]  13.0189,  3.21071,    0.245, 2.9684, 2.5013
19:10:54.291 [ECO ] 99/99/99	99:99:99	700	50	595	50	680	46	547
19:10:53.188 [OCR1] 0000CD57
19:10:54.479 [CTD ]  13.0180,  3.21653,    0.242, 2.9674, 2.5017
19:10:53.234 [OCR2] 0000CD58
19:10:54.227 [OCR3] 0000CD59
19:10:54.735 [CTD ]  13.0194,  3.22393,    0.230, 2.9681, 2.5023
19:10:54.594 [OCR3] 0000CD5A
19:10:55.000 [DBG ] $STAT,RECORDING
19:10:55.000 [APLA] $UTC,20220708,191055.0008
19:10:55.003 [APLA] $GPZDA,191055.0008,08,07,2022,,*6A
19:10:54.946 [OWL ] SEAOWLA2K-0144	3894	112	676	676	1295	211	1619	1619	2609	2609	155	1074	1074
19:10:54.991 [CTD ]  13.0241,  3.23488,    0.229, 2.9681, 2.5025
19:10:55.063 [APLA] $PASHR,191055.058,84.52,T,-3.69,4.20,0.14,0.020,0.020,0.021,2,1*0D
19:10:55.069 [APLA] $GPGGA,191055.058,4946.97817,N,06423.83055,W,4,08,1.1,1.03,M,,,1,0004*14
19:10:55.076 [APLA] $GPVTG,95.5,T,,M,4.6,N,8.6,K,D*3D
19:10:54.949 [OCR3] 0000CD5B
19:10:55.248 [CTD ]  13.0320,  3.23627,    0.221, 2.9678, 2.5017
19:10:55.415 [ECO ] 99/99/99	99:99:99	700	50	595	50	680	48	547
19:10:55.214 [OCR3] 0000CD5C
19:10:55.504 [CTD ]  13.0376,  3.23266,    0.208, 2.9671, 2.5022
19:10:54.404 [OCR1] 0000CD5D
19:10:55.469 [OCR3] 0000CD5E
19:10:54.550 [OCR2] 0000CD5F
19:10:55.760 [CTD ]  13.0388,  3.21894,    0.212, 2.9657, 2.5019
19:10:55.761 [OWL ] SEAOWLA2K-0144	3894	113	683	683	1295	211	1622	1622	2609	2609	156	1082	1082
19:10:55.724 [OCR3] 0000CD60
19:10:56.000 [DBG ] $STAT,RECORDING
19:10:56.000 [APLA] $UTC,20220708,191056.0008
19:10:56.003 [APLA] $GDA,191056.0008,08,07,2022,,*69
19:10:56.016 [CTD ]  13.0349,  3.21535,    0.232, 2.9667, 2.5013
19:10:56.063 [APLA] $PASHR,191056.058,78.45,T,-1.13,6.82,-0.02,0.020,0.020,0.021,2,1*24
19:10:56.069 [APLA] $GPGGA,191056.058,4946.97811,N,06423.82849,W,4,08,1.1,0.88,M,,,1,0004*17
19:10:56.076 [APLA] $GPVTG,90.8,T,,M,4.9,N,9.1,K,D*3C
19:10:56.273 [CTD ]  13.0320,  3.22409,    0.244, 2.9677, 2.5011
19:10:55.990 [OCR3] 0000CD61
19:10:56.539 [ECO ] 99/99/99	99:99:99	700	50	595	50	680	49	547
19:10:56.529 [CTD ]  13.0347,  3.22530,    0.242, 2.9667, 2.5005
19:10:56.576 [OWL ] SEAOWLA2K-0144	3894	116	723	723	1295	213	1640	1640	2610	2610	150	1024	1024
19:10:56.344 [OCR3] 0000CD62
19:10:56.785 [CTD ]  13.0377,  3.22548,    0.237, 2.9662, 2.5009
19:10:55.620 [OCR1] 0000CD63
19:10:56.708 [OCR3] 0000CD64
19:10:55.768 [OCR2] 0000CD65
19:10:57.000 [DBG ] $STAT,RECORDING
19:10:57.000 [APLA] $UTC,20220708,191057.0008
19:10:57.003 [APLA] $GPZDA,191057.0008,08,07,2022,,*68
19:10:57.063 [APLA] $PASHR,191057.058,69.65,T,-2.51,4.52,-0.03,0.020,0.020,0.021,2,1*2C
19:10:57.069 [APLA] $GPGGA,191057.058,4946.97810,N,06423.82642,W,4,08,1.1,0.88,M,,,0,0004*13
19:10:57.076 [APLA] $GPVTG,89.5,T,,M,4.8,N,8.8,K,D*30
19:10:57.041 [CTD ]  13.0392,  3.22885,    0.228, 2.9657, 2.5020
19:10:56.962 [OCR3] 0000CD66
19:10:57.298 [CTD ]  13.0407,  3.22994,    0.245, 2.9651, 2.5017
19:10:57.390 [OWL ] SEAOWLA2K-0144	3894	113	679	679	1295	208	1591	1591	2609	2609	155	1073	1073
19:10:57.217 [OCR3] 0000CD67
19:10:57.557 [CTD ]  13.0413,  3.22548,    0.265, 2.9658, 2.5025
19:10:57.662 [ECO ] 99/99/99	99:99:99	700	50	595	50	680	47	547
19:10:57.482 [OCR3] 0000CD68
19:10:57.810 [CTD ]  13.0401,  3.22404,    0.269, 2.9656, 2.5021
19:10:58.000 [DBG ] $STAT,RECORDING
19:10:58.000 [APLA] $UTC,20220708,191058.0008
19:10:58.003 [APLA] $GPZDA,191058.0008,08,07,2022,,*67
19:10:58.063 [APLA] $PASHR,191058.058,52.50,T,-3.41,4.91,0.01,0.020,0.020,0.021,2,1*0D
19:10:58.069 [APLA] $GPGGA,191058.058,4946.97814,N,06423.82450,W,4,08,1.1,0.91,M,,,1,0004*10
19:10:57.736 [OCR3] 0000CD69
19:10:58.066 [CTD ]  13.0392,  3.22267,    0.262, 2.9665, 2.5003
19:10:56.837 [OCR1] 0000CD6A
19:10:58.075 [APLA] $GPVTG,83.8,T,,M,4.2,N,7.8,K,D*32
19:10:56.985 [OCR2] 0000CD6B
19:10:58.205 [OWL ] SEAOWLA2K-0144	3894	110	656	656	1294	210	1613	1613	2608	2608	153	1053	1053
19:10:58.323 [CTD ]  13.0380,  3.21760,    0.255, 2.9658, 2.5014
19:10:58.101 [OCR3] 0000CD6C
19:10:58.579 [CTD ]  13.0360,  3.21408,    0.248, 2.9659, 2.5016
19:10:58.457 [OCR3] 0000CD6D
19:10:58.786 [ECO ] 99/99/99	99:99:99	700	50	595	50	680	49	547
19:10:58.835 [CTD ]  13.0337,  3.20909,    0.252, 2.9653, 2.5018
19:10:58.723 [OCR3] 0000CD6E
19:10:59.000 [DBG ] $STAT,RECORDING
19:10:59.000 [APLA] $UTC,20220708,191059.0008
19:10:59.003 [APLA] $GPZDA,191059.0008,08,07,22,,*66
19:10:59.063 [APLA] $PASHR,191059.058,32.59,T,-1.38,6.04,-0.06,0.020,0.020,0.021,2,1*2B
19:10:59.069 [APLA] $GPGGA,191059.058,4946.97836,N,06423.82268,W,4,08,1.1,0.82,M,,,1,0004*1E
19:10:59.076 [APLA] $GPVTG,73.2,T,,M,4.1,N,7.6,K,D*3A
19:10:59.020 [OWL ] SEAOWLA2K-0144	3894	111	668	668	1294	216	1676	1676	2610	2610	156	1079	1079
19:10:59.093 [CTD ]  13.0312,  3.20844,    0.252, 2.9658, 2.5023
19:10:58.978 [OCR3] 0000CD6F
19:10:59.348 [CTD ]  13.0308,  3.21697,    0.256, 2.9653, 2.5020
19:10:58.201 [OCR2] 0000CD70
19:10:58.154 [OCR1] 0000CD71
19:10:59.233 [OCR3] 0000CD72
19:10:59.604 [CTD ]  13.0334,  3.22195,    0.258, 2.9654, 2.5018
19:10:59.500 [OCR3] 0000CD73
19:10:59.834 [OWL ] SEAOWLA2K-0144	3894	113	686	686	1295	211	1623	1623	2609	2609	152	1044	1044
19:10:59.862 [CTD ]  13.0369,  3.22383,    0.250, 2.9653, 2.5010
19:10:59.910 [ECO ] 99/99/99	99:99:99	700	50	595	50	680	48	547
19:11:00.000 [DBG ] $STAT,RECORDING
19:11:00.000 [APLA] $UTC,20220708,191100.0008
19:11:00.003 [APLA] $GPZDA,191100.0008,08,07,2022,,*6B
19:11:00.063 [APLA] $PASHR,191100.058,10.13,T,-1.39,4.56,0.10,0.020,0.020,0.021,1,1*05
19:11:00.069 [APLA] $GPGGA,191100.058,4946.97878,N,06423.82121,W,4,08,1.1,1.00,M,,,0,0004*1D
19:11:00.076 [APLA] $GPVTG,55.3,T,,M,3.4,N,6.3,K,D*39
19:11:00.117 [CTD ]  13.0393,  3.22105,    0.239, 2.9651, 2.5012
19:10:59.855 [OCR3] 0000CD74
19:11:00.363 [CTD ]  13.0399,  3.21690,    0.227, 2.9663, 2.5017
19:11:00.219 [OCR3] 0000CD75
19:11:00.619 [CTD ]  13.0392,  3.21438,    0.217, 2.9652, 2.5019
19:10:59.472 [OCR1] 0000CD76
19:11:00.649 [OWL ] SEAOWLA2K-0144	3894	112	675	675	1295	213	1646	1646	2608	2608	155	1073	1073
19:11:00.473 [OCR3] 0000CD77
19:10:59.418 [OCR2] 0000CD78
19:11:00.875 [CTD ]  13.0380,  3.21584,    0.229, 2.9659, 2.5025
19:11:00.727 [OCR3] 0000CD79
19:11:01.000 [DBG ] $STAT,RECORDING
19:11:01.000 [APLA] $UTC,20220708,191101.0008
19:11:01.003 [APLA] $GPZDA,191101.0008,08,07,202*6A
19:11:01.034 [ECO ] 99/99/99	99:99:99	700	50	595	50	680	48	547
19:11:01.063 [APLA] $PASHR,1901.058,350.78,T,1.03,7.26,-0.09,0.020,0.020,0.021,2,1*38
19:11:01.069 [APLA] $GPGGA,191101.058,4946.97937,N,06423.82004,W,4,08,1.1,0.81,M,,,1,0004*19
19:11:01.076 [APLA] $GPVTG,50.5,T,,M,3.2,N,5.9,K,D*35
19:11:01.131 [CTD ]  13.0365,  3.21605,    0.245, 2.9658, 2.5023
19:11:00.992 [OCR3] 0000CD7A
19:11:01.389 [CTD ]  13.0348,  3.21491,    0.244, 2.9651, 2.5013
19:11:01.464 [OWL ] SEAOWLA2K-0144	3894	112	676	676	1295	215	1656	1656	2608	2608	155	1068	1068
19:11:01.246 [OCR3] 0000CD7B
19:11:01.644 [CTD ]  13.0336,  3.21656,    0.235, 2.9661, 2.5008
19:11:00.689 [OCR1] 0000CD7C
19:11:01.902 [CTD ]  13.0338,  3.21883,    0.229, 2.9662, 2.5018
19:11:01.611 [OCR3] 0000CD7D
19:11:02.000 [DBG ] $STAT,RECORDING
19:11:02.000 [APLA] $UTC,20220708,191102.0009
19:11:02.003 [APLA] $GPZDA,191102.0009,08,07,2022,,*68
19:11:00.735 [OCR2] 0000CD7E
19:11:02.063 [APLA] $PASHR,191102.058,336.67,T,-2.54,4.840.03,0.020,0.020,0.021,2,1*18
19:11:02.069 [APLA] $GPGGA,191102.058,4946.97991,N,06423.81921,W,4,08,1.1,0.85,M,,,1,0004*1F
19:11:02.076 [APLA] $GPVTG,32.6,T,,M,2.4,N,4.4,K,D*39
19:11:02.157 [ECO ] 99/99/99	99:99:99	700	50	595	50	680	50	547
19:11:02.158 [CTD ]  13.0348,  3.21885,    0.229, 2.9650, 2.5017
19:11:01.965 [OCR3] 0000CD7F
19:11:02.278 [OWL ] SEAOWLA2K-0144	3894	112	674	674	1295	211	1627	1627	2610	2610	153	1052	1052
19:11:02.414 [CTD ]  13.0353,  3.21538,    0.231, 2.9638, 2.5022
19:11:02.231 [OCR3] 0000CD80
19:11:02.671 [CTD ]  13.0351,  3.21434,    0.238, 2.9649, 2.5024
19:11:02.485 [OCR3] 0000CD81
19:11:02.927 [CTD ]  13.0350,  3.21237,    0.249, 2.9617, 2.5022
19:11:03.000 [DBG ] $STAT,RECORDING
19:11:03.000 [APLA] $UTC,20220708,191103.0009
19:11:03.003 [APLA] $GPZDA,191103009,08,07,2022,,*69
19:11:02.739 [OCR3] 0000CD82
19:11:03.063 [APLA] $PASHR,103.058,324.65,T,-1.38,4.66,-0.02,0.020,0.020,0.021,2,1*1C
19:11:03.069 [APLA] $GPGGA,191103.058,4946.98049,N,06423.81886,W,4,08,1.1,0.85,M,,,0,0004*10
19:11:03.076 [APLA] $GPG,9.9,T,,M,2.1,N,4.0,K,D*0F
19:11:01.905 [OCR1] 0000CD83
19:11:03.093 [OWL ] SEAOWLA2K-0144	3894	112	675	675	1295	216	1664	1664	2609	2609	149	1016	1016
19:11:03.183 [CTD ]  13.0355,  3.21510,    0.255, 2.9602, 2.5021
19:11:02.053 [OCR2] 0000CD84
19:11:03.281 [ECO ] 99/99/99	99:99:99	700	50	595	50	680	48	547
19:11:03.012 [OCR3] 0000CD85
19:11:03.440 [CTD ]  13.0385,  3.23455,    0.250, 2.9608, 2.5013
19:11:03.360 [OCR3] 0000CD86
19:11:03.696 [CTD ]  13.0493,  3.24975,    0.236, 2.9579, 2.5020
19:11:03.908 [OWL ] SEAOWLA2K-0144	3894	111	666	666	1294	213	1649	1649	2608	2608	153	1053	1053
19:11:03.725 [OCR3] 0000CD87
19:11:03.950 [CTD ]  13.0637,  3.25740,    0.227, 2.9611, 2.5023
19:11:04.000 [DBG ] $STAT,RECORDING
19:11:04.000 [APLA] $UTC,20220708,191104.0009
19:11:04.003 [APLA] $GPZDA,191104.0009,08,07,2022,,*6E
19:11:04.063 [APLA] $PASHR,191104.058,312.88,T,-0.03,4.46,0.06,0.020,0.020,0.021,1,1*3C
19:11:04.069 [APLA] $GPGGA,191104.058,4946.98110,N,06423.81887,W,4,08,1.1,0.93,M,,,1,0004*1D
19:11:04.076 [APLA] $GPVTG,352.7,T,,M,2.2,N,4.2,K,D*0D
19:11:03.980 [OCR3] 0000CD88
19:11:04.206 [CTD ]  13.0760,  3.26476,    0.231, 2.9591, 2.5021
19:11:03.124 [OCR1] 0000CD89
19:11:04.405 [ECO ] 99/99/99	99:99:99	700	50	595	50	680	49	547
19:11:03.269 [OCR2] 0000CD8A
19:11:04.235 [OCR3] 0000CD8B
19:11:04.461 [CTD ]  13.0859,  3.25977,    0.234, 2.9603, 2.5025
19:11:04.501 [OCR3] 0000CD8C
19:11:04.715 [CTD ]  13.0882,  3.25008,    0.222, 2.9618, 2.5015
19:11:04.722 [OWL ] SEAOWLA2K-0144	3895	111	664	664	1295	213	1645	1645	2609	2609	152	1039	1039
19:11:05.000 [DBG ] $STAT,RECORDING
19:11:05.000 [APLA] $UTC,20220708,191105.0009
19:11:05.003 [APLA] $GPZDA,191105.0009,08,07,2022,,*6F
19:11:04.971 [CTD ]  13.0842,  3.24945,    0.215, 2.9585, 2.5010
19:11:05.063 [APLA] $PASHR,191105.058,300.41,T,-1.21,6.36,0.05,0.020,0.020,0.021,2,1*3F
19:11:05.069 [APLA] $GPGGA,191105.058,4946.98171,N,06423.81907,W,4,08,1.1,0.94,M,,,1,0004*15
19:11:05.076 [APLA] $GPVTG,342.8,T,,M,2.1,N,3.9,K,D*0C
19:11:04.755 [OCR3] 0000CD8D
19:11:05.227 [CTD ]  13.0811,  3.24608,    0.220, 2.9617, 2.5016
19:11:05.119 [OCR3] 0000CD8E
19:11:05.483 [CTD ]  13.0776,  3.24052,    0.233, 2.9585, 2.5021
19:11:05.528 [ECO ] 99/99/99	99:99:99	700	50	595	50	680	48	547
19:11:05.537 [OWL ] SEAOWLA2K-0144	3895	108	637	637	1295	214	1658	1658	2609	2609	153	1053	1053
19:11:04.341 [OCR1] 0000CD8F
19:11:04.486 [OCR2] 0000CD90
19:11:05.473 [OCR3] 0000CD91
19:11:05.738 [CTD ]  13.0725,  3.23366,    0.250, 2.9587, 2.5022
19:11:05.738 [OCR3] 0000CD92
19:11:06.000 [DBG ] $STAT,RECORDING
19:11:06.000 [APLA] $UTC,20220708,191106.0009
19:11:06.003 [APLA] $GPZDA,191106.0009,08,07,2022,,C
19:11:05.994 [CTD ]  13.0660,  3.23227,    0.258, 2.9599, 2.5021
19:11:06.063 [APLA] $PASHR,1906.058,290.21,T,-2.26,5.38,-0.05,0.020,0.020,0.021,2,1*16
19:11:06.069 [APLA] $GPGGA,191106.058,4946.98216,N,06423.81945,W,4,08,1.1,0.84,M,,,0,0004*12
19:11:06.076 [APLA] $GPVTG,318.3,T,,M,1.6,N,2.9,K,D*0D
19:11:05.992 [OCR3] 0000CD93
19:11:06.253 [CTD ]  13.0621,  3.23807,    0.245, 2.9615, 2.5017
19:11:06.352 [OWL ] SEAOWLA2K-0144	3895	109	644	644	1295	217	1682	1682	2609	2609	152	1044	1044
19:11:06.246 [OCR3] 0000CD94
19:11:06.506 [CTD ]  13.0621,  3.23169,    0.227, 2.9595, 2.5022
19:11:06.652 [ECO ] 99/99/99	99:99:99	700	50	595	50	680	45	547
19:11:06.763 [CTD ]  13.0595,  3.23131,    0.218, 2.9592, 2.5016
19:11:06.511 [OCR3] 0000CD95
19:11:05.703 [OCR2] 0000CD96
19:11:05.657 [OCR1] 0000CD97
19:11:07.000 [DBG ] $STAT,RECORDING
19:11:07.000 [APLA] $UTC,202708,191107.0009
19:11:07.003 [APLA] $GPZDA,191107.0009,08,07,2022,,*6D
19:11:07.019 [CTD ]  13.0570,  3.22952,    0.234, 2.9594, 2.5024
19:11:07.063 [APLA] $PASHR,191107.058,282.65,T,-0.90,4.05,-0.03,0.020,0.020,0.021,2,1*12
19:11:07.069 [APLA] $GPGGA,191107.058,4946.98243,N,06423.82002,W,4,07,1.3,0.84,M,,,1,0004*16
19:11:07.076 [APLA] $GPVTG,294.7,T,,M,1.7,N,3.2,K,D*07
19:11:06.865 [OCR3] 0000CD98
19:11:07.166 [OWL ] SEAOWLA2K-0144	3895	110	659	659	1295	209	1602	1602	2609	2609	152	1039	1039
19:11:07.275 [CTD ]  13.0548,  3.23115,    0.257, 2.9588, 2.5021
19:11:07.232 [OCR3] 0000CD99
19:11:07.531 [CTD ]  13.0539,  3.22894,    0.252, 2.9596, 2.5018
19:11:07.487 [OCR3] 0000CD9A
19:11:07.776 [ECO ] 99/99/99	99:99:99	700	50	595	50	680	48	547
19:11:07.786 [CTD ]  13.0523,  3.22831,    0.216, 2.9589, 2.5004
19:11:08.000 [DBG ] $STAT,RECORDING
19:11:08.000 [APLA] $UTC,20220708,191108.0009
19:11:08.003 [APLA] $GPZDA,191108.0009,08,07,2022,,*62
19:11:07.742 [OCR3] 0000CD9B
19:11:07.981 [OWL ] SEAOWLA2K-0144	3895	108	638	638	1296	211	1626	1626	2609	2609	151	1032	1032
19:11:08.063 [APLA] $PASHR,191108.058,278.64,T,1.45,4.85,0.14,0.020,020,0.021,2,1*1E
19:11:08.069 [APLA] $GPGGA,191108.058,4946.98268,N,06423.82087,W,4,07,1.3,1.03,M,,,1,0004*13
19:11:08.032 [CTD ]  13.0515,  3.22954,    0.169, 2.9595, 2.5010
19:11:08.076 [APLA] $GPVTG,292.6,T,,M,2.4,N,4.5,K,D*00
19:11:06.974 [OCR1] 0000CD9C
19:11:06.920 [OCR2] 0000CD9D
19:11:08.012 [OCR3] 0000CD9E
19:11:08.288 [CTD ]  13.0519,  3.23206,    0.147, 2.9603, 2.5023
19:11:08.544 [CTD ]  13.0540,  3.23106,    0.178, 2.9586, 2.5023
19:11:08.264 [OCR3] 0000CD9F
19:11:08.800 [CTD ]  13.0547,  3.22848,    0.235, 2.9615, 2.5017
19:11:08.796 [OWL ] SEAOWLA2K-0144	3895	112	674	674	1295	211	1617	1617	2608	2608	151	1036	1036
19:11:08.899 [ECO ] 99/99/99	99:99:99	700	50	595	50	680	48	547
19:11:08.628 [OCR3] 0000CDA0
19:11:09.000 [DBG ] $STAT,RECORDING
19:11:09.000 [APLA] $UTC,20220708,191109.0009
19:11:09.003 [APLA] $GPZDA,191109.0009,08,07,2022,,*63
19:11:09.063 [APLA] $PASHR,191109.058,278.03,T,-4.03,6.38,0.09,0.020,0.020,0.021,2,1*3C
19:11:09.069 [APLA] $GPGGA,191109.058,4946.98290,N,06423.82191,W,4,07,1.3,1.01,M,,,0,0004*10
19:11:09.076 [APLA] $GPVTG,284.4,T,,M,2.5,N,4.6,K,D*07
19:11:09.056 [CTD ]  13.0536,  3.22887,    0.261, 2.9618, 2.5020
19:11:08.982 [OCR3] 0000CDA1
19:11:09.311 [CTD ]  13.0526,  3.23101,    0.258, 2.9611, 2.5011
19:11:08.191 [OCR1] 0000CDA2
19:11:09.247 [OCR3] 0000CDA3
19:11:08.237 [OCR2] 0000CDA4
19:11:09.567 [CTD ]  13.0530,  3.23436,    0.238, 2.9606, 2.5021
19:11:09.610 [OWL ] SEAOWLA2K-0144	3895	112	681	681	1295	217	1683	1683	2609	2609	152	1046	1046
19:11:09.502 [OCR3] 0000CDA5
19:11:09.823 [CTD ]  13.0553,  3.23863,    0.223, 2.9608, 2.5028
19:11:10.000 [DBG ] $STAT,RECORDING
19:11:10.000 [APLA] $UTC,20220708,191110.0009
19:11:10.003 [APLA] $GPZDA,191110.0009,08,07,2022,,*6B
19:11:09.756 [OCR3] 0000CDA6
19:11:10.023 [ECO ] 99/99/99	99:99:99	700	50	595	50	680	46	547
19:11:10.063 [APLA] $PASHR,191110.058,278.34,T,-3.48,5.97,-0.10,0.020,0.020,0.021,2,1*1B
19:11:10.069 [APLA] $GPGGA,191110.058,4946.98301,N,06423.82297,W,4,07,1.3,0.83,M,,,1,0004*1E
19:11:10.076 [APLA] $GPVTG,274.4,T,,M,2.4,N,4.5,K,D*0A
19:11:10.079 [CTD ]  13.0587,  3.23903,    0.228, 2.9610, 2.5025
19:11:10.021 [OCR3] 0000CDA7
19:11:10.335 [CTD ]  13.0606,  3.23777,    0.242, 2.9625, 2.5016
19:11:10.425 [OWL ] SEAOWLA2K-0144	3895	110	661	661	1295	217	1685	1685	2608	2608	153	1053	1053
19:11:09.409 [OCR1] 0000CDA8
19:11:10.590 [CTD ]  13.0608,  3.23674,    0.264, 2.9619, 2.5019
19:11:10.375 [OCR3] 0000CDA9
19:11:09.555 [OCR2] 0000CDAA
19:11:10.846 [CTD ]  13.0597,  3.23562,    0.279, 2.9608, 2.5023
19:11:10.741 [OCR3] 0000CDAB
19:11:11.000 [DBG ] $STAT,RECORDING
19:11:11.000 [APLA] $UTC,20220708,191111.0009
19:11:11.003 [APLA] $GPZDA,191111.0009,08,07,2022,,*6A
19:11:11.063 [APLA] $PASHR,191111.058,279.38,T,1.68,6.62,-08,0.020,0.020,0.021,2,1*3A
19:11:11.069 [APLA] $GPGGA,191111.058,4946.98305,N,06423.82400,W,4,07,1.3,0.82,M,,,1,0004*12
19:11:11.076 [APLA] $GPVTG,280.5,T,,M,2.2,N,4.1,K,D*02
19:11:11.102 [CTD ]  13.0585,  3.23779,    0.260, 2.9633, 2.5018
19:11:11.147 [ECO ] 99/99/99	99:99:99	700	50	595	50	680	48	547
19:11:10.995 [OCR3] 0000CDAC
19:11:11.240 [OWL ] SEAOWLA2K-0144	3895	111	665	665	1295	216	1674	1674	2609	2609	153	1057	1057
19:11:11.359 [CTD ]  13.0586,  3.23830,    0.199, 2.9626, 2.5013
19:11:11.249 [OCR3] 0000CDAD
19:11:11.615 [CTD ]  13.0589,  3.23742,    0.132, 2.9642, 2.5012
19:11:11.515 [OCR3] 0000CDAE
19:11:10.625 [OCR1] 0000CDAF
19:11:11.869 [CTD ]  13.0591,  3.24208,    0.120, 2.9630, 2.5017
19:11:10.772 [OCR2] 0000CDB0
19:11:12.000 [DBG ] $STAT,RECORDING
19:11:12.000 [APLA] $UTC,20220708,191112.10
19:11:12.003 [APLA] $GPZDA,191112.0010,08,07,2022,,*61
19:11:12.063 [APLA] $PASHR,191112.058,282.12,T,-5.72,5.47,-0.01,0.019,0.019,0.021,2,1*1A
19:11:12.069 [APLA] $GPGGA,191112.058,4946.98319,N,06423.82491,W,4,07,1.3,0.88,M,,,0,0004*1F
19:11:12.076 [APLA] $GPVTG,283.7,T,,M,2.1,N,3.9,K,D*0F
19:11:12.054 [OWL ] SEAOWLA2K-0144	3895	111	669	669	1296	206	1574	1574	2609	2609	152	1048	1048
19:11:11.769 [OCR3] 0000CDB1
19:11:12.125 [CTD ]  13.0616,  3.24136,    0.163, 2.9641, 2.5018
19:11:12.271 [ECO ] 99/99/99	99:99:99	700	50	595	50	680	48	547
19:11:12.382 [CTD ]  13.0631,  3.24218,    0.278, 2.9648, 2.5017
19:11:12.135 [OCR3] 0000CDB2
19:11:12.636 [CTD ]  13.0651,  3.25698,    0.362, 2.9647, 2.5019
19:11:12.490 [OCR3] 0000CDB3
19:11:12.869 [OWL ] SEAOWLA2K-0144	3895	108	634	634	1295	212	1634	1634	2609	2609	154	1059	1059
19:11:12.892 [CTD ]  13.0729,  3.25376,    0.327, 2.9654, 2.5013
19:11:13.000 [DBG ] $STAT,RECORDING
19:11:13.001 [APLA] $UTC,20220708,191113.0010
19:11:13.004 [APLA] $GPZDA,191113.0010,08,07,2022,,*60
19:11:12.755 [OCR3] 0000CDB4
19:11:13.064 [APLA] $PASHR,191113.058,286.12,T,0.45,3.91,-0.02,0.019,0.019,0.021,1,1*
19:11:13.070 [APLA] $GPGGA,191113.058,4946.98329,N,06423.82588,W,4,07,1.3,0.86,M,,,1,0004*1B
19:11:13.077 [APLA] $GPVTG,284.5,T,,M,2.6,N,4.9,K,D*0A
19:11:11.841 [OCR1] 0000CDB5
19:11:13.149 [CTD ]  13.0766,  3.25168,    0.216, 2.9655, 2.5009
19:11:11.989 [OCR2] 0000CDB6
19:11:13.013 [OCR3] 0000CDB7
19:11:13.395 [ECO ] 99/99/99	99:99:99	700	50	595	50	680	46	547
19:11:13.403 [CTD ]  13.0760,  3.24790,    0.170, 2.9659, 2.5012
19:11:13.265 [OCR3] 0000CDB8
19:11:13.660 [CTD ]  13.0729,  3.24561,    0.173, 2.9649, 2.5011
19:11:13.684 [OWL ] SEAOWLA2K-0144	3895	114	691	691	1295	219	1704	1704	2609	2609	150	1027	1027
19:11:13.530 [OCR3] 0000CDB9
19:11:13.914 [CTD ]  13.0696,  3.24519,    0.204, 2.9661, 2.5019
19:11:14.001 [DBG ] $STAT,RECORDING
19:11:14.001 [APLA] $UTC,20220708,191114.0010
19:11:14.003 [APLA] $GPZDA,191114.0010,08,07,2022,,*67
19:11:14.063 [APLA] $PASHR,191114.058,292.17,T,-3.42,5.35,-0.02,0.019,0.019,0.021,2,1*1B
19:11:14.070 [APLA] $GPGGA,191114.058,4946.98349,N,06423.82703,W,4,07,1.3,0.85,M,,,1,0004*18
19:11:14.076 [APLA] $GPVTG,288.7,T,,M,2.9,N,5.4,K,D*07
19:11:14.169 [CTD ]  13.0678,  3.24755,    0.266, 2.9657, 2.5021
19:11:13.884 [OCR3] 0000CDBA
19:11:13.206 [OCR2] 0000CDBB
19:11:14.425 [CTD ]  13.0688,  3.25315,    0.297, 2.9661, 2.5024
19:11:13.160 [OCR1] 0000CDBC
19:11:14.249 [OCR3] 0000CDBD
19:11:14.518 [ECO ] 99/99/99	99:99:99	700	50	595	50	680	49	547
19:11:14.498 [OWL ] SEAOWLA2K-0144	3895	112	674	674	1295	211	1624	1624	2610	2610	150	1028	1028
19:11:14.680 [CTD ]  13.0727,  3.25674,    0.289, 2.9664, 2.5029
19:11:14.503 [OCR3] 0000CDBE
19:11:14.939 [CTD ]  13.0773,  3.25536,    0.270, 2.9662, 2.5024
19:11:15.008 [DBG ] $STAT,RECORDING
19:11:15.001 [APLA] $UTC,20220708,191115.0010
19:11:15.003 [APLA] $GPZDA,191115.0010,08,07,2022,,*66
19:11:14.756 [OCR3] 0000CDBF
19:11:15.063 [APLA] $PASHR,191115.058,296.77,T,-1.19,6.31,0.07,0.019,0.019,0.021,1,1*38
19:11:15.069 [APLA] $GPGGA,191115.058,4946.98378,N,06423.82811,W,4,07,1.3,0.95,M,,,0,0004*17
19:11:15.076 [APLA] $GPVTG,301.5,T,,M,2.7,N,5.0,K,D*0F
19:11:15.190 [CTD ]  13.0794,  3.24957,    0.239, 2.9664, 2.5017
19:11:15.025 [OCR3] 0000CDC0
19:11:15.313 [OWL ] SEAOWLA2K-0144	3895	109	647	647	1295	217	1677	1677	2609	2609	151	1032	1032
19:11:15.446 [CTD ]  13.0763,  3.24106,    0.226, 2.9671, 2.5018
19:11:15.275 [OCR3] 0000CDC1
19:11:15.642 [ECO ] 99/99/99	99:99:99	700	50	595	50	680	46	547
19:11:14.477 [OCR1] 0000CDC2
19:11:14.422 [OCR2] 0000CDC3
19:11:15.702 [CTD ]  13.0693,  3.23842,    0.227, 2.9669, 2.5015
19:11:15.641 [OCR3] 0000CDC4
19:11:16.000 [DBG ] $STAT,RECORDING
19:11:16.001 [APLA] $UTC,20220708,191116.0010
19:11:15.959 [CTD ]  13.0628,  3.23833,    0.224, 2.9681, 2.5017
19:11:16.003 [APLA] $GPZDA,191116.0010,08,07,2022,,*65
19:11:16.063 [APLA] $PASHR,191116.058,293.07,T,-2.19,6.44,0.06,0.019,0.019.021,2,1*3A
19:11:16.069 [APLA] $GPGGA,191116.058,4946.98420,N,06423.82894,W,4,07,1.3,0.97,M,,,1,0004*10
19:11:16.076 [APLA] $GPVTG,312.0,T,,M,2.4,N,4.5,K,D*0F
19:11:16.127 [OWL ] SEAOWLA2K-0144	3895	111	668	668	1296	207	1579	1579	2610	2610	151	1030	1030
19:11:16.215 [CTD ]  13.0587,  3.23772,    0.218, 2.9674, 2.5019
19:11:15.997 [OCR3] 0000CDC5
19:11:16.469 [CTD ]  13.0562,  3.23756,    0.226, 2.9685, 2.5018
19:11:16.264 [OCR3] 0000CDC6
19:11:16.725 [CTD ]  13.0549,  3.23816,    0.229, 2.9679, 2.5016
19:11:16.519 [OCR3] 0000CDC7
19:11:16.765 [ECO ] 99/99/99	99:99:99	700	50	595	50	680	50	547
19:11:15.693 [OCR1] 0000CDC8
19:11:17.000 [DBG ] $STAT,RECORDING
19:11:17.001 [APLA] $UTC,20220708,191117.0010
19:11:17.003 [APLA] $GPZDA,191117.0010,08,07,2022,,*64
19:11:16.942 [OWL ] SEAOWLA2K-0144	3895	108	637	637	1295	210	1606	1606	2610	2610	151	1035	1035
19:11:16.982 [CTD ]  13.0547,  3.23889,    0.236, 2.9688, 2.5021
19:11:16.774 [OCR3] 0000CDC9
19:11:15.739 [OCR2] 0000CDCA
19:11:17.063 [APLA] $PASHR,191117.058,289.82,T,-3.8.02,-0.08,0.019,0.019,0.021,2,1*18
19:11:17.070 [APLA] $GPGGA1117.058,4946.98458,N,06423.82969,W,4,07,1.3,0.83,M,,,1,0004*18
19:11:17.076 [APLA] $GPVTG,301.3,T,,M,2.2,N,4.1,K,D*0C
19:11:17.238 [CTD ]  13.0551,  3.23779,    0.268, 2.9672, 2.5016
19:11:17.039 [OCR3] 0000CDCB
19:11:17.494 [CTD ]  13.0552,  3.23569,    0.287, 2.9682, 2.5021
19:11:17.394 [OCR3] 0000CDCC
19:11:17.750 [CTD ]  13.0542,  3.23511,    0.259, 2.9678, 2.5021
19:11:17.757 [OWL ] SEAOWLA2K-0144	3895	107	629	629	1295	213	1640	1640	2609	2609	150	1029	1029
19:11:17.889 [ECO ] 99/99/99	99:99:99	700	50	595	50	680	47	547
19:11:18.000 [DBG ] $STAT,RECORDING
19:11:18.001 [APLA] $UTC,20220708,191118.0010
19:11:18.003 [APLA] $GPZDA,191118.0010,08,07,2022,,*6B
19:11:17.758 [OCR3] 0000CDCD
19:11:18.005 [CTD ]  13.0532,  3.23648,    0.203, 2.9683, 2.5018
19:11:18.063 [APLA] $PASHR,191118.058,289.40,T,-1.28,5.03,-0.09,0.019,0.019,0.021,2,1*1F
19:11:18.070 [APLA] $GPGGA,191118.058,49468486,N,06423.83052,W,4,07,1.3,0.79,M,,,0,0004*10
19:11:18.076 [APLA] $GPVTG,292.4,T,,M,2.4,N,4.4,K,D*03
19:11:16.909 [OCR1] 0000CDCE
19:11:18.012 [OCR3] 0000CDCF
19:11:17.057 [OCR2] 0000CDD0
19:11:18.261 [CTD ]  13.0535,  3.23933,    0.165, 2.9685, 2.5024
19:11:18.266 [OCR3] 0000CDD1
19:11:18.517 [CTD ]  13.0553,  3.24267,    0.195, 2.9681, 2.5020
19:11:18.571 [OWL ] SEAOWLA2K-0144	3894	108	640	640	1295	227	1784	1784	2609	2609	151	1034	1034
19:11:18.531 [OCR3] 0000CDD2
19:11:18.771 [CTD ]  13.0585,  3.24678,    0.250, 2.9689, 2.5022
19:11:19.000 [DBG ] $STAT,RECORDING
19:11:19.001 [APLA] $UTC,20220708,191119.0010
19:11:19.003 [APLA] $GPZDA,191119.0010,08,07,2022,,*6A
19:11:19.013 [ECO ] 99/99/99	99:99:99	700	50	595	50	680	46	547
19:11:19.063 [APLA] $PASHR,191119.058,293.72,T,-2.50,4.44,-0.06,0.020,0.020,0.021,1,1*16
19:11:19.027 [CTD ]  13.0628,  3.24893,    0.297, 2.9682, 2.5021
19:11:19.070 [APLA] $GPGGA,191119.058,4946.98505,N,06423.83146,W,4,07,1.3,0.80,M,,,1,0004*18
19:11:19.076 [APLA] $GPVTG,287.1,T,,M,2.4,N,4.5,K,D*03
19:11:18.785 [OCR3] 0000CDD3
19:11:19.282 [CTD ]  13.0668,  3.24999,    0.304, 2.9669, 2.5012
19:11:18.126 [OCR1] 0000CDD4
19:11:19.386 [OWL ] SEAOWLA2K-0144	3895	110	658	658	1295	211	1623	1623	2610	2610	152	1041	1041
19:11:18.273 [OCR2] 0000CDD5
19:11:19.150 [OCR3] 0000CDD6
19:11:19.538 [CTD ]  13.0705,  3.25360,    0.265, 2.9689, 2.4998
19:11:19.505 [OCR3] 0000CDD7
19:11:19.794 [CTD ]  13.0742,  3.25726,    0.207, 2.9671, 2.5009
19:11:20.000 [DBG ] $STAT,RECORDING
19:11:20.001 [APLA] $UTC,20220708,191120.0010
19:11:20.003 [APLA] $GPZDA,191120.0010,08,07,2022,,*60
19:11:19.771 [OCR3] 0000CDD8
19:11:20.063 [APLA] $PASHR,191120.058,297.23,T,1.63,5.23,0.18,0.020,0.020,0.021,2,1*13
19:11:20.069 [APLA] $GPGGA,191120.058,4946.98541,N,06423.83242,W,4,07,1.3,1.05,M,,,1,0004*19
19:11:20.076 [APLA] $GPVTG,308.4,T,,M,3.0,N,5.5,K,D*04
19:11:20.049 [CTD ]  13.0786,  3.26085,    0.149, 2.9678, 2.5017
19:11:20.136 [ECO ] 99/99/99	99:99:99	700	50	595	50	680	49	547
19:11:20.201 [OWL ] SEAOWLA2K-0144	3895	109	642	642	1295	211	1616	1616	2609	2609	151	1034	1034
19:11:20.025 [OCR3] 0000CDD9
19:11:20.303 [CTD ]  13.0834,  3.26363,    0.147, 2.9670, 2.5019
19:11:20.279 [OCR3] 0000CDDA
19:11:20.558 [CTD ]  13.0879,  3.26356,    0.183, 2.9661, 2.5015
19:11:19.343 [OCR1] 0000CDDB
19:11:19.490 [OCR2] 0000CDDC
19:11:20.813 [CTD ]  13.0901,  3.26146,    0.244, 2.9672, 2.5021
19:11:20.545 [OCR3] 0000CDDD
19:11:21.000 [DBG ] $STAT,RECORDING
19:11:21.001 [APLA] $UTC,20220708,191121.0010
19:11:21.003 [APLA] $GPZDA,191121.0010,08,07,2022,,*61
19:11:21.063 [APLA] $PASHR,191121.058,299.62,T,-7.45,7.13,0.05,0.020,0.020,0.021,2,1*3B
19:11:21.069 [APLA] $GPGGA,191121.058,4946.98591,N,06423.83333,W,4,07,1.3,0.97,M,,,0,0004*19
19:11:21.015 [OWL ] SEAOWLA2K-0144	3895	109	640	640	1295	213	1642	1642	2610	2610	151	1028	1028
19:11:21.076 [APLA] $GPVTG,308.4,T,,M,2.6,N,4.7,K,D*00
19:11:21.069 [CTD ]  13.0907,  3.26426,    0.287, 2.9663, 2.5019
19:11:20.901 [OCR3] 0000CDDE
19:11:21.260 [ECO ] 99/99/99	99:99:99	700	50	595	50	680	50	547
19:11:21.324 [CTD ]  13.0925,  3.26593,    0.300, 2.9653, 2.5016
19:11:21.266 [OCR3] 0000CDDF
19:11:21.579 [CTD ]  13.0938,  3.26184,    0.296, 2.9654, 2.5010
19:11:21.521 [OCR3] 0000CDE0
19:11:21.834 [CTD ]  13.0914,  3.25754,    0.274, 2.9668, 2.5023
19:11:21.830 [OWL ] SEAOWLA2K-0144	3894	110	654	654	1296	219	1701	1701	2609	2609	149	1018	1018
19:11:20.708 [OCR2] 0000CDE1
19:11:20.660 [OCR1] 0000CDE2
19:11:22.000 [DBG ] $STAT,RECORDING
19:11:22.001 [APLA] $UTC,20220708,191122.0011
19:11:22.003 [APLA] $GPZDA,191122.0011,08,07,22,,*63
19:11:21.775 [OCR3] 0000CDE3
19:11:22.063 [APLA] $PASHR,191122.058,298.62,T,-1.95,5.66,-0.06,0.0,0.020,0.021,2,1*1C
19:11:22.069 [APLA] $GPGGA,191122.058,4946.98633,N,06423.83416,W,4,07,1.3,0.86,M,,,1,0004*10
19:11:22.076 [APLA] $GPVTG,307.4,T,,M,2.4,N,4.5,K,D*0F
19:11:22.090 [CTD ]  13.0878,  3.26638,    0.252, 2.9658, 2.5020
19:11:22.040 [OCR3] 0000CDE4
19:11:22.344 [CTD ]  13.0925,  3.27797,    0.234, 2.9652, 2.5021
19:11:22.384 [ECO ] 99/99/99	99:99:99	700	50	595	50	680	50	547
19:11:22.599 [CTD ]  13.1035,  3.28479,    0.228, 2.9660, 2.5022
19:11:22.295 [OCR3] 0000CDE5
19:11:22.645 [OWL ] SEAOWLA2K-0144	3894	108	640	640	1295	224	1753	1753	2610	2610	150	1025	1025
19:11:22.852 [CTD ]  13.1149,  3.28339,    0.244, 2.9654, 2.5023
19:11:23.000 [DBG ] $STAT,RECORDING
19:11:23.001 [APLA] $UTC,20220708,191123.0011
19:11:23.003 [APLA] $GPZDA,191123.0011,08,07,2022,,*62
19:11:22.659 [OCR3] 0000CDE6
19:11:23.063 [APLA] $PASHR,191123.058,292.45,T,-2.21,4.88,-0.05,0.020,0.020,0.021,2,1*1C
19:11:23.070 [APLA] $GPGGA,191123.058,4946.98673,N,06423.834W,4,07,1.3,0.85,M,,,1,0004*11
19:11:23.076 [APLA] $GPVTG,304.3,T,,M,2.4,N,4.4,K,D*0A
19:11:23.107 [CTD ]  13.1199,  3.27088,    0.261, 2.9666, 2.5020
19:11:21.978 [OCR1] 0000CDE7
19:11:21.924 [OCR2] 0000CDE8
19:11:23.014 [OCR3] 0000CDE9
19:11:23.363 [CTD ]  13.1143,  3.26330,    0.269, 2.9649, 2.5020
19:11:23.459 [OWL ] SEAOWLA2K-0144	3895	108	639	639	1296	218	1694	1694	2609	2609	151	1032	1032
19:11:23.278 [OCR3] 0000CDEA
19:11:23.507 [ECO ] 99/99/99	99:99:99	700	50	595	50	680	50	547
19:11:23.620 [CTD ]  13.1064,  3.26426,    0.250, 2.9659, 2.5021
19:11:23.532 [OCR3] 0000CDEB
19:11:23.872 [CTD ]  13.1017,  3.26212,    0.201, 2.9651, 2.5018
19:11:24.000 [DBG ] $STAT,RECORDING
19:11:24.001 [APLA] $UTC,20220708,191124.0011
19:11:24.003 [APLA] $GPZDA,191124.0011,08,07,2022,,*65
19:11:23.786 [OCR3] 0000CDEC
19:11:24.063 [APLA] $PASHR,191124.8,288.67,T,1.92,5.96,-0.00,0.020,0.020,0.021,2,1*3D
19:11:24.070 [APLA] $GPGGA,191124.058,4946.98710,N,06423.83586,W,4,07,1.3,0.90,M,,,0,0004*18
19:11:24.076 [APLA] $GPVTG,301.0,T,,M,2.3,N,4.3,*0C
19:11:24.127 [CTD ]  13.0985,  3.26160,    0.152, 2.9663, 2.5014
19:11:24.274 [OWL ] SEAOWLA2K-0144	3895	110	658	658	1295	228	1785	1785	2610	2610	151	1037	1037
19:11:24.051 [OCR3] 0000CDED
19:11:23.194 [OCR1] 0000CDEE
19:11:24.384 [CTD ]  13.0966,  3.26332,    0.168, 2.9672, 2.5016
19:11:23.242 [OCR2] 0000CDEF
19:11:24.631 [ECO ] 99/99/99	99:99:99	700	50	595	50	680	47	547
19:11:24.638 [CTD ]  13.0968,  3.26669,    0.203, 2.9660, 2.5013
19:11:24.406 [OCR3] 0000CDF0
19:11:24.891 [CTD ]  13.0990,  3.26881,    0.223, 2.9665, 2.5016
19:11:25.000 [DBG ] $STAT,RECORDING
19:11:25.001 [APLA] $UTC,20220708,191125.0011
19:11:25.003 [APLA] $GPZDA,191125.0011,08,07,2022,,*64
19:11:24.773 [OCR3] 0000CDF1
19:11:25.063 [APLA] $PASHR,191125.058,290.63,T,-3.94,6.39,-0.04,0.020,0.020,0.021,2,1*1A
19:11:25.070 [APLA] $GPGGA,191125.058,4946.98739,N,06423.83673,W,4,07,1.3,0.86,M,,,1,0004*1D
19:11:25.076 [APLA] $GPVTG,293.4,T,,M,2.2,N,4.1,K,D*01
19:11:25.089 [OWL ] SEAOWLA2K-0144	3894	109	649	649	1295	215	1664	1664	2609	2609	151	1034	1034
19:11:25.147 [CTD ]  13.1020,  3.27327,    0.225, 2.9663, 2.5018
19:11:25.028 [OCR3] 0000CDF2
19:11:25.402 [CTD ]  13.1067,  3.27691,    0.245, 2.9666, 2.5020
19:11:25.283 [OCR3] 0000CDF3
19:11:24.411 [OCR1] 0000CDF4
19:11:25.657 [CTD ]  13.1121,  3.27979,    0.270, 2.9656, 2.5017
19:11:24.559 [OCR2] 0000CDF5
19:11:25.755 [ECO ] 99/99/99	99:99:99	700	50	595	50	680	47	547
19:11:25.549 [OCR3] 0000CDF6
19:11:25.910 [CTD ]  13.1170,  3.27932,    0.272, 2.9664, 2.5018
19:11:25.903 [OWL ] SEAOWLA2K-0144	3894	110	654	654	1294	222	1725	1725	2608	2608	149	1016	1016
19:11:26.000 [DBG ] $STAT,RECORDING
19:11:26.001 [APLA] $UTC,20220708,191126.0011
19:11:26.003 [APLA] $GPZDA,191126.0011,08,07,2022,,*67
19:11:26.064 [APLA] $PASHR,191126.058,296.91,T,-2.82,4.86,-0.01,0.020,0.020,0.021,2,1*17
19:11:25.804 [OCR3] 0000CDF7
19:11:26.166 [CTD ]  13.1194,  3.28008,    0.254, 2.9663, 2.5019
19:11:26.070 [APLA] $GPGGA,191126.058,4946.98764,N,06423.83764,W,4,07,1.3,0.88,M,,,1,0004*1F
19:11:26.214 [APLA] $GPVTG,295.7,T,,M,2.4,N,4.4,K,D*07
19:11:26.421 [CTD ]  13.1212,  3.28214,    0.251, 2.9664, 2.5007
19:11:26.169 [OCR3] 0000CDF8
19:11:26.676 [CTD ]  13.1230,  3.27870,    0.256, 2.9652, 2.5017
19:11:26.718 [OWL ] SEAOWLA2K-0144	3895	110	652	652	1294	220	1718	1718	2609	2609	150	1025	1025
19:11:26.523 [OCR3] 0000CDF9
19:11:25.629 [OCR1] 0000CDFA
19:11:26.878 [ECO ] 99/99/99	99:99:99	700	51	595	50	680	48	547
19:11:26.929 [CTD ]  13.1220,  3.27561,    0.256, 2.9659, 2.5030
19:11:25.776 [OCR2] 0000CDFB
19:11:27.000 [DBG ] $STAT,RECORDING
19:11:27.001 [APLA] $UTC,20220708,191127.0011
19:11:27.003 [APLA] $GPZDA,191127.0011,08,07,2022,,*66
19:11:26.788 [OCR3] 0000CDFC
19:11:27.064 [APLA] $PASHR,191127.058,299.96,T,-22,3.88,0.05,0.019,0.019,0.021,236
19:11:27.070 [APLA] $GPGGA,191127.058,4946.98803,N,06423.83866,W,4,07,1.3,0.94,M,,,1,0004*10
19:11:27.076 [APLA] $GPVTG,305.0,T,,M,3.1,N,5.7,K,D*0E
19:11:27.184 [CTD ]  13.1192,  3.27693,    0.245, 2.9653, 2.5020
19:11:27.042 [OCR3] 0000CDFD
19:11:27.440 [CTD ]  13.1182,  3.27863,    0.219, 2.9650, 2.5019
19:11:27.296 [OCR3] 0000CDFE
19:11:27.533 [OWL ] SEAOWLA2K-0144	3894	110	654	654	1294	228	1793	1793	2608	2608	149	1012	1012
19:11:27.694 [CTD ]  13.1188,  3.27899,    0.202, 2.9651, 2.5017
19:11:27.561 [OCR3] 0000CDFF
19:11:27.948 [CTD ]  13.1194,  3.27993,    0.227, 2.9648, 2.5017
19:11:28.000 [DBG ] $STAT,RECORDING
19:11:28.001 [APLA] $UTC,20220708,191128.0011
19:11:28.003 [APLA] $GPZDA,191128.0011,08,07,2022,,*69
19:11:28.002 [ECO ] 99/99/99	99:99:99	700	50	595	50	680	47	547
19:11:28.064 [APLA] $PASHR,191128.058,299.40,T,-4.43,5.62,0.01,0.020,0.020,0.021,1,1*34
19:11:28.070 [APLA] $GPGGA,191128.058,4946.98854,N,06423.83974,W,4,07,1.3,0.92,M,,,1,0004*19
19:11:28.076 [APLA] $GPVTG,305.1,T,,M,3.0,N,5.5,K,D*0C
19:11:26.846 [OCR1] 0000CE00
19:11:26.993 [OCR2] 0000CE01
19:11:28.202 [CTD ]  13.1201,  3.27620,    0.279, 2.9659, 2.5016
19:11:27.915 [OCR3] 0000CE02
19:11:28.347 [OWL ] SEAOWLA2K-0144	3895	110	656	656	1294	223	1740	1740	2609	2609	147	999	999
19:11:28.457 [CTD ]  13.1168,  3.26999,    0.308, 2.9646, 2.5016
19:11:28.281 [OCR3] 0000CE03
19:11:28.713 [CTD ]  13.1102,  3.26791,    0.277, 2.9660, 2.5017
19:11:28.535 [OCR3] 0000CE04
19:11:29.000 [DBG ] $STAT,RECORDING
19:11:29.001 [APLA] $UTC,20220708,191129.0011
19:11:29.003 [APLA] $GPZDA,191129.0011,08,07,2022,,*68
19:11:28.967 [CTD ]  13.1055,  3.27065,    0.216, 2.9651, 2.5021
19:11:28.789 [OCR3] 0000CE05
19:11:29.064 [APLA] $PASHR,191129.058,297.73,T,2.15,8.05,0.02,0.019,0.019021,2,1*1F
19:11:29.070 [APLA] $GPGGA,191129.058,4946.98903,N,06423.84068,W,4,07,1.3,0.94,M,,,1,0004*1E
19:11:29.076 [APLA] $GPVTG,314.7,T,,M,2.6,N,4.8,K,D*01
19:11:29.126 [ECO ] 99/99/99	99:99:99	700	50	595	50	680	45	547
19:11:29.160 [OWL ] SEAOWLA2K-0144	3895	110	652	652	1295	214	1657	1657	2611	2611	147	1002	1002
19:11:29.221 [CTD ]  13.1047,  3.27691,    0.164, 2.9664, 2.5012
19:11:29.055 [OCR3] 0000CE06
19:11:28.209 [OCR2] 0000CE07
19:11:28.162 [OCR1] 0000CE08
19:11:29.476 [CTD ]  13.1087,  3.27977,    0.143, 2.9645, 2.4998
19:11:29.309 [OCR3] 0000CE09
19:11:29.732 [CTD ]  13.1131,  3.27724,    0.155, 2.9655, 2.5010
19:11:30.008 [DBG ] $STAT,RECORDING
19:11:30.001 [APLA] $UTC,20220708,191130.0011
19:11:30.003 [APLA] $GPZDA,191130.0011,08,07,2022,,*60
19:11:29.676 [OCR3] 0000CE0A
19:11:29.985 [CTD ]  13.1148,  3.27875,    0.213, 2.9650, 2.5015
19:11:29.975 [OWL ] SEAOWLA2K-0144	3895	107	623	623	1295	241	1919	1919	2609	2609	148	1003	1003
19:11:30.064 [APLA] $PASHR,191130.058,296.22,T,-8.05,6.35,-0.13,0.019,0.019,0.021,2,1*14
19:11:30.070 [APLA] $GPGGA,191130.058,4946.98947,N,06423.84140,W,4,07,1.3,0.77,M,,,0,0004*11
19:11:30.076 [APLA] $GPVTG,304.7,T,,M,2.1,N,3.8,K,D*00
19:11:30.249 [ECO ] 99/99/99	99:99:99	700	50	595	50	680	45	547
19:11:30.239 [CTD ]  13.1162,  3.27974,    0.301, 2.9654, 2.5024
19:11:30.031 [OCR3] 0000CE0B
19:11:30.495 [CTD ]  13.1182,  3.28067,    0.371, 2.9657, 2.5018
19:11:30.296 [OCR3] 0000CE0C
19:11:29.479 [OCR1] 0000CE0D
19:11:29.426 [OCR2] 0000CE0E
19:11:30.748 [CTD ]  13.1204,  3.28455,    0.368, 2.9661, 2.5018
19:11:30.551 [OCR3] 0000CE0F
19:11:30.790 [OWL ] SEAOWLA2K-0144	3894	110	649	649	1295	225	1765	1765	2610	2610	149	1013	1013
19:11:31.000 [DBG ] $STAT,RECORDING
19:11:31.001 [APLA] $UTC,20220708,191131.0011
19:11:31.003 [APLA] $GPZDA,191131.0011,08,07,2022,,*61
19:11:31.004 [CTD ]  13.1244,  3.28702,    0.277, 2.9653, 2.5016
19:11:31.064 [APLA] $PASHR,191131.058,293.76,T,4.46,3.35,-0.01,0.018,0.018,0.021,2,1*31
19:11:31.070 [APLA] GGA,191131.058,4946.98980,N,06423.84224,W,4,07,1.3,0.87,M,,,1,0004*14
19:11:31.076 [APLA] $GPVTG,306.6,T,,M,2.7,N,5.0,K,D*0B
19:11:30.806 [OCR3] 0000CE10
19:11:31.258 [CTD ]  13.1285,  3.28916,    0.171, 2.9662, 2.5011
19:11:31.373 [ECO ] 99/99/99	99:99:99	700	50	595	50	680	47	547
19:11:31.091 [OCR3] 0000CE11
19:11:31.513 [CTD ]  13.1329,  3.29167,    0.126, 2.9662, 2.5025
19:11:31.604 [OWL ] SEAOWLA2K-0144	3895	111	668	668	1294	234	1852	1852	2608	2608	148	1003	1003
19:11:31.424 [OCR3] 0000CE12
19:11:31.765 [CTD ]  13.1373,  3.29317,    0.136, 2.9654, 2.5029
19:11:30.697 [OCR1] 0000CE13
19:11:32.000 [DBG ] $STAT,RECORDING
19:11:32.001 [APLA] $UTC,20220708,191132.0012
19:11:32.003 [APLA] $GPZDA,191132.0012,08,07,2022,,*61
19:11:31.789 [OCR3] 0000CE14
19:11:30.744 [OCR2] 0000CE15
19:11:32.020 [CTD ]  13.1408,  3.29341,    0.160, 2.9656, 2.5026
19:11:32.064 [APLA] $PASHR,191132.058,293.09,T,-3.02,5.94,0.09,0.019,0.019,0.021,2,1*38
19:11:32.070 [APLA] $GPGGA,132.058,4946.99029,N,06423.84324,W,4,07,1,0.97,M,,,1,0004*1C
19:11:32.076 [APLA] $GPVTG,305.1,T,,M,3.0,N,5.5,K,D*0C
19:11:32.043 [OCR3] 0000CE16
19:11:32.275 [CTD ]  13.1431,  3.28491,    0.223, 2.9651, 2.5021
19:11:32.419 [OWL ] SEAOWLA2K-0144	3895	107	623	623	1294	233	1847	1847	2608	2608	147	995	995
19:11:32.497 [ECO ] 99/99/99	99:99:99	700	51	595	50	680	47	547
19:11:32.297 [OCR3] 0000CE17
19:11:32.533 [CTD ]  13.1394,  3.27471,    0.273, 2.9654, 2.5020
19:11:32.562 [OCR3] 0000CE18
19:11:32.783 [CTD ]  13.1302,  3.26850,    0.279, 2.9653, 2.5023
19:11:33.000 [DBG ] $STAT,RECORDING
19:11:33.001 [APLA] $UTC,20220708,191133.0012
19:11:33.003 [APLA] $GPZDA,191133.0012,08,07,2022,,*60
19:11:33.064 [APLA] $PASHR,191133.058,295.27,T,-2.92,6.37,0.05,0.019,0.019,0.021,2,1*3D
19:11:33.070 [APLA] $GPGGA,191133.058,4946.99071,N,06423.84429,W,4,07,1.3,0.95,M,,,0,0004*19
19:11:33.076 [APLA] $GPVTG,299.7,T,,M,2.8,N,5.2,K,D*00
19:11:33.039 [CTD ]  13.1202,  3.26676,    0.250, 2.9658, 2.5011
19:11:31.914 [OCR1] 0000CE19
19:11:32.816 [OCR3] 0000CE1A
19:11:32.061 [OCR2] 0000CE1B
19:11:33.232 [OWL ] SEAOWLA2K-0144	3894	108	631	631	1295	237	1885	1885	2610	2610	147	998	998
19:11:33.295 [CTD ]  13.1130,  3.26947,    0.212, 2.9667, 2.5005
19:11:33.182 [OCR3] 0000CE1C
19:11:33.548 [CTD ]  13.1107,  3.27599,    0.200, 2.9658, 2.5015
19:11:33.620 [ECO ] 99/99/99	99:99:99	700	51	595	50	680	50	547
19:11:33.537 [OCR3] 0000CE1D
19:11:33.804 [CTD ]  13.1141,  3.27939,    0.222, 2.9655, 2.5019
19:11:34.000 [DBG ] $STAT,RECORDING
19:11:34.001 [APLA] $UTC,20220708,191134.0012
19:11:34.003 [APLA] $GPZDA,191134.0012,08,07,2022,,*67
19:11:33.803 [OCR3] 0000CE1E
19:11:34.064 [APLA] $PASHR,191134.058,296.58,T,-3.97,5.10,-0.04,0.019,0.019,0.021,2,1*1F
19:11:34.070 [APLA] $GPGGA,191134.058,4946.907,N,06423.84533,W,4,07,1.3,0.87,M,,,1,0004*16
19:11:34.076 [APLA] $GPVTG,297.6,T,,M,2.8,N,5.1,K,D*0C
19:11:34.058 [CTD ]  13.1191,  3.28055,    0.265, 2.9652, 2.5024
19:11:34.045 [OWL ] SEAOWLA2K-0144	3895	108	632	632	1294	259	2096	2096	2611	2611	147	997	997
19:11:34.059 [OCR3] 0000CE1F
19:11:33.131 [OCR1] 0000CE20
19:11:34.313 [CTD ]  13.1232,  3.28211,    0.292, 2.9660, 2.5020
19:11:33.277 [OCR2] 0000CE21
19:11:34.314 [OCR3] 0000CE22
19:11:34.567 [CTD ]  13.1273,  3.28045,    0.282, 2.9663, 2.5020
19:11:34.744 [ECO ] 99/99/99	99:99:99	700	51	595	50	680	47	547
19:11:34.821 [CTD ]  13.1302,  3.28346,    0.245, 2.9655, 2.5019
19:11:34.858 [OWL ] SEAOWLA2K-0144	3894	105	605	605	1294	272	2224	2224	2610	2610	148	1005	1005
19:11:34.580 [OCR3] 0000CE23
19:11:35.000 [DBG ] $STAT,RECORDING
19:11:35.001 [APLA] $UTC,20220708,191135.0012
19:11:35.003 [APLA] $GPZDA,191135.0012,08,07,202,*66
19:11:35.064 [APLA] $PASHR,191135.058,294.51,T,1.40,4.85,0.05,0.019,0.019,0.021,2,1*11
19:11:35.070 [APLA] $GPGGA,191135.058,4946.99148,N,06423.84637,W,4,07,1.3,0.95,M,,,1,0004*18
19:11:35.076 [APLA] $GPVTG,305.1,T,,M,3.0,N,5.5,K,D*0C
19:11:35.076 [CTD ]  13.1318,  3.28415,    0.209, 2.9669, 2.5023
19:11:34.934 [OCR3] 0000CE24
19:11:35.331 [CTD ]  13.1330,  3.28690,    0.184, 2.9674, 2.5028
19:11:35.299 [OCR3] 0000CE25
19:11:35.585 [CTD ]  13.1354,  3.28733,    0.152, 2.9666, 2.5023
19:11:34.347 [OCR1] 0000CE26
19:11:34.494 [OCR2] 0000CE27
19:11:35.673 [OWL ] SEAOWLA2K-0144	3894	110	654	654	1294	214	1654	1654	2609	2609	147	992	992
19:11:35.553 [OCR3] 0000CE28
19:11:35.839 [CTD ]  13.1372,  3.28754,    0.139, 2.9663, 2.5015
19:11:35.868 [ECO ] 99/99/99	99:99:99	700	50	595	50	680	48	547
19:11:36.000 [DBG ] $STAT,RECORDING
19:11:36.001 [APLA] $UTC,20220708,191136.0012
19:11:36.003 [APLA] $GPZDA,191136.0012,08,07,2022,,*65
19:11:36.064 [APLA] $PASHR,191136.058,294.39,T,-5.23,8.38,-0.05,0.019,0.019,0.021,2,1*17
19:11:36.070 [APLA] $GPGGA,1911058,4946.99192,N,06423.84730,W,4,07,1.3,0.86,M,,,0,0004*19
19:11:36.076 [APLA] $GPVTG,302.8,T,,M,2.4,N,4.4,K,D*07
19:11:35.807 [OCR3] 0000CE29
19:11:36.094 [CTD ]  13.1391,  3.28685,    0.185, 2.9664, 2.5017
19:11:36.092 [OCR3] 0000CE2A
19:11:36.348 [CTD ]  13.1400,  3.28552,    0.260, 2.9657, 2.5016
19:11:36.486 [OWL ] SEAOWLA2K-0144	3894	110	654	654	1294	214	1656	1656	2611	2611	146	986	986
19:11:36.602 [CTD ]  13.1400,  3.28726,    0.316, 2.9665, 2.5008
19:11:36.326 [OCR3] 0000CE2B
19:11:36.856 [CTD ]  13.1410,  3.28550,    0.320, 2.9671, 2.5017
19:11:35.711 [OCR2] 0000CE2C
19:11:35.664 [OCR1] 0000CE2D
19:11:37.000 [DBG ] $STAT,RECORDING
19:11:37.001 [APLA] $UT20220708,191137.0012
19:11:37.003 [APLA] $GPZDA,191137.0012,08,07,2022,,*64
19:11:36.992 [ECO ] 99/99/99	99:99:99	700	50	595	50	680	46	547
19:11:36.690 [OCR3] 0000CE2E
19:11:37.064 [APLA] $PASHR,191137.058,295.07,T,-2.47,4.53,-0.13,0.020,0.020,0.021,2,1*19
19:11:37.070 [APLA] $GPGGA,191137.058,6.99218,N,06423.84814,W,4,07,1.3,0.74,M,,,1,0004*1C
19:11:37.076 [APLA] $GPVTG,289.3,T,,M,2.3,N,4.2,K,D*0F
19:11:37.111 [CTD ]  13.1432,  3.29239,    0.279, 2.9666, 2.5016
19:11:37.045 [OCR3] 0000CE2F
19:11:37.299 [OWL ] SEAOWLA2K-0144	3894	105	604	604	1294	230	1815	1815	2611	2611	147	999	999
19:11:37.365 [CTD ]  13.1466,  3.29212,    0.254, 2.9672, 2.5023
19:11:37.310 [OCR3] 0000CE30
19:11:37.619 [CTD ]  13.1486,  3.28873,    0.250, 2.9659, 2.5022
19:11:37.564 [OCR3] 0000CE31
19:11:37.873 [CTD ]  13.1474,  3.28754,    0.229, 2.9676, 2.5023
19:11:38.000 [DBG ] $STAT,RECORDING
19:11:38.001 [APLA] $UTC,20220708,191138.0012
19:11:38.003 [APLA] $GPZDA,191138.0012,08,07,2022,,*6B
19:11:38.064 [APLA] $PASHR,191138.058,300.97,T,1.39,3.54,0.08,0.020,0.020,0.021,1,1*11
19:11:38.070 [APLA] $GPGGA,191138.058,4946.99251,N,06423.84913,W,4,07,1.3,0.95,M,,,1,0004*17
19:11:37.818 [OCR3] 0000CE32
19:11:38.115 [ECO ] 99/99/99	99:99:99	700	50	595	50	680	49	547
19:11:38.127 [CTD ]  13.1461,  3.29082,    0.174, 2.9671, 2.5023
19:11:38.112 [OWL ] SEAOWLA2K-0144	3894	106	612	612	1294	227	1778	1778	2610	2610	147	996	996
19:11:36.982 [OCR1] 0000CE33
19:11:38.076 [APLA] $GPVTG,306.4,T,,M,3.0,N,5.6,K,D*09
19:11:36.928 [OCR2] 0000CE34
19:11:38.381 [CTD ]  13.1482,  3.29636,    0.151, 2.9669, 2.5014
19:11:38.086 [OCR3] 0000CE35
19:11:38.636 [CTD ]  13.1534,  3.29984,    0.189, 2.9681, 2.5027
19:11:38.439 [OCR3] 0000CE36
19:11:38.890 [CTD ]  13.1592,  3.30260,    0.253, 2.9672, 2.5022
19:11:38.925 [OWL ] SEAOWLA2K-0144	3895	107	622	622	1294	231	1817	1817	2609	2609	147	992	992
19:11:39.000 [DBG ] $STAT,RECORDING
19:11:39.001 [APLA] $UTC,20220708,191139.0012
19:11:39.003 [APLA] $GPZDA,191139.0012,08,07,2022,,*6A
19:11:38.804 [OCR3] 0000CE37
19:11:39.064 [APLA] $PASHR,191139.058,301.86,T,-7.97,6.28,0.03,0.020,0.020,0.021,2,1*38
19:11:39.070 [APLA] $GPGGA,191139.058,4946.99304,N423.85020,W,4,07,1.3,0.92,M,,,0,0004*19
19:11:39.076 [APLA] $GPVTG,305.2,T,,M,3.0,N,5.6,K,D*0C
19:11:39.144 [CTD ]  13.1645,  3.30346,    0.296, 2.9676, 2.5019
19:11:39.239 [ECO ] 99/99/99	99:99:99	700	51	595	50	680	48	547
19:11:39.059 [OCR3] 0000CE38
19:11:38.198 [OCR1] 0000CE39
19:11:39.398 [CTD ]  13.1685,  3.30406,    0.294, 2.9685, 2.5020
19:11:38.245 [OCR2] 0000CE3A
19:11:39.314 [OCR3] 0000CE3B
19:11:39.652 [CTD ]  13.1714,  3.30425,    0.275, 2.9670, 2.5007
19:11:39.738 [OWL ] SEAOWLA2K-0144	3894	105	609	609	1294	246	1974	1974	2611	2611	147	998	998
19:11:39.580 [OCR3] 0000CE3C
19:11:39.906 [CTD ]  13.1734,  3.30563,    0.271, 2.9679, 2.5011
19:11:40.000 [DBG ] $STAT,RECORDING
19:11:40.001 [APLA] $UTC,20220708,191140.0012
19:11:40.003 [APLA] $GPZDA,191140.0012,08,07,2022,,*64
19:11:40.064 [APLA] $PASHR,191140.058,297.16,T,0.23,6.52,-0.02,0.020,0.020,0.021,2,1*35
19:11:40.070 [APLA] $GPGGA,191140.058,4946.99346,N,06423.85121,W,4,07,1.3,0.87,M,,,1,0004*14
19:11:40.076 [APLA] $GPVTG,302.3,T,,M,2.7,N,5.0,K,D*0A
19:11:39.835 [OCR3] 0000CE3D
19:11:40.159 [CTD ]  13.1752,  3.30633,    0.264, 2.9690, 2.5010
19:11:40.363 [ECO ] 99/99/99	99:99:99	700	50	595	50	680	48	547
19:11:40.413 [CTD ]  13.1768,  3.30592,    0.240, 2.9680, 2.5020
19:11:40.200 [OCR3] 0000CE3E
19:11:40.551 [OWL ] SEAOWLA2K-0144	3894	107	624	624	1294	235	1859	1859	2611	2611	147	992	992
19:11:39.414 [OCR1] 0000CE3F
19:11:40.667 [CTD ]  13.1772,  3.30177,    0.198, 2.9674, 2.5019
19:11:39.562 [OCR2] 0000CE40
19:11:40.554 [OCR3] 0000CE41
19:11:40.921 [CTD ]  13.1753,  3.29988,    0.162, 2.9678, 2.5018
19:11:41.000 [DBG ] $STAT,RECORDING
19:11:41.001 [APLA] $UTC,20220708,191141.0012
19:11:41.003 [APLA] $GPZDA,191141.0012,08,07,2022,,*65
19:11:41.064 [APLA] $PASHR,191141.058,292.95,T,0.90,6.62,0.06,0.020,0.020,0.021,2,1*18
19:11:41.070 [APLA] $GPGGA,191141.058,49469391,N,06423.85211,W,4,07,1.3,0.96,M,,,1,0004*1F
19:11:41.076 [APLA] $GPVTG,311.8,T,,M,2.6,N,4.7,K,D*04
19:11:40.819 [OCR3] 0000CE42
19:11:41.178 [CTD ]  13.1729,  3.30034,    0.164, 2.9665, 2.5017
19:11:41.091 [OCR3] 0000CE43
19:11:41.364 [OWL ] SEAOWLA2K-0144	3894	105	609	609	1294	251	2018	2018	2610	2610	146	982	982
19:11:41.429 [CTD ]  13.1724,  3.29993,    0.181, 2.9673, 2.5009
19:11:41.486 [ECO ] 99/99/99	99:99:99	700	52	595	50	680	50	547
19:11:41.326 [OCR3] 0000CE44
19:11:41.683 [CTD ]  13.1721,  3.29862,    0.213, 2.9689, 2.5015
19:11:40.631 [OCR1] 0000CE45
19:11:41.591 [OCR3] 0000CE46
19:11:41.936 [CTD ]  13.1715,  3.29862,    0.240, 2.9672, 2.5024
19:11:40.779 [OCR2] 0000CE47
19:11:42.000 [DBG ] $STAT,RECORDING
19:11:42.001 [APLA] $UTC,20220708,191142.0013
19:11:42.003 [APLA] $GPZDA,191142.00,08,07,2022,,*67
19:11:42.064 [APLA] $PASHR,191142.058,293.64,T,-5.05,5.54,0.01,0.020,0.020,0.021,2,31
19:11:42.070 [APLA] $GPGGA,191142.058,4946.99433,N,06423.85296,W,4,07,1.3,0.93,M,,,0,0004*18
19:11:42.076 [APLA] $GPVTG,302.2,T,,M,2.5,N,4.6,K,D*0E
19:11:42.190 [CTD ]  13.1721,  3.30229,    0.242, 2.9676, 2.5024
19:11:42.177 [OWL ] SEAOWLA2K-0144	3894	107	626	626	1294	226	1770	1770	2610	2610	145	979	979
19:11:41.945 [OCR3] 0000CE48
19:11:42.444 [CTD ]  13.1739,  3.30415,    0.246, 2.9690, 2.5028
19:11:42.312 [OCR3] 0000CE49
19:11:42.610 [ECO ] 99/99/99	99:99:99	700	50	595	50	680	48	547
19:11:42.698 [CTD ]  13.1759,  3.30437,    0.272, 2.9679, 2.5020
19:11:42.567 [OCR3] 0000CE4A
19:11:42.952 [CTD ]  13.1771,  3.30332,    0.288, 2.9685, 2.5013
19:11:43.001 [DBG ] $STAT,RECORDING
19:11:43.001 [APLA] $UTC,20220708,191143.0013
19:11:43.003 [APLA] $GPZDA,191143.0013,08,07,2022,,*66
19:11:42.990 [OWL ] SEAOWLA2K-0144	3894	104	600	600	1294	225	1766	1766	2610	2610	147	990	990
19:11:43.064 [APLA] $PASHR,191143.058,293.64,T,-0.97,3.52,-0.03,0.020,0.020,0.021,2,1*11
19:11:43.070 [APLA] $GPGGA,191143.058,4946.99470,N,06423.85399,W,4,07,1.3,0.88,M,,,1,0004*1B
19:11:43.076 [APLA] $GPVTG,298.9,T,,M,3.0,N,5.6,K,D*02
19:11:42.822 [OCR3] 0000CE4B
19:11:41.848 [OCR1] 0000CE4C
19:11:41.996 [OCR2] 0000CE4D
19:11:43.206 [CTD ]  13.1771,  3.30310,    0.250, 2.9681, 2.5017
19:11:43.092 [OCR3] 0000CE4E
19:11:43.459 [CTD ]  13.1768,  3.30427,    0.176, 2.9687, 2.5019
19:11:43.343 [OCR3] 0000CE4F
19:11:43.713 [CTD ]  13.1774,  3.30475,    0.121, 2.9684, 2.5016
19:11:43.734 [ECO ] 99/99/99	99:99:99	700	50	595	50	680	48	547
19:11:43.803 [OWL ] SEAOWLA2K-0144	3894	109	646	646	1294	212	1635	1635	2610	2610	145	978	978
19:11:44.000 [DBG ] $STAT,RECORDING
19:11:44.001 [APLA] $UTC,20220708,191144.0013
19:11:44.003 [APLA] $GPZDA,191144.0013,08,07,2022,,*61
19:11:43.967 [CTD ]  13.1786,  3.30585,    0.141, 2.9686, 2.5018
19:11:43.709 [OCR3] 0000CE50
19:11:44.064 [APLA] $PASHR,191144.058,292.75,T,-3.43,7.82,-0.02,0.020,0.020,0.021,2,1*15
19:11:44.070 [APLA] $GPGGA,191144.058,4946.99510,N,06423.85512,W,4,07,1.3,0.88,M,,,1,0004*1E
19:11:44.219 [APLA] $GPVTG,295.4,T,,M,2.8,N,5.1,K,D*0C
19:11:44.221 [CTD ]  13.1790,  3.30248,    0.224, 2.9688, 2.5025
19:11:44.062 [OCR3] 0000CE51
19:11:43.212 [OCR2] 0000CE52
19:11:43.165 [OCR1] 0000CE53
19:11:44.475 [CTD ]  13.1774,  3.30119,    0.306, 2.9676, 2.5020
19:11:44.327 [OCR3] 0000CE54
19:11:44.616 [OWL ] SEAOWLA2K-0144	3894	112	671	671	1294	212	1627	1627	2610	2610	144	964	964
19:11:44.729 [CTD ]  13.1756,  3.30117,    0.334, 2.9707, 2.5017
19:11:44.581 [OCR3] 0000CE55
19:11:44.857 [ECO ] 99/99/99	99:99:99	700	50	595	50	680	49	547
19:11:45.000 [DBG ] $STAT,RECORDING
19:11:45.001 [APLA] $UTC,20220708,191145.0013
19:11:45.003 [APLA] $GPZDA,191145.0013,08,07,2022,,*60
19:11:44.984 [CTD ]  13.1753,  3.30031,    0.303, 2.9701, 2.5019
19:11:45.064 [APLA] $PASHR,191145.058,289.84,T,2.34,5.37,0.04,0.020,0.020,0.021,2,1*1B
19:11:45.070 [APLA] $GPGGA,191145.058,4946.99541,N,06423.85613,W,4,07,1.3,0.93,M,,,0,0004*12
19:11:45.076 [APLA] $GPVTG,299.0,T,,M,2.6,N,4.9,K,D*03
19:11:44.835 [OCR3] 0000CE56
19:11:45.238 [CTD ]  13.1752,  3.30093,    0.239, 2.9688, 2.5012
19:11:45.100 [OCR3] 0000CE57
