####################
# TYPE: TEXT
# DATE: 2022/07/07
# TIME: 18:17:25
####################
#
19:26:04.003 [DBG ] $STAT,RECORDING
19:26:04.003 [APLA] $UTC707,192604.0036
19:26:04.005 [APLA] $GPZDA,192604.0036,07,07,2022,,*69
19:26:04.056 [CTD ]  12.0486,  3.46329,    0.369, 2.8996, 2.5042
19:26:04.181 [ECO ] 99/99/99	99:99:99	700	51	595	50	680	47	548
19:26:04.304 [CTD ]  12.0486,  3.46324,    0.397, 2.9000, 2.5055
19:26:04.015 [OCR3] 00006535
19:26:04.456 [APLA] $PASHR,192604.451,25.42,T,-0.11,3.85,-0.12,0.021,0.021,0.022,2,1*27
19:26:04.462 [APLA] $GPGGA,192604.451,4947.59586,N,06420.43165,W,4,08,1.3,0.57,M,,,1,0004*11
19:26:04.468 [APLA] $GPVTG,344.9,T,,M,1.2,N,2.2,K,D*01
19:26:04.554 [CTD ]  12.0484,  3.46332,    0.330, 2.9013, 2.5045
19:26:04.363 [OCR3] 00006536
19:26:04.748 [OWL ] SEAOWLA2K-0144	3939	77	327	327	1328	265	2163	2163	2625	2625	117	707	707
19:26:04.804 [CTD ]  12.0487,  3.46342,    0.237, 2.8994, 2.5036
19:26:04.614 [OCR3] 00006539
19:26:05.002 [DBG ] $STAT,RECORDING
19:26:05.003 [APLA] $UTC,20220707,192605.0036
19:26:05.005 [APLA] $GPZDA,192605.0036,07,07,2022,,*68
19:26:05.052 [CTD ]  12.0496,  3.46344,    0.201, 2.8993, 2.5035
19:26:04.865 [OCR3] 0000653A
19:26:05.304 [ECO ] 99/99/99	99:99:99	700	51	595	50	680	47	548
19:26:05.302 [CTD ]  12.0504,  3.46327,    0.250, 2.8994, 2.5044
19:26:05.127 [OCR3] 0000653B
19:26:05.455 [APLA] $PASHR,192605.451,37.38,T,-8.67,-0.51,0.01,0.021,0.021,0.022,0,1*2B
19:26:05.461 [APLA] $GPGGA,192605.451,4947.59616,N,06420.43164,W,4,08,1.3,0.69,M,,,0,0004*17
19:26:05.468 [APLA] $GPVTG,13.6,T,,M,1.4,N,2.6,K,D*3D
19:26:04.793 [OCR2] 0000653C
19:26:05.562 [CTD ]  12.0507,  3.46333,    0.370, 2.8976, 2.5038
19:26:05.561 [OWL ] SEAOWLA2K-0144	3943	78	329	329	1328	265	2163	2163	2626	2626	116	700	700
19:26:05.377 [OCR3] 0000653D
19:26:05.812 [CTD ]  12.0509,  3.46339,    0.434, 2.8984, 2.5042
19:26:06.002 [DBG ] $STAT,RECORDING
19:26:04.787 [OCR1] 0000653E
19:26:06.003 [APLA] $UTC,20220707,1906.0036
19:26:06.005 [APLA] $GPZDA,192606.0036,07,07,2022,,*6B
19:26:05.727 [OCR3] 0000653F
19:26:06.062 [CTD ]  12.0512,  3.46337,    0.384, 2.8977, 2.5045
19:26:05.497 [OCR2] 00006540
19:26:06.089 [OCR3] 00006541
19:26:06.310 [CTD ]  12.0518,  3.46349,    0.288, 2.8962, 2.5039
19:26:06.373 [OWL ] SEAOWLA2K-0144	3939	78	339	339	1329	270	2209	2209	2626	2626	118	708	708
19:26:06.428 [ECO ] 99/99/99	99:99:99	700	51	595	50	680	46	548
19:26:06.456 [APLA] $PASHR,192606.451,46.19,T,0.01,4.84,0.18,0.021,0.021,0.022,0,1*21
19:26:06.461 [APLA] $GPGGA,192606.451,4947.59654,N,06420.43133,W,4,08,1.3,0.90,M,,,2,0004*14
19:26:06.468 [APLA] $GPVTG,40.9,T,,M,1.5,N,2.7,K,D*34
19:26:06.338 [OCR3] 00006542
19:26:06.560 [CTD ]  12.0521,  3.46349,    0.199, 2.8962, 2.5035
19:26:06.587 [OCR3] 00006543
19:26:06.810 [CTD ]  12.0525,  3.46352,    0.194, 2.8952, 2.5043
19:26:06.200 [OCR2] 00006544
19:26:07.002 [DBG ] $STAT,RECORDING
19:26:07.003 [APLA] $UTC,20220707,192607.0036
19:26:07.005 [APLA] $GPZDA,192607.0036,07,07,2022,,*6A
19:26:06.847 [OCR3] 00006545
19:26:07.061 [CTD ]  12.0528,  3.46357,    0.296, 2.8942, 2.5042
19:26:06.005 [OCR1] 00006546
19:26:07.186 [OWL ] SEAOWLA2K-0144	3944	78	336	336	1328	267	2177	2177	2627	2627	117	702	702
19:26:07.319 [CTD ]  12.0528,  3.46333,    0.377, 2.8928, 2.5043
19:26:07.096 [OCR3] 00006547
19:26:07.455 [APLA] $PASHR,192607.451,47.92,T,-6.26,6.14,-0.13,021,0.021,0.022,2,1*23
19:26:07.462 [APLA] $GPGGA,192607.451,4947.59676,N,06420.43108,W,4,08,1.3,0.60,M,,,1,0004*11
19:26:07.468 [APLA] $GPVTG,29.1,T,,M,0.6,N,1.1,K,D*34
19:26:07.552 [ECO ] 99/99/99	99:99:99	700	51	595	50	680	46	548
19:26:06.904 [OCR2] 00006548
19:26:07.569 [CTD ]  12.0521,  3.46327,    0.383, 2.8935, 2.5049
19:26:07.446 [OCR3] 00006549
19:26:07.817 [CTD ]  12.0512,  3.46334,    0.345, 2.8918, 2.5044
19:26:08.002 [DBG ] $STAT,RECORDING
19:26:08.003 [APLA] $UTC,20220707,192608.0036
19:26:08.005 [APLA] $GPZDA,192608.0036,07,07,2022,,*65
19:26:07.806 [OCR3] 0000654A
19:26:07.998 [OWL ] SEAOWLA2K-0144	3939	78	335	335	1329	267	2184	2184	2626	2626	117	702	702
19:26:08.067 [CTD ]  12.0502,  3.46322,    0.328, 2.8905, 2.5053
19:26:08.055 [OCR3] 0000654B
19:26:08.317 [CTD ]  12.0491,  3.46327,    0.307, 2.8905, 2.5040
19:26:07.607 [OCR2] 0000654C
19:26:08.455 [APLA] $PASHR,192608.451,48.37,T,0.10,1.35,-0.07,0.021,0.021,0.022,2,1*03
19:26:08.461 [APLA] $GPGGA,192608.451,4947.59682,N,06420.43097,W,4,08,1.3,0.63,M,,,0,0004*10
19:26:08.468 [APLA] $GPVTG,85.8,T,,M,0.5,N,1.0,K,D*39
19:26:07.222 [OCR1] 0000654D
19:26:08.305 [OCR3] 0000654E
19:26:08.566 [CTD ]  12.0484,  3.46327,    0.272, 2.8897, 2.5032
19:26:08.676 [ECO ] 99/99/99	99:99:99	700	51	595	50	680	47	548
19:26:08.566 [OCR3] 0000654F
19:26:08.815 [CTD ]  12.0478,  3.46312,    0.244, 2.8895, 2.5036
19:26:08.810 [OWL ] SEAOWLA2K-0144	3944	79	342	342	1328	266	2171	2171	2627	2627	118	709	709
19:26:09.002 [DBG ] $STAT,RECORDING
19:26:09.003 [APLA] $UTC,20220707,192609.0036
19:26:09.005 [APLA] $GPZDA,192609.0036,07,07,2022,,*64
19:26:09.065 [CTD ]  12.0471,  3.46322,    0.262, 2.8900, 2.5042
19:26:08.817 [OCR3] 00006550
19:26:08.411 [OCR2] 00006551
19:26:09.325 [CTD ]  12.0466,  3.46318,    0.335, 2.8888, 2.5047
19:26:09.456 [APLA] $PASHR,192609.451,45.55,T,-8.97,2.63,-0.01,0.021,0.021,0.022,2,1*27
19:26:09.462 [APLA] $GPGGA,192609.451,4947.59690,N,06420.43072,W,4,08,1.3,0.69,M,,,0,0004*13
19:26:09.468 [APLA] $GPVTG,50.9,T,,M,0.9,N,1.7,K,D*3B
19:26:09.169 [OCR3] 00006552
19:26:09.575 [CTD ]  12.0465,  3.46327,    0.399, 2.8884, 2.5040
19:26:09.623 [OWL ] SEAOWLA2K-0144	3940	82	371	371	1329	256	2070	2070	2625	2625	117	708	708
19:26:09.530 [OCR3] 00006553
19:26:09.799 [ECO ] 99/99/99	99:99:99	700	51	595	50	680	47	547
19:26:08.538 [OCR1] 00006554
19:26:09.823 [CTD ]  12.0461,  3.46317,    0.411, 2.8869, 2.5043
19:26:09.214 [OCR2] 00006555
19:26:10.002 [DBG ] $STAT,RECORDING
19:26:10.003 [APLA] $UTC,20220707,192610.0036
19:26:10.005 [APLA] $GPZDA,192610.0036,07,07,2022,,*6C
19:26:09.781 [OCR3] 00006556
19:26:10.073 [CTD ]  12.0461,  3.46304,    0.367, 2.8883, 2.5045
19:26:10.031 [OCR3] 00006557
19:26:10.323 [CTD ]  12.0460,  3.46312,    0.294, 2.8879, 2.5037
19:26:10.456 [APLA] $PASHR,192610.451,45.40,T,1.38,3.31,0.09,0.021,0.021,0.022,0,1*2B
19:26:10.461 [APLA] $GPGGA,192610.451,4947.59702,N,06420.43035,W,4,08,1.3,0.80,M,,,1,0004*14
19:26:10.468 [APLA] $GPVTG,74.0,T,,M,1.0,N,1.8,K,D*33
19:26:10.435 [OWL ] SEAOWLA2K-0144	3944	82	369	369	1328	273	2233	2233	2626	2626	118	708	708
19:26:10.292 [OCR3] 00006558
19:26:10.571 [CTD ]  12.0460,  3.46317,    0.216, 2.8869, 2.5044
19:26:09.918 [OCR2] 00006559
19:26:10.821 [CTD ]  12.0460,  3.46319,    0.172, 2.8861, 2.5038
19:26:10.541 [OCR3] 0000655A
19:26:10.923 [ECO ] 99/99/99	99:99:99	700	51	595	50	680	48	548
19:26:11.002 [DBG ] $STAT,RECORDING
19:26:11.003 [APLA] $UTC,20220707,192611.0036
19:26:11.005 [APLA] $GPZDA,192611.0036,07,07,2022,,*6D
19:26:09.855 [OCR1] 0000655B
19:26:11.081 [CTD ]  12.0460,  3.46306,    0.226, 2.8870, 2.5034
19:26:10.890 [OCR3] 0000655C
19:26:11.248 [OWL ] SEAOWLA2K-0144	3939	80	347	347	1329	268	2190	2190	2625	2625	118	712	712
19:26:10.621 [OCR2] 0000655D
19:26:11.331 [CTD ]  12.0461,  3.46327,    0.330, 2.8870, 2.5031
19:26:11.455 [APLA] $PASHR,192611.451,42.96,T,-10.78,4.68,-0.07,0.021,0.021,0.022,2,1*15
19:26:11.462 [APLA] $GPGGA,192611.451,4947.59709,N,06420.43006,W,4,08,1.3,0.66,M,,,0,0004*17
19:26:11.468 [APLA] $GPVTG,53.1,T,,M,0.6,N,1.0,K,D*38
19:26:11.250 [OCR3] 0000655E
19:26:11.581 [CTD ]  12.0458,  3.46309,    0.422, 2.8858, 2.5034
19:26:11.499 [OCR3] 0000655F
19:26:11.829 [CTD ]  12.0447,  3.46309,    0.455, 2.8868, 2.5045
19:26:12.002 [DBG ] $STAT,RECORDING
19:26:12.003 [APLA] $UTC,20220707,192612.0036
19:26:12.005 [APLA] $GPZDA,192612.0036,07,07,20226E
19:26:11.748 [OCR3] 00006560
19:26:11.325 [OCR2] 00006561
19:26:12.047 [ECO ] 99/99/99	99:99:99	700	51	595	50	680	46	548
19:26:12.060 [OWL ] SEAOWLA2K-0144	3944	77	320	320	1328	262	2129	2129	2626	2626	118	712	712
19:26:12.079 [CTD ]  12.0437,  3.46304,    0.434, 2.8857, 2.5045
19:26:12.014 [OCR3] 00006562
19:26:11.071 [OCR1] 00006563
19:26:12.329 [CTD ]  12.0428,  3.46304,    0.361, 2.8867, 2.5029
19:26:12.456 [APLA] $PASHR,192612.451,40.47,T,2.35,2.62,0.08,0.021,0.021,0.022,2,1*21
19:26:12.461 [APLA] $GPGGA,192612.451,4947.59723,N,06420.42972,W,4,08,1.3,0.81,M,,,0,0004*1E
19:26:12.468 [APLA] $GPVTG,71.7,T,,M,1.3,N,2.3,K,D*3A
19:26:12.258 [OCR3] 00006564
19:26:12.577 [CTD ]  12.0424,  3.46299,    0.260, 2.8852, 2.5036
19:26:12.028 [OCR2] 00006565
19:26:12.827 [CTD ]  12.0419,  3.46299,    0.172, 2.8854, 2.5041
19:26:12.873 [OWL ] SEAOWLA2K-0144	3940	77	326	326	1329	273	2238	2238	2626	2626	117	707	707
19:26:12.609 [OCR3] 00006566
19:26:13.002 [DBG ] $STAT,RECORDING
19:26:13.003 [APLA] $UTC,20220707,192613.0036
19:26:13.005 [APLA] $GPZDA,192613.0036,07,07,2022,,*6F
19:26:13.087 [CTD ]  12.0417,  3.46304,    0.172, 2.8854, 2.5041
19:26:13.171 [ECO ] 99/99/99	99:99:99	700	51	595	50	680	46	548
19:26:12.969 [OCR3] 00006567
19:26:13.338 [CTD ]  12.0416,  3.46312,    0.271, 2.8842, 2.5039
19:26:13.455 [APLA] $PASHR,192613.451,41.18,T,-11.92,5.57,-0.13,0.021,0.021,0.022,0,1*1D
19:26:13.462 [APLA] $GPGGA,192613.451,4947.59728,N,06420.42930,W,4,08,1.3,0.61,M,,,0,0004*1C
19:26:13.468 [APLA] $GPVTG,79.9,T,,M,0.5,N,0.K,D*33
19:26:13.219 [OCR3] 00006568
19:26:12.289 [OCR1] 00006569
19:26:13.586 [CTD ]  12.0419,  3.46327,    0.391, 2.8851, 2.5044
19:26:12.833 [OCR2] 0000656A
19:26:13.483 [OCR3] 0000656B
19:26:13.685 [OWL ] SEAOWLA2K-0144	3944	75	300	300	1328	275	2251	2251	2626	2626	118	714	714
19:26:13.836 [CTD ]  12.0426,  3.46329,    0.460, 2.8844, 2.5055
19:26:13.732 [OCR3] 0000656C
19:26:14.002 [DBG ] $STAT,RECORDING
19:26:14.003 [APLA] $UTC,20220707,192614.0036
19:26:14.005 [APLA] $GPZDA,192614.0036,07,07,2022,,*68
19:26:14.086 [CTD ]  12.0432,  3.46332,    0.459, 2.8868, 2.5043
19:26:14.294 [ECO ] 99/99/99	99:99:99	700	51	595	50	680	48	548
19:26:13.982 [OCR3] 0000656D
19:26:13.636 [OCR2] 0000656E
19:26:14.334 [CTD ]  12.0438,  3.46334,    0.397, 2.8856, 2.5048
19:26:14.456 [APLA] $PASHR,192614.451,43.85,T,1.78,3.86,-0.12,0.021,0.021,0.022,2,1*0D
19:26:14.462 [APLA] $GPGGA,192614.451,4947.59728,N,06420.42914,W,4,08,1.3,0.57,M,,,0,0004*18
19:26:14.468 [APLA] $GPVTG,108.3,T,,M,0.6,N,1.2,K,D*07
19:26:14.497 [OWL ] SEAOWLA2K-0144	3940	79	346	346	1329	268	2189	2189	2626	2626	117	707	707
19:26:14.584 [CTD ]  12.0438,  3.46329,    0.302, 2.8852, 2.5033
19:26:14.332 [OCR3] 0000656F
19:26:13.507 [OCR1] 00006570
19:26:14.834 [CTD ]  12.0436,  3.46327,    0.211, 2.8853, 2.5035
19:26:14.694 [OCR3] 00006571
19:26:15.010 [DBG ] $STAT,RECORDING
19:26:15.003 [APLA] $UTC,20707,192615.0037
19:26:15.005 [APLA] $GPZDA,192615.0037,07,07,2022,,*68
19:26:14.340 [OCR2] 00006572
19:26:15.094 [CTD ]  12.0437,  3.46328,    0.159, 2.8851, 2.5044
19:26:14.943 [OCR3] 00006573
19:26:15.310 [OWL ] SEAOWLA2K-0144	3944	78	336	336	1328	257	2078	2078	2626	2626	118	711	711
19:26:15.344 [CTD ]  12.0437,  3.46334,    0.213, 2.8855, 2.5049
19:26:15.418 [ECO ] 99/99/99	99:99:99	700	51	595	50	680	46	548
19:26:15.192 [OCR3] 00006574
19:26:15.455 [APLA] $PASHR,192615.451,46.24,T,-11.18,0.02,0.07,0.021,0.021,0.022,0,1*3C
19:26:15.462 [APLA] $GPGGA,192615.451,4947.59729,N,06420.42879,W,8,1.3,0.76,M,,,0,0004*11
19:26:15.468 [APLA] $GPVTG,55.8,T,,M,1.0,N,1.9,K,D*39
19:26:15.595 [CTD ]  12.0442,  3.46337,    0.354, 2.8851, 2.5040
19:26:15.452 [OCR3] 00006575
19:26:15.043 [OCR2] 00006576
19:26:15.842 [CTD ]  12.0444,  3.46339,    0.454, 2.8862, 2.5031
19:26:16.002 [DBG ] $STAT,RECORDING
19:26:16.003 [APLA] $UTC,20220707,192616.0037
19:26:16.005 [APLA] $GPZDA,192616.0037,07,07,2022,,*6B
19:26:14.723 [OCR1] 00006577
19:26:15.701 [OCR3] 00006578
19:26:16.092 [CTD ]  12.0446,  3.46324,    0.447, 2.8858, 2.5030
19:26:16.122 [OWL ] SEAOWLA2K-0144	3940	78	334	334	1329	271	2221	2221	2626	2626	117	708	708
19:26:16.340 [CTD ]  12.0447,  3.46327,    0.376, 2.8859, 2.5046
19:26:16.051 [OCR3] 00006579
19:26:15.747 [OCR2] 0000657A
19:26:16.456 [APLA] $PASHR,192616.451,48.30,T,0.09,4.26,0.18,0.021,0.021,0.022,2,1*27
19:26:16.461 [APLA] $GPGGA,192616.451,47.59757,N,06420.42829,W,4,08,1.3,0.92,M,,,0,0004*14
19:26:16.468 [APLA] $GPVTG,57.7,T,,M,1.7,N,3.1,K,D*39
19:26:16.542 [ECO ] 99/99/99	99:99:99	700	51	595	50	680	46	548
19:26:16.590 [CTD ]  12.0448,  3.46329,    0.288, 2.8861, 2.5042
19:26:16.411 [OCR3] 0000657B
19:26:16.850 [CTD ]  12.0446,  3.46328,    0.225, 2.8855, 2.5042
19:26:16.660 [OCR3] 0000657C
19:26:16.935 [OWL ] SEAOWLA2K-0144	3944	76	315	315	1328	276	2272	2272	2626	2626	117	709	709
19:26:17.002 [DBG ] $STAT,RECORDING
19:26:17.003 [APLA] $UTC,20220707,192617.0037
19:26:17.005 [APLA] $GPZDA,192617.0037,07,07,2022,,*6A
19:26:17.100 [CTD ]  12.0448,  3.46329,    0.224, 2.8865, 2.5035
19:26:16.910 [OCR3] 0000657D
19:26:16.450 [OCR2] 0000657E
19:26:16.040 [OCR1] 0000657F
19:26:17.350 [CTD ]  12.0449,  3.46334,    0.281, 2.8861, 2.5053
19:26:17.172 [OCR3] 00006580
19:26:17.456 [APLA] $PASHR,192617.451,50.60,T,-8.18,8.86,-0.25,0.021,0.021,0.022,2,1*2A
19:26:17.462 [APLA] $GPGGA,192617.451,4947.59764,N,06420.42785,W,4,08,1.3,0.50,M,,,0,0004*12
19:26:17.468 [APLA] $GPVTG,131.0,T,,M,0.5,N,0.9,K,D*07
19:26:17.598 [CTD ]  12.0451,  3.46327,    0.369, 2.8871, 2.5043
19:26:17.666 [ECO ] 99/99/99	99:99:99	700	51	595	50	680	46	548
19:26:17.423 [OCR3] 00006581
19:26:17.747 [OWL ] SEAOWLA2K-0144	3940	75	303	303	1329	261	2118	2118	2625	2625	117	706	706
19:26:17.848 [CTD ]  12.0452,  3.46234,    0.441, 2.8866, 2.5034
19:26:18.002 [DBG ] $STAT,RECORDING
19:26:18.003 [APLA] $UTC,20220707,192618.0037
19:26:18.005 [APLA] $GPZDA,192618.0037,07,07,2022,,*65
19:26:17.254 [OCR2] 00006582
19:26:17.774 [OCR3] 00006583
19:26:18.098 [CTD ]  12.0453,  3.46329,    0.459, 2.8886, 2.5030
19:26:18.135 [OCR3] 00006584
19:26:18.346 [CTD ]  12.0452,  3.46350,    0.428, 2.8876, 2.5041
19:26:18.456 [APLA] $PASHR,192618.451,53.60,T,-4.02,0.04,-0.,0.021,0.021,0.022,2,1*2D
19:26:18.462 [APLA] $GPGGA,192618.451,4947.59760,N,06420.42773,W,4,08,1.3,0.59,M,,,0,0004*19
19:26:18.468 [APLA] $GPVTG,85.9,T,,M,0.8,N,1.4,K,D*31
19:26:17.356 [OCR1] 00006585
19:26:18.559 [OWL ] SEAOWLA2K-0144	3944	76	316	316	1328	271	2220	2220	2626	2626	117	707	707
19:26:18.386 [OCR3] 00006586
19:26:18.596 [CTD ]  12.0453,  3.46355,    0.373, 2.8890, 2.5044
19:26:18.057 [OCR2] 00006587
19:26:18.789 [ECO ] 99/99/99	99:99:99	700	51	595	50	680	48	547
19:26:18.636 [OCR3] 00006588
19:26:18.856 [CTD ]  12.0456,  3.46355,    0.305, 2.8890, 2.5040
19:26:19.002 [DBG ] $STAT,RECORDING
19:26:19.003 [APLA] $UTC,20220707,192619.0037
19:26:19.005 [APLA] $GPZDA,192619.0037,07,07,2022,,*64
19:26:18.897 [OCR3] 00006589
19:26:19.105 [CTD ]  12.0457,  3.46355,    0.257, 2.8887, 2.5033
19:26:19.355 [CTD ]  12.0458,  3.46360,    0.255, 2.8904, 2.5041
19:26:19.372 [OWL ] SEAOWLA2K-0144	3940	75	307	307	1329	268	2191	2191	2625	2625	117	708	708
19:26:19.456 [APLA] $PASHR,192619.451,59.29,T,-7.58,4.60,0.09,0.021,0.021,0.022,2,1*0C
19:26:19.461 [APLA] $GPGGA,192619.451,4947.597,N,06420.42727,W,4,08,1.3,0.78,M,,,0,0004*1C
19:26:19.468 [APLA] $GPVTG,62.6,T,,M,1.1,N,2.0,K,D*38
19:26:18.761 [OCR2] 0000658A
19:26:19.146 [OCR3] 0000658B
19:26:19.605 [CTD ]  12.0459,  3.46362,    0.313, 2.8905, 2.5037
19:26:18.573 [OCR1] 0000658C
19:26:19.495 [OCR3] 0000658D
19:26:19.853 [CTD ]  12.0460,  3.46367,    0.376, 2.8899, 2.5043
19:26:19.913 [ECO ] 99/99/99	99:99:99	700	51	595	50	680	48	548
19:26:20.002 [DBG ] $STAT,RECORDING
19:26:20.003 [APLA] $UTC,20220707,192620.0037
19:26:20.005 [APLA] $GPZDA,192620.0037,07,07,2022,,*6E
19:26:19.855 [OCR3] 0000658E
19:26:20.103 [CTD ]  12.0466,  3.46372,    0.406, 2.8896, 2.5039
19:26:19.483 [OCR2] 0000658F
19:26:20.184 [OWL ] SEAOWLA2K-0144	3944	76	313	313	1328	278	2288	2288	2626	2626	118	709	709
19:26:20.104 [OCR3] 00006590
19:26:20.353 [CTD ]  12.0472,  3.46377,    0.409, 2.8910, 2.5036
19:26:20.456 [APLA] $PASHR,192620.451,61.42,T,-5.94,0.36,0.11,0.021,0.021,0.022,2,1*0C
19:26:20.461 [APLA] $GPGGA,192620.451,4947.59783,N,06420.42685,W,4,08,1.3,0.84,M,,,0,0004*17
19:26:20.468 [APLA] $GPVTG,62.7,T,,M,1.6,N,3.0,K,D*3F
19:26:20.353 [OCR3] 00006591
19:26:20.613 [CTD ]  12.0475,  3.46374,    0.401, 2.8916, 2.5045
19:26:20.613 [OCR3] 00006592
19:26:20.168 [OCR2] 00006593
19:26:20.863 [CTD ]  12.0478,  3.46380,    0.383, 2.8916, 2.5038
19:26:21.002 [DBG ] $STAT,RECORDING
19:26:21.003 [APLA] $UTC,20220707,192621.0037
19:26:21.005 [APLA] $GPZDA,192621.0037,07,07,2022,,F
19:26:19.791 [OCR1] 00006594
19:26:20.997 [OWL ] SEAOWLA2K-0144	3940	79	341	341	1329	264	2149	2149	2626	2626	118	715	715
19:26:21.037 [ECO ] 99/99/99	99:99:99	700	51	595	50	680	48	548
19:26:21.111 [CTD ]  12.0480,  3.46382,    0.331, 2.8908, 2.5039
19:26:20.863 [OCR3] 00006595
19:26:21.361 [CTD ]  12.0483,  3.46385,    0.263, 2.8906, 2.5045
19:26:21.456 [APLA] $PASHR,192621.451,60.77,T,-2.80,11.34,-0.05,0.021,0.021,0.022,2,1*12
19:26:21.462 [APLA] $GPGGA,192621.451,4947.59798,N,06420.42618,W,4,08,1.3,0.72,M,,,0,0004*11
19:26:21.468 [APLA] $GPVTG,91.3,T,,M,1.0,N,1.9,K,D*3A
19:26:21.214 [OCR3] 00006596
19:26:21.611 [CTD ]  12.0486,  3.46385,    0.229, 2.8912, 2.5037
19:26:20.872 [OCR2] 00006597
19:26:21.575 [OCR3] 00006598
19:26:21.809 [OWL ] SEAOWLA2K-0144	3944	74	292	292	1328	273	2239	2239	2626	2626	117	710	710
19:26:21.859 [CTD ]  12.0492,  3.46382,    0.272, 2.8906, 2.5046
19:26:22.002 [DBG ] $STAT,RECORDING
19:26:22.003 [APLA] $UTC,20220707,192622.0037
19:26:22.005 [APLA] $GPZDA,192622.0037,07,07,2022,,*6C
19:26:21.826 [OCR3] 00006599
19:26:22.109 [CTD ]  12.0493,  3.46395,    0.398, 2.8903, 2.5036
19:26:22.161 [ECO ] 99/99/99	99:99:99	700	51	595	50	680	46	548
19:26:21.014 [OCR1] 0000659A
19:26:22.077 [OCR3] 0000659B
19:26:22.369 [CTD ]  12.0496,  3.46386,    0.496, 2.8917, 2.5024
19:26:22.456 [APLA] $PASHR,192622.451,64.53,T,-9.72,-0.69,-0.23,0.021,0.021,0.022,2,1*04
19:26:22.462 [APLA] $GPGGA,192622.451,4947.59789,N,06420.42605,W,4,08,1.3,0.47,M,,,0,0004*18
19:26:22.468 [APLA] $GPVTG,93.3,T,,M,0.6,N,1.1,K,D*37
19:26:21.675 [OCR2] 0000659C
19:26:22.338 [OCR3] 0000659D
19:26:22.619 [CTD ]  12.0492,  3.46377,    0.492, 2.8922, 2.5028
19:26:22.622 [OWL ] SEAOWLA2K-0144	3941	74	294	294	1329	273	2241	2241	2626	2626	118	710	710
19:26:22.869 [CTD ]  12.0488,  3.46362,    0.435, 2.8907, 2.5040
19:26:22.588 [OCR3] 0000659E
19:26:23.002 [DBG ] $STAT,RECORDING
19:26:23.003 [APLA] $UTC,20220707,192623.0037
19:26:23.005 [APLA] $GPZDA,192623.0037,07,07,2022,,*6D
19:26:23.117 [CTD ]  12.0483,  3.46355,    0.374, 2.8917, 2.5037
19:26:22.483 [OCR2] 0000659F
19:26:22.938 [OCR3] 000065A0
19:26:23.284 [ECO ] 99/99/99	99:99:99	700	51	595	50	680	47	548
19:26:23.367 [CTD ]  12.0473,  3.46357,    0.317, 2.8926, 2.5037
19:26:23.456 [APLA] $PASHR,192623.451,63.55,T,-3.96,3.28,0.16,0.021,0.021,0.022,2,1*04
19:26:23.462 [APLA] $GPGGA,192623.451,4947.59798,N,06420.42536,W,4,08,1.3,0.87,M,,,0,0004*16
19:26:23.468 [APLA] $GPVTG,78.1,T,,M,2.1,N,3.8,K,D*3E
19:26:23.434 [OWL ] SEAOWLA2K-0144	3944	75	305	305	1329	264	2143	2143	2625	2625	118	711	711
19:26:22.224 [OCR1] 000065A1
19:26:23.299 [OCR3] 000065A2
19:26:23.617 [CTD ]  12.0465,  3.46360,    0.290, 2.8931, 2.5043
19:26:23.548 [OCR3] 000065A3
19:26:23.182 [OCR2] 000065A4
19:26:23.865 [CTD ]  12.0463,  3.46342,    0.290, 2.8923, 2.5041
19:26:24.002 [DBG ] $STAT,RECORDING
19:26:24.003 [APLA] $UTC,20220707,192624.0037
19:26:24.005 [APLA] $GPZDA,192624.0037,07,07,2022,,*6A
19:26:23.797 [OCR3] 000065A5
19:26:24.118 [CTD ]  12.0464,  3.46362,    0.308, 2.8927, 2.5038
19:26:24.057 [OCR3] 000065A6
19:26:24.246 [OWL ] SEAOWLA2K-0144	3940	75	307	307	1329	268	2183	2183	2625	2625	118	711	711
19:26:24.375 [CTD ]  12.0467,  3.46294,    0.341, 2.8939, 2.5036
19:26:24.408 [ECO ] 99/99/99	99:99:99	700	51	595	50	680	47	548
19:26:24.456 [APLA] $PASHR,192624.451,64.48,T,-6.67,6.86,-0.13,0.021,0.021,0.022,2,1*2A
19:26:24.462 [APLA] $GPGGA,192624.451,4947.59801,N,06420.42485,W,4,08,1.3,0.59,M,,,0,0004*14
19:26:24.468 [APLA] $GPVTG,98.3,T,,M,0.5,N,0.9,K,D*36
19:26:23.885 [OCR2] 000065A7
19:26:24.306 [OCR3] 000065A8
19:26:24.624 [CTD ]  12.0472,  3.46347,    0.385, 2.8926, 2.5034
19:26:23.542 [OCR1] 000065A9
19:26:24.875 [CTD ]  12.0479,  3.46312,    0.421, 2.8928, 2.5050
19:26:25.002 [DBG ] $STAT,RECORDING
19:26:25.003 [APLA] $UTC,20220707,192625.0037
19:26:25.005 [APLA] $GPZDA,192625.0037,07,07,2022,,*6B
19:26:24.656 [OCR3] 000065AA
19:26:25.059 [OWL ] SEAOWLA2K-0144	3944	75	299	299	1328	264	2147	2147	2626	2626	117	707	707
19:26:25.124 [CTD ]  12.0489,  3.46370,    0.422, 2.8940, 2.5050
19:26:25.016 [OCR3] 000065AB
19:26:24.589 [OCR2] 000065AC
19:26:25.372 [CTD ]  12.0499,  3.46385,    0.387, 2.8934, 2.5014
19:26:25.456 [APLA] $PASHR,192625.451,63.41,T,-5.34,-0.80,0.17,0.021,0.021,0.022,2,1*24
19:26:25.462 [APLA] $GPGGA,192625.451,4947.59810,N,06420.42438,W,4,08,1.3,0.88,M,,,0,0004*1F
19:26:25.468 [APLA] $GPVTG,71.9,T,,M,2.0,N,3.8,K,D*3E
19:26:25.265 [OCR3] 000065AD
19:26:25.532 [ECO ] 99/99/99	99:99:99	700	51	595	50	680	45	548
19:26:25.622 [CTD ]  12.0511,  3.46407,    0.347, 2.8939, 2.5028
19:26:25.516 [OCR3] 000065AE
19:26:25.872 [CTD ]  12.0522,  3.46410,    0.312, 2.8962, 2.5047
19:26:25.871 [OWL ] SEAOWLA2K-0144	3940	74	293	293	1330	393	3420	3420	2626	2626	117	710	710
19:26:26.002 [DBG ] $STAT,RECORDING
19:26:26.003 [APLA] $UTC,20220707,192626.0037
19:26:26.005 [APLA] $GPZDA,192626.0037,07,07,2022,,*68
19:26:25.777 [OCR3] 000065AF
19:26:24.858 [OCR1] 000065B0
19:26:25.292 [OCR2] 000065B1
19:26:26.132 [CTD ]  12.0534,  3.46383,    0.316, 2.8933, 2.5037
19:26:26.028 [OCR3] 000065B2
19:26:26.382 [CTD ]  12.0536,  3.46430,    0.353, 2.8952, 2.5037
19:26:26.456 [APLA] $PASHR,192626.451,62.45,T,-5.21,10.65,-0.10,0.021,0.021,0.022,2,1*1B
19:26:26.462 [APLA] $GPGGA,192626.451,4947.59822,N,06420.42368,W,4,08,1.3,0.65,M,,,0,0004*1C
19:26:26.610 [APLA] $GPVTG,91.0,T,,M,0.8,N,1.5,K,D*3C
19:26:26.630 [CTD ]  12.0548,  3.46468,    0.377, 2.8951, 2.5049
19:26:26.655 [ECO ] 99/99/99	99:99:99	700	52	595	50	680	47	548
19:26:26.380 [OCR3] 000065B3
19:26:26.684 [OWL ] SEAOWLA2K-0144	3945	74	292	292	1329	285	2355	2355	2626	2626	117	701	701
19:26:26.096 [OCR2] 000065B4
19:26:26.880 [CTD ]  12.0569,  3.46488,    0.370, 2.8962, 2.5046
19:26:26.741 [OCR3] 000065B5
19:26:27.002 [DBG ] $STAT,RECORDING
19:26:27.003 [APLA] $UTC,20220707,192627.0037
19:26:27.005 [APLA] $GPZDA92627.0037,07,07,2022,,*69
19:26:27.130 [CTD ]  12.0592,  3.46493,    0.359, 2.8973, 2.5044
19:26:26.992 [OCR3] 000065B6
19:26:26.074 [OCR1] 000065B7
19:26:27.378 [CTD ]  12.0607,  3.46491,    0.361, 2.8971, 2.5037
19:26:27.456 [APLA] $PASHR,192627.451,60.22,T,-4.39,0.88,-0.10,0.021,0.021,0.022,2,1*23
19:26:27.462 [APLA] $GPGGA,192627.451,4947.59818,N,06420.42347,W,4,08,1.3,0.61,M,,,0,0004*1D
19:26:27.468 [APLA] $GPVTG,97.9,T,,M,0.7,N,1.3,K,D*3A
19:26:27.242 [OCR3] 000065B8
19:26:27.496 [OWL ] SEAOWLA2K-0144	3940	75	307	307	1329	285	2359	2359	2626	2626	117	709	709
19:26:26.900 [OCR2] 000065B9
19:26:27.628 [CTD ]  12.0614,  3.46488,    0.357, 2.8972, 2.5038
19:26:27.502 [OCR3] 000065BA
19:26:27.779 [ECO ] 99/99/99	99:99:99	700	51	595	50	680	46	548
19:26:27.888 [CTD ]  12.0618,  3.46463,    0.349, 2.8975, 2.5037
19:26:28.002 [DBG ] $STAT,RECORDING
19:26:28.003 [APLA] $UTC,20220707,192628.0037
19:26:28.005 [APLA] $GPZDA,192628.0037,07,07,2022,,*66
19:26:27.751 [OCR3] 000065BB
19:26:28.138 [CTD ]  12.0622,  3.46503,    0.338, 2.8985, 2.5049
19:26:27.603 [OCR2] 000065BC
19:26:28.309 [OWL ] SEAOWLA2K-0144	3945	74	297	297	1328	261	2119	2119	2627	2627	117	710	710
19:26:28.386 [CTD ]  12.0625,  3.46496,    0.339, 2.8987, 2.5045
19:26:28.100 [OCR3] 000065BD
19:26:28.456 [APLA] $PASHR,192628.451,58.73,T,-7.76,2.84,0.10,0.021,021,0.022,2,1*08
19:26:27.292 [OCR1] 000065BE
19:26:28.462 [APLA] $GPGGA,192628.451,4947.59821,N,06420.42299,W,4,08,1.3,0.80,M,,,0,0004*15
19:26:28.610 [APLA] $GPVTG,69.5,T,,M,1.3,N,2.4,K,D*36
19:26:28.636 [CTD ]  12.0628,  3.46503,    0.347, 2.8996, 2.5046
19:26:28.460 [OCR3] 000065BF
19:26:28.903 [ECO ] 99/99/99	99:99:99	700	51	595	50	680	49	548
19:26:28.886 [CTD ]  12.0627,  3.46501,    0.354, 2.9003, 2.5042
19:26:28.709 [OCR3] 000065C0
19:26:29.002 [DBG ] $STAT,RECORDING
19:26:29.003 [APLA] $UTC,20220707,192629.0037
19:26:29.005 [APLA] $GPZDA,192629.0037,07,07,2022,,*67
19:26:28.307 [OCR2] 000065C1
19:26:29.134 [CTD ]  12.0625,  3.46493,    0.348, 2.8997, 2.5036
19:26:29.121 [OWL ] SEAOWLA2K-0144	3940	76	318	318	1329	263	2134	2134	2626	2626	117	708	708
19:26:28.958 [OCR3] 000065C2
19:26:29.384 [CTD ]  12.0619,  3.46486,    0.330, 2.9006, 2.5038
19:26:29.456 [APLA] $PASHR,192629.451,57.31,T,-0.75,4.35,0.09,0.021,0.021,0.022,2,1*00
19:26:29.462 [APLA] $GPGGA,192629.451,4947.59835,N,06420.42251,W,4,08,1.3,0.82,M,,,0,0004*17
19:26:29.468 [APLA] $GPVTG,70.T,,M,1.1,N,2.0,K,D*3D
19:26:29.219 [OCR3] 000065C3
19:26:29.644 [CTD ]  12.0608,  3.46470,    0.295, 2.9017, 2.5035
19:26:29.015 [OCR2] 000065C4
19:26:28.510 [OCR1] 000065C5
19:26:29.482 [OCR3] 000065C6
19:26:29.894 [CTD ]  12.0599,  3.46473,    0.256, 2.9003, 2.5036
19:26:29.934 [OWL ] SEAOWLA2K-0144	3945	78	335	335	1328	264	2143	2143	2626	2626	118	710	710
19:26:30.011 [DBG ] $STAT,RECORDING
19:26:30.003 [APLA] $UTC,20220707,192630.0037
19:26:30.005 [APLA] $GPZDA,192630.0037,07,07,2022,,*6F
19:26:30.027 [ECO ] 99/99/99	99:99:99	700	51	595	50	680	45	548
19:26:29.820 [OCR3] 000065C7
19:26:30.144 [CTD ]  12.0594,  3.46476,    0.243, 2.9016, 2.5040
19:26:30.181 [OCR3] 000065C8
19:26:30.392 [CTD ]  12.0592,  3.46468,    0.288, 2.9043, 2.4992
19:26:30.456 [APLA] $PASHR,192630.451,55.69,T,-7.04,4.27,-0.0.021,0.021,0.022,2,1*28
19:26:30.462 [APLA] $GPGGA,192630.451,4947.59840,N,06420.42213,W,4,08,1.3,0.65,M,,,0,0004*12
19:26:30.468 [APLA] $GPVTG,80.9,T,,M,0.7,N,1.2,K,D*3D
19:26:29.714 [OCR2] 000065C9
19:26:30.432 [OCR3] 000065CA
19:26:30.642 [CTD ]  12.0588,  3.46395,    0.361, 2.9026, 2.4959
19:26:30.746 [OWL ] SEAOWLA2K-0144	3941	76	312	312	1329	274	2245	2245	2626	2626	118	711	711
19:26:30.892 [CTD ]  12.0584,  3.46425,    0.398, 2.9023, 2.5007
19:26:30.683 [OCR3] 000065CB
19:26:31.002 [DBG ] $STAT,RECORDING
19:26:31.003 [APLA] $UTC,20220707,192630037
19:26:31.005 [APLA] $GPZDA,192631.0037,07,07,2022,,*6E
19:26:29.725 [OCR1] 000065CC
19:26:31.151 [ECO ] 99/99/99	99:99:99	700	51	595	50	680	46	548
19:26:31.140 [CTD ]  12.0573,  3.46420,    0.379, 2.9030, 2.5036
19:26:30.944 [OCR3] 000065CD
19:26:30.517 [OCR2] 000065CE
19:26:31.402 [CTD ]  12.0569,  3.46456,    0.321, 2.9023, 2.5062
19:26:31.456 [APLA] $PASHR,192631.451,55.13,T,-0.73,2.41,-0.04,0.021,0.021,0.022,1,1*2B
19:26:31.462 [APLA] $GPGGA,192631.451,4947.59842,N,06420.42187,W,4,08,1.3,0.67,M,,,0,0004*1D
19:26:31.468 [APLA] $GPVTG,85.6,T,,M,0.7,N,1.2,K,D*37
19:26:31.194 [OCR3] 000065CF
19:26:31.558 [OWL ] SEAOWLA2K-0144	3944	79	340	340	1328	266	2172	2172	2627	2627	118	717	717
19:26:31.661 [CTD ]  12.0569,  3.46456,    0.254, 2.9046, 2.5104
19:26:31.543 [OCR3] 000065D0
19:26:31.911 [CTD ]  12.0570,  3.46455,    0.232, 2.9044, 2.5066
19:26:32.002 [DBG ] $STAT,RECORDING
19:26:32.003 [APLA] $UTC,20220707,192632.0037
19:26:32.005 [APLA] $GPZDA,192632.0037,07,07,2022,,*6D
19:26:31.321 [OCR2] 000065D1
19:26:31.905 [OCR3] 000065D2
19:26:32.161 [CTD ]  12.0572,  3.46448,    0.280, 2.9046, 2.5045
19:26:32.274 [ECO ] 99/99/99	99:99:99	700	51	595	50	680	45	547
19:26:31.043 [OCR1] 000065D3
19:26:32.154 [OCR3] 000065D4
19:26:32.371 [OWL ] SEAOWLA2K-0144	3941	79	340	340	1330	258	2091	2091	2626	2626	117	704	704
19:26:32.409 [CTD ]  12.0575,  3.46450,    0.324, 2.9038, 2.5030
19:26:32.456 [APLA] $PASHR,192632.451,55.41,T,-5.75,2.11,0.05,0.021,0.021,0.022,2,1*06
19:26:32.462 [APLA] $GPGGA,192632.451,47.59845,N,06420.42152,W,4,08,1.3,0.75,M,,,0,0004*12
19:26:32.468 [APLA] $GPVTG,78.6,T,,M,1.0,N,1.8,K,D*39
19:26:32.403 [OCR3] 000065D5
19:26:32.662 [CTD ]  12.0581,  3.46470,    0.342, 2.9057, 2.5035
19:26:32.024 [OCR2] 000065D6
19:26:32.663 [OCR3] 000065D7
19:26:32.919 [CTD ]  12.0585,  3.46434,    0.347, 2.9046, 2.5038
19:26:33.002 [DBG ] $STAT,RECORDING
19:26:33.003 [APLA] $UTC,20220707,192633.0037
19:26:33.005 [APLA] $GPZDA,192633.0037,07,07,2022,,*6C
19:26:33.168 [CTD ]  12.0590,  3.46445,    0.347, 2.9053, 2.5036
19:26:33.183 [OWL ] SEAOWLA2K-0144	3941	77	319	319	1329	267	2181	2181	2626	2626	117	703	703
19:26:32.912 [OCR3] 000065D8
19:26:33.398 [ECO ] 99/99/99	99:99:99	700	51	595	50	680	48	548
19:26:32.728 [OCR2] 000065D9
19:26:33.456 [APLA] $PASHR,192633.451,57.08,T,-2.48,3.90,0.10.021,0.021,0.022,2,1*0D
19:26:33.418 [CTD ]  12.0596,  3.46491,    0.326, 2.9043, 2.5044
19:26:33.462 [APLA] $GPGGA,192633.451,4947.59861,N,06420.42108,W,4,08,1.3,0.83,M,,,0,0004*13
19:26:33.468 [APLA] $GPVTG,53.8,T,,M,1.2,N,2.1,K,D*36
19:26:32.359 [OCR1] 000065DA
19:26:33.261 [OCR3] 000065DB
19:26:33.668 [CTD ]  12.0606,  3.46513,    0.292, 2.9062, 2.5036
19:26:33.621 [OCR3] 000065DC
19:26:33.916 [CTD ]  12.0623,  3.46516,    0.263, 2.9058, 2.5031
19:26:34.002 [DBG ] $STAT,RECORDING
19:26:34.003 [APLA] $UTC,20220707,192634.0037
19:26:34.005 [APLA] $GPZDA,192634.0037,07,07,2022,,*6B
19:26:33.996 [OWL ] SEAOWLA2K-0144	3945	79	337	337	1329	272	2225	2225	2626	2626	118	710	710
19:26:33.871 [OCR3] 000065DD
19:26:33.432 [OCR2] 000065DE
19:26:34.166 [CTD ]  12.0634,  3.46523,    0.247, 2.9046, 2.5027
19:26:34.121 [OCR3] 000065DF
19:26:34.456 [APLA] $PAR,192634.451,57.39,T,-3.58,3.80,-0.12,0.021,0.021,0.022,2,1*26
19:26:34.416 [CTD ]  12.0644,  3.46528,    0.258, 2.9037, 2.5025
19:26:34.462 [APLA] $GPGGA,192634.451,4947.59867,N,06420.42075,W,4,08,1.3,0.62,M,,,0,0004*16
19:26:34.469 [APLA] $GPVTG,101.6,T,,M,0.6,N,1.1,K,D*08
19:26:34.522 [ECO ] 99/99/99	99:99:99	700	51	595	50	680	46	548
19:26:34.383 [OCR3] 000065E0
19:26:34.676 [CTD ]  12.0651,  3.46521,    0.305, 2.9041, 2.5034
19:26:33.576 [OCR1] 000065E1
19:26:34.808 [OWL ] SEAOWLA2K-0144	3942	80	349	349	1329	268	2181	2181	2626	2626	118	712	712
19:26:34.136 [OCR2] 000065E2
19:26:34.926 [CTD ]  12.0651,  3.46513,    0.363, 2.9061, 2.5030
19:26:34.634 [OCR3] 000065E3
19:26:35.002 [DBG ] $STAT,RECORDING
19:26:35.003 [APLA] $UTC,20220707,192635.0037
19:26:35.005 [APLA] $GPZDA,192635.0037,07,07,2022,,*6A
19:26:35.174 [CTD ]  12.0646,  3.46483,    0.370, 2.9036, 2.5048
19:26:34.985 [OCR3] 000065E4
19:26:35.456 [APLA] $PASHR,192635.451,59.57,T,-1.88,0.85,0.03,0.021,0.021,0.022,2,1*05
19:26:35.462 [APLA] $GPGGA,192635.451,4947.59871,N,06420.42047,W,4,08,1.3,0.74,M,,,0,0004*16
19:26:35.424 [CTD ]  12.0638,  3.46478,    0.315, 2.9052, 2.5041
19:26:35.468 [APLA] $GPVTG,70.0,T,,M,1.0,N,1.8,K,D*37
19:26:35.347 [OCR3] 000065E5
19:26:35.646 [ECO ] 99/99/99	99:99:99	700	51	595	50	680	47	548
19:26:35.621 [OWL ] SEAOWLA2K-0144	3945	82	376	376	1329	270	2202	2202	2627	2627	119	721	721
19:26:35.672 [CTD ]  12.0629,  3.46493,    0.234, 2.9042, 2.5035
19:26:34.939 [OCR2] 000065E6
19:26:35.597 [OCR3] 000065E7
19:26:35.922 [CTD ]  12.0627,  3.46513,    0.200, 2.9038, 2.5035
19:26:36.002 [DBG ] $STAT,RECORDING
19:26:36.003 [APLA] $UTC,20220707,192636.0037
19:26:36.005 [APLA] $GPZDA,192636.0037,07,07,2022,,*69
19:26:34.793 [OCR1] 000065E8
19:26:35.847 [OCR3] 000065E9
19:26:36.172 [CTD ]  12.0630,  3.46521,    0.256, 2.9051, 2.5041
19:26:36.107 [OCR3] 000065EA
19:26:35.743 [OCR2] 000065EB
19:26:36.456 [APLA] $PASHR,192636.451,62.40,T,-2.42,4.86,0.00,0.02.020,0.022,0,1*0B
19:26:36.462 [APLA] $GPGGA,192636.451,4947.59881,N,06420.42009,W,4,08,1.3,0.73,M,,,1,0004*16
19:26:36.468 [APLA] $GPVTG,76.4,T,,M,0.7,N,1.4,K,D*3F
19:26:36.432 [CTD ]  12.0637,  3.46528,    0.299, 2.9045, 2.5033
19:26:36.433 [OWL ] SEAOWLA2K-0144	3941	82	374	374	1330	259	2092	2092	2626	2626	117	706	706
19:26:36.356 [OCR3] 000065EC
19:26:36.682 [CTD ]  12.0645,  3.46536,    0.305, 2.9045, 2.5031
19:26:36.769 [ECO ] 99/99/99	99:99:99	700	51	595	50	680	48	548
19:26:36.929 [CTD ]  12.0652,  3.46533,    0.296, 2.9040, 2.5040
19:26:37.002 [DBG ] $STAT,RECORDING
19:26:37.003 [APLA] $UTC,20220707,192637.0037
19:26:37.005 [APLA] $GPZDA,192637.0037,07,07,2022,,*68
19:26:36.705 [OCR3] 000065ED
19:26:36.447 [OCR2] 000065EE
19:26:37.179 [CTD ]  12.0655,  3.46533,    0.327, 2.9038, 2.5036
19:26:36.015 [OCR1] 000065EF
19:26:37.245 [OWL ] SEAOWLA2K-0144	3945	82	373	373	1328	274	2245	2245	2626	2626	117	705	705
19:26:37.065 [OCR3] 000065F0
19:26:37.456 [APLA] $PASHR,192637.451,65.39,T,-3.82,0.36,-0.04,0.020,0.020,0.022,0,1*28
19:26:37.462 [APLA] $GPGGA,192637.451,4947.59884,N,06420.41979,W,4,08,1.3,0.66,M,,,2,0004*18
19:26:37.429 [CTD ]  12.0659,  3.46541,    0.358, 2.9054, 2.5028
19:26:37.468 [APLA] $GPVTG,76.5,T,,M,0.9,N,1.7,K,D*33
19:26:37.314 [OCR3] 000065F1
19:26:37.678 [CTD ]  12.0663,  3.46556,    0.332, 2.9039, 2.5041
19:26:37.563 [OCR3] 000065F2
19:26:37.150 [OCR2] 000065F3
19:26:37.893 [ECO ] 99/99/99	99:99:99	700	51	595	50	680	47	547
19:26:37.928 [CTD ]  12.0672,  3.46554,    0.273, 2.9043, 2.5038
19:26:38.002 [DBG ] $STAT,RECORDING
19:26:38.003 [APLA] $UTC,20220707,192638.0037
19:26:38.005 [APLA] $GPZDA,192638.0037,07,07,2022,,*67
19:26:37.824 [OCR3] 000065F4
19:26:38.058 [OWL ] SEAOWLA2K-0144	3941	83	379	379	1329	268	2189	2189	2626	2626	118	708	708
19:26:38.188 [CTD ]  12.0680,  3.46569,    0.239, 2.9064, 2.5034
19:26:38.075 [OCR3] 000065F5
19:26:38.456 [APLA] $PASHR,192638.451,69.04,T,-0.83,6.26,0.04,0.020,0.020,0.022,2,1*0F
19:26:38.462 [APLA] $GPGGA,192638.451,4947.59893,N,06420.41937,W,4,08,1.3,0.76,M,,,0,0004*18
19:26:38.468 [APLA] $GPVTG,82.0,T,,M,0.9,N,1.6,K,D*3C
19:26:38.438 [CTD ]  12.0686,  3.46571,    0.219, 2.9057, 2.5028
19:26:37.229 [OCR1] 000065F6
19:26:37.854 [OCR2] 000065F7
19:26:38.685 [CTD ]  12.0690,  3.46569,    0.231, 2.9043, 2.5033
19:26:38.426 [OCR3] 000065F8
19:26:38.870 [OWL ] SEAOWLA2K-0144	3945	81	367	367	1329	265	2161	2161	2626	2626	117	707	707
19:26:38.935 [CTD ]  12.0692,  3.46569,    0.303, 2.9048, 2.5038
19:26:39.002 [DBG ] $STAT,RECORDING
19:26:39.003 [APLA] $UTC,20220707,192639.0037
19:26:39.005 [APLA] $GPZDA,192639.0037,07,07,2022,,*66
19:26:38.786 [OCR3] 000065F9
19:26:39.017 [ECO ] 99/99/99	99:99:99	700	51	595	50	680	49	548
19:26:39.185 [CTD ]  12.0694,  3.46559,    0.375, 2.9044, 2.5023
19:26:39.037 [OCR3] 000065FA
19:26:38.557 [OCR2] 000065FB
19:26:39.456 [APLA] $PASHR,192639.451,74.37,T,-3.18,1.09,-0.05,0.020,0.020,0.022,2,1*25
19:26:39.462 [APLA] $GPGGA,192639.451,4947.59894,N,06420.41911,W,4,08,1.3,0.65,M,,,0,0004*18
19:26:39.468 [APLA] $GPVTG,69.9,T,,M,0.7,N,1.3,K,D*3B
19:26:39.433 [CTD ]  12.0695,  3.46569,    0.368, 2.9049, 2.5018
19:26:39.288 [OCR3] 000065FC
19:26:39.683 [CTD ]  12.0704,  3.46584,    0.304, 2.9049, 2.5033
19:26:39.683 [OWL ] SEAOWLA2K-0144	3941	82	376	376	1329	270	2211	2211	2626	2626	117	709	709
19:26:39.549 [OCR3] 000065FD
19:26:38.544 [OCR1] 000065FE
19:26:39.943 [CTD ]  12.0709,  3.46590,    0.245, 2.9061, 2.5036
19:26:40.002 [DBG ] $STAT,RECORDING
19:26:40.003 [APLA] $UTC,20220707,192640.0037
19:26:40.005 [APLA] $GPZDA,192640.0037,07,07,2022,,*68
19:26:39.799 [OCR3] 000065FF
19:26:40.141 [ECO ] 99/99/99	99:99:99	700	51	595	50	680	45	547
19:26:39.361 [OCR2] 00006600
19:26:40.192 [CTD ]  12.0715,  3.46589,    0.239, 2.9043, 2.5030
19:26:40.456 [APLA] $PASHR,192640.451,78.34,T,-2.77,4.01,0.03,0.020,0.020,0.022,0,1*08
19:26:40.462 [APLA] $GPGGA,192640.451,4947.59901,N,06420.41872,W,4,08,1.3,0.74,M,,,1,0004*1E
19:26:40.468 [APLA] $GPVTG,83.7,T,,M,0.9,N,1.7,K,D*3B
19:26:40.442 [CTD ]  12.0717,  3.46584,    0.278, 2.9046, 2.5038
19:26:40.148 [OCR3] 00006601
19:26:40.495 [OWL ] SEAOWLA2K-0144	3945	83	379	379	1329	261	2117	2117	2627	2627	117	706	706
19:26:40.692 [CTD ]  12.0716,  3.46586,    0.317, 2.9045, 2.5048
19:26:40.509 [OCR3] 00006602
19:26:40.176 [OCR2] 00006603
19:26:40.941 [CTD ]  12.0712,  3.46589,    0.317, 2.9055, 2.4978
19:26:41.002 [DBG ] $STAT,RECORDING
19:26:41.003 [APLA] $UTC,20220707,192641.0037
19:26:41.005 [APLA] $GPZDA,192641.0,07,07,2022,,*69
19:26:40.758 [OCR3] 00006604
19:26:39.861 [OCR1] 00006605
19:26:41.193 [CTD ]  12.0711,  3.46602,    0.286, 2.9056, 2.5021
19:26:41.014 [OCR3] 00006606
19:26:41.264 [ECO ] 99/99/99	99:99:99	700	51	595	50	680	44	548
19:26:41.307 [OWL ] SEAOWLA2K-0144	3941	82	369	369	1330	263	2144	2144	2626	2626	117	707	707
19:26:41.456 [APLA] $PASHR,192641.451,84.95,T,-3.48,2.79,0.02,0.020,0.020,0.022,2,1*06
19:26:41.462 [APLA] $GPGGA,192641.451,4947.59905,N,06420.41837,W,4,08,1.3,0.74,M,,,0,0004*1B
19:26:41.468 [APLA] $GPVTG,70.8,T,,M,0.9,N,1.7,K,D*38
19:26:41.450 [CTD ]  12.0714,  3.46602,    0.268, 2.9050, 2.5033
19:26:41.267 [OCR3] 00006607
19:26:40.867 [OCR2] 00006608
19:26:41.700 [CTD ]  12.0715,  3.46604,    0.284, 2.9059, 2.5036
19:26:41.516 [OCR3] 00006609
19:26:41.948 [CTD ]  12.0717,  3.46607,    0.316, 2.9050, 2.5022
19:26:42.002 [DBG ] $STAT,RECORDING
19:26:42.003 [APLA] $UTC,20220707,192642.0038
19:26:42.005 [APLA] $GPZDA,192642.0038,07,07,2022,,*65
19:26:42.120 [OWL ] SEAOWLA2K-0144	3945	82	375	375	1329	262	2131	2131	2627	2627	117	706	706
19:26:41.866 [OCR3] 0000660A
19:26:42.198 [CTD ]  12.0720,  3.46609,    0.328, 2.9055, 2.5025
19:26:41.571 [OCR2] 0000660B
19:26:41.077 [OCR1] 0000660C
19:26:42.388 [ECO ] 99/99/99	99:99:99	700	51	595	50	680	45	548
19:26:42.456 [APLA] $PASHR,192642.451,89.94,T,0.50,4.00,-0.04,0.020,0.020,0.022,2,1*0D
19:26:42.462 [APLA] $GPGGA,192642.451,4947.59909,N,06420.41795,W,4,08,1.3,0.68,M,,,0,0004*1E
19:26:42.468 [APLA] $GPVTG,99.5,T,,M,0.9,N,1.7,K,D*32
19:26:42.226 [OCR3] 0000660D
19:26:42.448 [CTD ]  12.0723,  3.46619,    0.313, 2.9049, 2.5019
19:26:42.483 [OCR3] 0000660E
19:26:42.696 [CTD ]  12.0730,  3.46650,    0.289, 2.9057, 2.5030
19:26:42.274 [OCR2] 0000660F
19:26:42.727 [OCR3] 00006610
19:26:42.946 [CTD ]  12.0746,  3.46670,    0.269, 2.9058, 2.5038
19:26:42.932 [OWL ] SEAOWLA2K-0144	3941	82	370	370	1329	274	2245	2245	2626	2626	118	710	710
19:26:43.002 [DBG ] $STAT,RECORDING
19:26:43.003 [APLA] $UTC,20220707,192643038
19:26:43.006 [APLA] $GPZDA,192643.0038,07,07,2022,,*64
19:26:42.989 [OCR3] 00006611
19:26:43.206 [CTD ]  12.0760,  3.46653,    0.275, 2.9064, 2.5042
19:26:43.456 [APLA] $PASHR,192643.451,93.04,T,-5.49,3.14,-0.06,0.020,0.020,0.022,2,1*2E
19:26:43.462 [APLA] $GPGGA,192643.451,4947.59902,N,06420.41765,W,4,08,1.3,0.64,M,,,0,0004*17
19:26:43.468 [APLA] $GPVTG,104.4,T,,M,0.6,N,1.1,K,D*0F
19:26:43.456 [CTD ]  12.0767,  3.46660,    0.304, 2.9050, 2.5045
19:26:42.295 [OCR1] 00006612
19:26:43.512 [ECO ] 99/99/99	99:99:99	700	51	595	50	680	47	548
19:26:43.240 [OCR3] 00006613
19:26:43.704 [CTD ]  12.0770,  3.46677,    0.323, 2.9060, 2.5041
19:26:42.978 [OCR2] 00006614
19:26:43.745 [OWL ] SEAOWLA2K-0144	3945	82	368	368	1328	256	2068	2068	2626	2626	118	711	711
19:26:43.591 [OCR3] 00006615
19:26:43.954 [CTD ]  12.0776,  3.46690,    0.315, 2.9053, 2.5031
19:26:44.003 [DBG ] $STAT,RECORDING
19:26:44.003 [APLA] $UTC,20220707,192644.0038
19:26:44.006 [APLA] $GPZDA,192644.0038,07,07,2022,,*63
19:26:43.952 [OCR3] 00006616
19:26:44.204 [CTD ]  12.0785,  3.46715,    0.301, 2.9054, 2.5005
19:26:44.203 [OCR3] 00006617
19:26:44.456 [APLA] $PASHR,192644.451,96.97,T,-3.31,1.54,0.09,0.020,0.020,0.022,2,1*0B
19:26:44.462 [APLA] $GPGGA,192644.451,4947.59903,N,06420.41,W,4,08,1.3,0.79,M,,,0,0004*15
19:26:44.468 [APLA] $GPVTG,85.3,T,,M,1.2,N,2.3,K,D*34
19:26:44.452 [CTD ]  12.0799,  3.46720,    0.309, 2.9054, 2.5022
19:26:43.781 [OCR2] 00006618
19:26:44.557 [OWL ] SEAOWLA2K-0144	3941	83	380	380	1329	263	2141	2141	2626	2626	118	713	713
19:26:44.636 [ECO ] 99/99/99	99:99:99	700	51	595	50	680	46	548
19:26:44.452 [OCR3] 00006619
19:26:43.512 [OCR1] 0000661A
19:26:44.714 [CTD ]  12.0809,  3.46735,    0.318, 2.9053, 2.5026
19:26:44.711 [OCR3] 0000661B
19:26:45.010 [DBG ] $STAT,RECORDING
19:26:45.003 [APLA] $UTC,20220707,192645.0038
19:26:44.973 [CTD ]  12.0820,  3.46737,    0.318, 2.9053, 2.5038
19:26:45.006 [APLA] $GPZDA,192645.0038,07,07,2022,,*62
19:26:45.223 [CTD ]  12.0829,  3.46725,    0.315, 2.9042, 2.5034
19:26:44.585 [OCR2] 0000661C
19:26:44.960 [OCR3] 0000661D
19:26:45.369 [OWL ] SEAOWLA2K-0144	3945	80	357	357	1329	268	2182	2182	2626	2626	118	710	710
19:26:45.456 [APLA] $PASHR,192645.451,98.15,T,-2.19,5.85,-0.04,0.020,0.020,0.022,2,1*2D
19:26:45.462 [APLA] $GPGGA,192645.451,4947.59901,N,06420.41683,W,4,08,1.3,0.68,M,,,0,0004*17
19:26:45.468 [APLA] $GPVTG,100.2,T,,M,0.7,N,1.3,K,D*0E
19:26:45.473 [CTD ]  12.0833,  3.46735,    0.315, 2.9053, 2.5049
19:26:45.310 [OCR3] 0000661E
19:26:45.721 [CTD ]  12.0833,  3.46730,    0.308, 2.9052, 2.5039
19:26:45.759 [ECO ] 99/99/99	99:99:99	700	51	595	50	680	50	548
19:26:45.669 [OCR3] 0000661F
19:26:45.288 [OCR2] 00006620
19:26:46.002 [DBG ] $STAT,RECORDING
19:26:46.003 [APLA] $UTC,20220707,1926.0038
19:26:46.006 [APLA] $GPZDA,192646.0038,07,07,2022,,*61
19:26:45.981 [CTD ]  12.0831,  3.46723,    0.295, 2.9061, 2.5019
19:26:44.729 [OCR1] 00006621
19:26:45.919 [OCR3] 00006622
19:26:46.182 [OWL ] SEAOWLA2K-0144	3940	79	341	341	1330	284	2343	2343	2625	2625	118	712	712
19:26:46.231 [CTD ]  12.0827,  3.46730,    0.296, 2.9061, 2.5034
19:26:46.168 [OCR3] 00006623
19:26:46.456 [APLA] $PASHR,146.451,99.02,T,-4.42,0.14,0.04,0.020,0.020,0.022,2,1*01
19:26:46.462 [APLA] $GPGGA,192646.451,4947.59898,N,06420.41645,W,4,08,1.3,0.76,M,,,0,0004*10
19:26:46.468 [APLA] $GPVTG,101.6,T,,M,1.3,N,2.3,K,D*0D
19:26:46.481 [CTD ]  12.0828,  3.46720,    0.316, 2.9057, 2.5020
19:26:46.429 [OCR3] 00006624
19:26:45.992 [OCR2] 00006625
19:26:46.729 [CTD ]  12.0825,  3.46720,    0.334, 2.9069, 2.5021
19:26:46.883 [ECO ] 99/99/99	99:99:99	700	51	595	50	680	48	548
19:26:47.002 [DBG ] $STAT,RECORDING
19:26:47.003 [APLA] $UTC,20220707,192647.0038
19:26:47.006 [APLA] $GPZDA,192647.0038,07,07,2022,,*60
19:26:46.979 [CTD ]  12.0821,  3.46730,    0.337, 2.9068, 2.5022
19:26:46.680 [OCR3] 00006626
19:26:46.994 [OWL ] SEAOWLA2K-0144	3945	80	358	358	1328	270	2203	2203	2626	2626	117	704	704
19:26:47.227 [CTD ]  12.0826,  3.46750,    0.317, 2.9066, 2.5034
19:26:46.045 [OCR1] 00006627
19:26:47.031 [OCR3] 00006628
19:26:46.695 [OCR2] 00006629
19:26:47.456 [APLA] $PASHR,192647.451,101.02,T,-1.29,7.26,-01,0.020,0.020,0.022,2,1*17
19:26:47.462 [APLA] $GPGGA,192647.451,4947.59891,N,06420.401,W,4,08,1.3,0.61,M,,,0,0004*1E
19:26:47.468 [APLA] $GPVTG,110.7,T,,M,0.6,N,1.2,K,D*0A
19:26:47.477 [CTD ]  12.0839,  3.46773,    0.285, 2.9070, 2.5035
19:26:47.393 [OCR3] 0000662A
19:26:47.737 [CTD ]  12.0854,  3.46783,    0.285, 2.9068, 2.5029
19:26:47.807 [OWL ] SEAOWLA2K-0144	3941	78	332	332	1329	278	2290	2290	2626	2626	117	707	707
19:26:47.644 [OCR3] 0000662B
19:26:48.002 [DBG ] $STAT,RECORDING
19:26:48.003 [APLA] $UTC,20220707,192648.0038
19:26:48.006 [APLA] $GPZDA,192648.0038,07,07,2022,,*6F
19:26:47.986 [CTD ]  12.0867,  3.46798,    0.321, 2.9072, 2.5022
19:26:48.007 [ECO ] 99/99/99	99:99:99	700	51	595	50	680	49	548
19:26:47.894 [OCR3] 0000662C
19:26:47.398 [OCR2] 0000662D
19:26:48.236 [CTD ]  12.0880,  3.46811,    0.349, 2.9067, 2.5027
19:26:48.155 [OCR3] 0000662E
19:26:48.456 [APLA] $PASHR,192648.451,101.77,T,-3.92,-0.31,0.01,0.020,0.020,0.022,2,1*18
19:26:48.462 [APLA] $GPGGA,192648.451,4947.59882,N420.41568,W,4,08,1.3,0.70,M,,,0,0004*1F
19:26:48.468 [APLA] $GPVTG,106.1,T,,M,1.2,N,2.2,K,D*0D
19:26:48.486 [CTD ]  12.0895,  3.46816,    0.339, 2.9073, 2.5023
19:26:47.363 [OCR1] 0000662F
19:26:48.619 [OWL ] SEAOWLA2K-0144	3945	78	332	332	1328	272	2224	2224	2627	2627	118	708	708
19:26:48.404 [OCR3] 00006630
19:26:48.734 [CTD ]  12.0902,  3.46829,    0.306, 2.9083, 2.5026
19:26:49.002 [DBG ] $STAT,RECORDING
19:26:49.003 [APLA] $UTC,20220707,192649038
19:26:49.006 [APLA] $GPZDA,192649.0038,07,07,2022,,*6E
19:26:48.202 [OCR2] 00006631
19:26:48.984 [CTD ]  12.0915,  3.46846,    0.280, 2.9085, 2.5037
19:26:48.753 [OCR3] 00006632
19:26:49.130 [ECO ] 99/99/99	99:99:99	700	51	595	50	680	45	548
19:26:49.244 [CTD ]  12.0929,  3.46846,    0.282, 2.9083, 2.5040
19:26:49.114 [OCR3] 00006633
19:26:49.456 [APLA] $PASHR,192649.451,103.80,T,-5.64,5.91,0.05,0.020,0.020,0.022,2,1*3A
19:26:49.462 [APLA] $GPGGA,192649.451,4947.59877,N,06420.41522,W,4,08,1.3,0.76,M,,,0,0004*1C
19:26:49.468 [APLA] $GPVTG,92.7,T,,M,0.9,N,1.7,K,D*3B
19:26:49.432 [OWL ] SEAOWLA2K-0144	3941	78	330	330	1329	268	2186	2186	2625	2625	117	707	707
19:26:49.494 [CTD ]  12.0935,  3.46849,    0.307, 2.9084, 2.5034
19:26:49.363 [OCR3] 00006634
19:26:49.014 [OCR2] 00006635
19:26:49.745 [CTD ]  12.0942,  3.46884,    0.333, 2.9085, 2.5026
19:26:48.579 [OCR1] 00006636
19:26:49.612 [OCR3] 00006637
19:26:50.002 [DBG ] $STAT,RECORDING
19:26:50.003 [APLA] $UTC,20220707,192650.0038
19:26:50.006 [APLA] $GPZDA,192650.0038,07,07,2022,,*66
19:26:49.992 [CTD ]  12.0955,  3.46899,    0.335, 2.9097, 2.5030
19:26:49.872 [OCR3] 00006638
19:26:50.254 [ECO ] 99/99/99	99:99:99	700	51	595	50	680	50	548
19:26:50.240 [CTD ]  12.0971,  3.46950,    0.319, 2.9092, 2.5025
19:26:50.244 [OWL ] SEAOWLA2K-0144	3945	78	331	331	1328	271	2223	2223	2626	2626	118	711	711
19:26:49.709 [OCR2] 00006639
19:26:50.456 [APLA] $PASHR,192650.451,107.67,T,-0.94,1.55,0.06,0.020,0.020,0.022,2,1*3A
19:26:50.462 [APLA] $GPGGA,192650.451,4947.59879,N,06420.41470,W,4,08,1.3,0.80,M,,,0,0004*15
19:26:50.468 [APLA] $GPVTG,86.7,T,,M,1.3,N,2.4,K,D*35
19:26:50.122 [OCR3] 0000663A
19:26:50.490 [CTD ]  12.0994,  3.46983,    0.303, 2.9108, 2.5025
19:26:50.750 [CTD ]  12.1016,  3.47000,    0.298, 2.9087, 2.5040
19:26:50.483 [OCR3] 0000663B
19:26:51.002 [DBG ] $STAT,RECORDING
19:26:51.003 [APLA] $UTC,20220707,192651.0038
19:26:51.006 [APLA] $GPZDA,192651.0038,07,07,2022,,*67
19:26:49.796 [OCR1] 0000663C
19:26:51.000 [CTD ]  12.1036,  3.47000,    0.303, 2.9102, 2.5030
19:26:50.832 [OCR3] 0000663D
19:26:50.413 [OCR2] 0000663E
19:26:51.056 [OWL ] SEAOWLA2K-0144	3941	78	335	335	1329	276	2273	2273	2625	2625	118	713	713
19:26:51.248 [CTD ]  12.1048,  3.47013,    0.305, 2.9110, 2.5056
19:26:51.082 [OCR3] 0000663F
19:26:51.378 [ECO ] 99/99/99	99:99:99	700	51	595	50	680	48	548
19:26:51.456 [APLA] $PASHR,192651.451,106.87,T,-2.24,4.05,-0.15,0.020,0.020,0.022,2,1*12
19:26:51.462 [APLA] $GPGGA,192651.451,4947.59870,N,06420.41438,W,4,08,1.3,0.57,M,,,0,0004*1B
19:26:51.468 [APLA] $GPVTG,143.1,T,,M,0.8,N,1.4,K,D*02
19:26:51.498 [CTD ]  12.1058,  3.47013,    0.307, 2.9092, 2.5064
19:26:51.333 [OCR3] 00006640
19:26:51.748 [CTD ]  12.1064,  3.47013,    0.316, 2.9096, 2.5055
19:26:51.116 [OCR2] 00006641
19:26:51.595 [OCR3] 00006642
19:26:51.869 [OWL ] SEAOWLA2K-0144	3945	78	332	332	1329	273	2238	2238	2626	2626	119	717	717
19:26:52.002 [DBG ] $STAT,RECORDING
19:26:52.003 [APLA] $UTC,20220707,192652.0038
19:26:52.006 [APLA] $GPZDA,192652.0038,07,07,2022,,*64
19:26:51.996 [CTD ]  12.1066,  3.46988,    0.317, 2.9092, 2.5045
19:26:51.845 [OCR3] 00006643
19:26:51.015 [OCR1] 00006644
19:26:52.256 [CTD ]  12.1053,  3.46903,    0.306, 2.9097, 2.5022
19:26:52.456 [APLA] $PASHR,192652.451,112.85,T,-4.56,1.97,0.06,0.020,0.020,0.022,2,1*34
19:26:52.462 [APLA] $GPGGA,192652.451,4947.59859,N,06420.41393,W,4,08,1.3,0.76,M,,,0,0004*16
19:26:52.468 [APLA] $GPVTG,97.5,T,,M,1.5,N,2.8,K,D*3D
19:26:52.502 [ECO ] 99/99/99	99:99:99	700	51	595	50	680	48	548
19:26:52.505 [CTD ]  12.1016,  3.46861,    0.288, 2.9088, 2.5021
19:26:52.195 [OCR3] 00006645
19:26:51.820 [OCR2] 00006646
19:26:52.681 [OWL ] SEAOWLA2K-0144	3941	80	351	351	1330	268	2185	2185	2626	2626	118	716	716
19:26:52.755 [CTD ]  12.0983,  3.46836,    0.278, 2.9099, 2.5027
19:26:52.557 [OCR3] 00006647
19:26:53.002 [DBG ] $STAT,RECORDING
19:26:53.003 [APLA] $UTC,20220707,192653.0038
19:26:53.006 [APLA] $GPZDA,192653.0038,07,07,2022,,*65
19:26:53.005 [CTD ]  12.0958,  3.46813,    0.286, 2.9099, 2.4971
19:26:52.807 [OCR3] 00006648
19:26:53.253 [CTD ]  12.0935,  3.46811,    0.304, 2.9100, 2.4995
19:26:53.056 [OCR3] 00006649
19:26:52.623 [OCR2] 0000664A
19:26:53.456 [APLA] $PASHR,192653.451,112.55,T,-2.21,4.66,-0.08,0.020,0.020,0.022,2,1*16
19:26:53.462 [APLA] $GPGGA,192653.451,4947.59851,N,06420.41353,W,4,08,1.3,0.62,M,,,0,0004*16
19:26:53.469 [APLA] $GPVTG,125.6,T,,M,0.5,N,1.0,K,D*0C
19:26:52.231 [OCR1] 0000664B
19:26:53.503 [CTD ]  12.0919,  3.46803,    0.329, 2.9100, 2.5021
19:26:53.494 [OWL ] SEAOWLA2K-0144	3945	76	315	315	1329	289	2399	2399	2627	2627	117	705	705
19:26:53.315 [OCR3] 0000664C
19:26:53.626 [ECO ] 99/99/99	99:99:99	700	51	595	50	680	48	548
19:26:53.763 [CTD ]  12.0910,  3.46800,    0.330, 2.9109, 2.5008
19:26:53.565 [OCR3] 0000664D
19:26:54.002 [DBG ] $STAT,RECORDING
19:26:54.003 [APLA] $UTC,20220707,192654.0038
19:26:54.006 [APLA] $GPZDA,192654.0038,07,07,2022,,*62
19:26:54.013 [CTD ]  12.0905,  3.46821,    0.288, 2.9095, 2.5005
19:26:53.427 [OCR2] 0000664E
19:26:53.914 [OCR3] 0000664F
19:26:54.261 [CTD ]  12.0911,  3.46834,    0.245, 2.9112, 2.5020
19:26:54.306 [OWL ] SEAOWLA2K-0144	3942	79	343	343	1330	272	2225	2225	2627	2627	118	711	711
19:26:54.456 [APLA] $PASHR,192654.451,117.79,T,-4.02,1.23,0.16,0.020,0.020,0.022,0,1*39
19:26:54.462 [APLA] $GPGGA,192654.451,4947.59847,N,06420.41310,W,4,08,1.3,0.88,M,,,1,0004*14
19:26:54.468 [APLA] $GPVTG,92.2,T,,M,1.4,N,2.7,K,D*31
19:26:54.274 [OCR3] 00006650
19:26:54.511 [CTD ]  12.0921,  3.46829,    0.242, 2.9105, 2.5028
19:26:54.523 [OCR3] 00006651
19:26:54.749 [ECO ] 99/99/99	99:99:99	700	51	595	50	680	49	548
19:26:54.759 [CTD ]  12.0925,  3.46829,    0.274, 2.9090, 2.5030
19:26:54.131 [OCR2] 00006652
19:26:53.547 [OCR1] 00006653
19:26:55.002 [DBG ] $STAT,RECORDING
19:26:55.003 [APLA] $UTC,20220707,192655.0038
19:26:55.006 [APLA] $GPZDA,192655.0038,07,07,2022,,*63
19:26:54.773 [OCR3] 00006654
19:26:55.009 [CTD ]  12.0926,  3.46836,    0.310, 2.9106, 2.5037
19:26:55.118 [OWL ] SEAOWLA2K-0144	3945	78	334	334	1329	275	2253	2253	2626	2626	118	711	711
19:26:55.035 [OCR3] 00006655
19:26:55.269 [CTD ]  12.0930,  3.46831,    0.326, 2.9124, 2.5034
19:26:55.456 [APLA] $PASHR,192655.451,121.66,T,0.78,4.44,-0.06,0.020,0.020,0.022,2,1*3D
19:26:55.462 [APLA] $GPGGA,192655.451,4947.59846,N,06420.41262,W,4,08,1.3,0.68,M,,,0,0004*1F
19:26:55.468 [APLA] $GPVTG,106.0,T,,M,0.8,N,1.5,K,D*03
19:26:54.834 [OCR2] 00006656
19:26:55.519 [CTD ]  12.0929,  3.46826,    0.315, 2.9095, 2.5025
19:26:55.286 [OCR3] 00006657
19:26:55.769 [CTD ]  12.0925,  3.46803,    0.283, 2.9101, 2.5026
19:26:55.873 [ECO ] 99/99/99	99:99:99	700	51	595	50	680	49	548
19:26:55.931 [OWL ] SEAOWLA2K-0144	3941	77	327	327	1329	295	2456	2456	2626	2626	117	703	703
19:26:55.637 [OCR3] 00006658
19:26:56.002 [DBG ] $STAT,RECORDING
19:26:56.003 [APLA] $UTC,20220707,192656.0038
19:26:56.006 [APLA] $GPZDA,192656.0038,07,07,2022,,*60
19:26:56.017 [CTD ]  12.0914,  3.46788,    0.261, 2.9102, 2.5022
19:26:54.865 [OCR1] 00006659
19:26:55.537 [OCR2] 0000665A
19:26:55.999 [OCR3] 0000665B
19:26:56.267 [CTD ]  12.0907,  3.46798,    0.260, 2.9100, 2.5028
19:26:56.456 [APLA] $PASHR,192656.451,124.09,T,-2.57,3.52,-0.05,0.020,0.020,0.022,2,1*13
19:26:56.462 [APLA] $GPGGA,192656.451,4947.59832,N,06420.41227,W,4,08,1.3,0.66,M,,,0,0004*10
19:26:56.468 [APLA] $GPVTG,125.3,T,,M,1.0,N,1.9,K,D*04
19:26:56.250 [OCR3] 0000665C
19:26:56.515 [CTD ]  12.0901,  3.46798,    0.277, 2.9095, 2.5033
19:26:56.500 [OCR3] 0000665D
19:26:56.743 [OWL ] SEAOWLA2K-0144	3946	79	344	344	1329	281	2311	2311	2625	2625	118	712	712
19:26:56.765 [CTD ]  12.0897,  3.46809,    0.303, 2.9097, 2.5021
19:26:57.002 [DBG ] $STAT,RECORDING
19:26:57.003 [APLA] $UTC,20220707,192657.0038
19:26:57.006 [APLA] $GPZDA,192657.0038,07,07,2022,,*6
19:26:56.760 [OCR3] 0000665E
19:26:56.997 [ECO ] 99/99/99	99:99:99	700	51	595	50	680	46	548
19:26:56.241 [OCR2] 0000665F
19:26:57.025 [CTD ]  12.0900,  3.46826,    0.324, 2.9099, 2.5024
19:26:56.081 [OCR1] 00006660
19:26:57.275 [CTD ]  12.0911,  3.46836,    0.328, 2.9096, 2.5020
19:26:57.015 [OCR3] 00006661
19:26:57.456 [APLA] $PASHR,192657.451,127.92,T,-3.12,3.35,-0.05,0.020,0.020,0.022,2,1*12
19:26:57.462 [APLA] $GPGGA,192657.451,4947.59818,N,06420.41197,W,4,08,1.3,0.64,M,,,0,0004*13
19:26:57.469 [APLA] $GPVTG,119.3,T,,M,0.7,N,1.4,K,D*00
19:26:57.523 [CTD ]  12.0917,  3.46831,    0.319, 2.9092, 2.5030
19:26:57.556 [OWL ] SEAOWLA2K-0144	3941	80	351	351	1330	276	2271	2271	2625	2625	118	714	714
19:26:57.358 [OCR3] 00006662
19:26:57.773 [CTD ]  12.0921,  3.46834,    0.301, 2.9092, 2.5037
19:26:57.045 [OCR2] 00006663
19:26:57.718 [OCR3] 00006664
19:26:58.002 [DBG ] $STAT,RECORDING
19:26:58.003 [APLA] $UTC,20220707,192658.0038
19:26:58.006 [APLA] $GPZDA,192658.0038,07,07,2022,,*6E
19:26:58.023 [CTD ]  12.0921,  3.46839,    0.278, 2.9095, 2.5038
19:26:58.121 [ECO ] 99/99/99	99:99:99	700	51	595	50	680	45	548
19:26:57.967 [OCR3] 00006665
19:26:58.274 [CTD ]  12.0927,  3.46844,    0.264, 2.9083, 2.5035
19:26:58.368 [OWL ] SEAOWLA2K-0144	3945	80	348	348	1330	267	2185	2185	2625	2625	117	707	707
19:26:58.456 [APLA] $PASHR,192658.451,130.24,T,-4.20,0.52,0.15,0.020,0.020,0.022,2,1*3E
19:26:58.462 [APLA] $GPGGA,192658.451,4947.59816,N,06420.41157,W,4,08,1.3,0.86,M,,,0,0004*12
19:26:58.468 [APLA] $GPVTG,91.5,T,,M,1.3,N,2.3,K,D*36
19:26:58.216 [OCR3] 00006666
19:26:57.298 [OCR1] 00006667
19:26:57.848 [OCR2] 00006668
19:26:58.532 [CTD ]  12.0936,  3.46846,    0.268, 2.9088, 2.5031
19:26:58.483 [OCR3] 00006669
19:26:58.780 [CTD ]  12.0940,  3.46846,    0.284, 2.9092, 2.5024
19:26:59.002 [DBG ] $STAT,RECORDING
19:26:59.003 [APLA] $UTC,20220707,192659.0038
19:26:59.006 [APLA] $GPZDA,192659.0038,07,07,2022,,*6F
19:26:59.030 [CTD ]  12.0941,  3.46826,    0.295, 2.9084, 2.5024
19:26:58.727 [OCR3] 0000666A
19:26:59.181 [OWL ] SEAOWLA2K-0144	3942	79	344	344	1330	269	2199	2199	2626	2626	118	717	717
19:26:58.552 [OCR2] 0000666B
19:26:59.244 [ECO ] 99/99/99	99:99:99	700	51	595	50	680	44	548
19:26:59.280 [CTD ]  12.0930,  3.46768,    0.296, 2.9092, 2.5044
19:26:59.079 [OCR3] 0000666C
19:26:59.456 [APLA] $PASHR,192659.451,134.40,T,0.63,6.11,-0.01,0.020,0.020,0.022,0,1*3C
19:26:59.462 [APLA] $GPGGA,192659.451,4947.59809,N,06420.41106,W,4,08,1.0.72,M,,,1,0004*13
19:26:59.468 [APLA] $GPVTG,109.7,T,,M,0.8,N,1.6,K,D*08
19:26:59.528 [CTD ]  12.0902,  3.46768,    0.306, 2.9102, 2.5050
19:26:59.439 [OCR3] 0000666D
19:26:58.515 [OCR1] 0000666E
19:26:59.778 [CTD ]  12.0884,  3.46766,    0.294, 2.9087, 2.5053
19:26:59.690 [OCR3] 0000666F
19:26:59.256 [OCR2] 00006670
19:27:00.010 [DBG ] $STAT,RECORDING
19:27:00.003 [APLA] $UTC,20220707,192700.0038
19:27:00.006 [APLA] $GPZDA,192700.0038,07,07,2022,,*62
19:26:59.993 [OWL ] SEAOWLA2K-0144	3945	78	334	334	1328	276	2265	2265	2627	2627	118	717	717
19:27:00.038 [CTD ]  12.0874,  3.46773,    0.261, 2.9089, 2.5025
19:26:59.940 [OCR3] 00006671
19:27:00.288 [CTD ]  12.0877,  3.46788,    0.261, 2.9076, 2.5012
19:27:00.368 [ECO ] 99/99/99	99:99:99	700	51	595	50	680	47	547
19:27:00.202 [OCR3] 00006672
19:27:00.456 [APLA] $PASHR,192700.451,136.41,T,-2.72,0.07,-0.08,0.020,0.020,0.022,2,1*17
19:27:00.462 [APLA] $GPGGA,192700.451,4947.5980N,06420.41081,W,4,08,1.3,0.63,M,,,0,0004*18
19:27:00.469 [APLA] $GPVTG,136.1,T,,M,0.9,N,1.6,K,D*03
19:27:00.536 [CTD ]  12.0883,  3.46776,    0.294, 2.9090, 2.5029
19:26:59.959 [OCR2] 00006673
19:27:00.451 [OCR3] 00006674
19:27:00.786 [CTD ]  12.0880,  3.46761,    0.314, 2.9072, 2.4967
19:27:00.805 [OWL ] SEAOWLA2K-0144	3942	81	365	365	1330	266	2170	2170	2626	2626	118	718	718
19:27:01.002 [DBG ] $STAT,RECORDING
19:27:01.003 [APLA] $UTC,20220707,192701.0038
19:27:01.006 [APLA] $GPZDA,192701.0038,07,07,2022,,*63
19:26:59.733 [OCR1] 00006675
19:27:01.036 [CTD ]  12.0873,  3.46763,    0.311, 2.9079, 2.4993
19:27:00.800 [OCR3] 00006676
19:27:01.284 [CTD ]  12.0867,  3.46771,    0.297, 2.9081, 2.5004
19:27:01.161 [OCR3] 00006677
19:27:01.456 [APLA] $PASHR,192701.451,140.30,T,-2.43,5.12,-0.01,0.020,0.020,0.022,2,1*1B
19:27:01.462 [APLA] $GPGGA,192701.451,4947.59783,N,06441047,W,4,08,1.3,0.69,M,,,0,0004*1D
19:27:01.469 [APLA] $GPVTG,113.2,T,,M.9,N,1.7,K,D*06
19:27:00.662 [OCR2] 00006678
19:27:01.492 [ECO ] 99/99/99	99:99:99	700	51	595	50	680	47	548
19:27:01.544 [CTD ]  12.0871,  3.46776,    0.284, 2.9084, 2.5020
19:27:01.410 [OCR3] 00006679
19:27:01.618 [OWL ] SEAOWLA2K-0144	3945	81	358	358	1329	275	2254	2254	2625	2625	119	720	720
19:27:01.794 [CTD ]  12.0876,  3.46781,    0.283, 2.9086, 2.5023
19:27:01.659 [OCR3] 0000667A
19:27:02.002 [DBG ] $STAT,RECORDING
19:27:02.003 [APLA] $UTC,20220707,192702.0038
19:27:02.006 [APLA] $GPZDA,192702.0038,07,07,2022,,*60
19:27:02.044 [CTD ]  12.0883,  3.46781,    0.285, 2.9064, 2.5022
19:27:01.919 [OCR3] 0000667B
19:27:01.484 [OCR2] 0000667C
19:27:02.292 [CTD ]  12.0884,  3.46783,    0.294, 2.9085, 2.5029
19:27:01.049 [OCR1] 0000667D
19:27:02.456 [APLA] $PASHR,192702.451,142.36,T,-3.29,2.07,0.06,0.020,0.020,0.022,2,1*38
19:27:02.462 [APLA] $GPGGA,192702.451,4947.59774,N,06420.41009,W,4,08,1.3,0.77,M,,,0,0004*13
19:27:02.468 [APLA] $GPVTG,105.8,T,,M,1.0,N,1.9,K,D*0D
19:27:02.430 [OWL ] SEAOWLA2K-0144	3942	79	346	346	1329	277	2279	2279	2626	2626	118	711	711
19:27:02.169 [OCR3] 0000667E
19:27:02.542 [CTD ]  12.0889,  3.46783,    0.305, 2.9074, 2.5030
19:27:02.616 [ECO ] 99/99/99	99:99:99	700	51	595	50	680	47	548
19:27:02.790 [CTD ]  12.0890,  3.46788,    0.301, 2.9081, 2.5040
19:27:02.519 [OCR3] 0000667F
19:27:02.270 [OCR2] 00006680
19:27:03.002 [DBG ] $STAT,RECORDING
19:27:03.003 [APLA] $UTC,20220707,192703.0038
19:27:03.006 [APLA] $GPZDA,192703.0038,07,07,2022,,*61
19:27:03.040 [CTD ]  12.0895,  3.46793,    0.276, 2.9081, 2.5024
19:27:02.879 [OCR3] 00006681
19:27:03.243 [OWL ] SEAOWLA2K-0144	3945	79	346	346	1329	276	2270	2270	2627	2627	118	712	712
19:27:03.300 [CTD ]  12.0898,  3.46793,    0.257, 2.9084, 2.5023
19:27:03.129 [OCR3] 00006682
19:27:03.456 [APLA] $PASHR,192703.451,144.97,T,-0.82,3.42,-0.00,0.020,0.020,0.022,2,1*1D
19:27:03.462 [APLA] $GPGGA,192703.451,4947.59768,N,06420.40972,W,4,08,1.3,0.72,M,,,0,0004*1E
19:27:03.469 [APLA] $GPVTG,112.7,T,,M,0.8,N,1.4,K,D*00
19:27:02.368 [OCR1] 00006683
19:27:03.549 [CTD ]  12.0900,  3.46793,    0.274, 2.9073, 2.5023
19:27:03.380 [OCR3] 00006684
19:27:02.973 [OCR2] 00006685
19:27:03.739 [ECO ] 99/99/99	99:99:99	700	51	595	50	680	46	548
19:27:03.799 [CTD ]  12.0900,  3.46778,    0.306, 2.9080, 2.5036
19:27:03.642 [OCR3] 00006686
19:27:04.002 [DBG ] $STAT,RECORDING
19:27:04.003 [APLA] $UTC,20220707,192704.0038
19:27:04.006 [APLA] $GPZDA,192704.0038,07,07,2022,,*66
19:27:04.049 [CTD ]  12.0894,  3.46773,    0.322, 2.9077, 2.5027
19:27:04.055 [OWL ] SEAOWLA2K-0144	3942	81	359	359	1330	269	2199	2199	2626	2626	117	708	708
19:27:03.892 [OCR3] 00006687
19:27:04.297 [CTD ]  12.0886,  3.46781,    0.309, 2.9078, 2.5028
19:27:03.676 [OCR2] 00006688
19:27:04.456 [APLA] $PASHR,192704.451,148.61,T,-2.20,1.36,-0.02,0.020,0.020,0.022,2,1*16
19:27:04.462 [APLA] $GPGGA,192704.451,4947.59755,N,06420.40939,W,4,08,1.3,0.69,M,,,0,0004*12
19:27:04.469 [APLA] $GPVTG,119.1,T,,M,1.0,N,1.9,K,D*09
19:27:04.547 [CTD ]  12.0887,  3.46783,    0.291, 2.9077, 2.5026
19:27:04.242 [OCR3] 00006689
19:27:03.584 [OCR1] 0000668A
19:27:04.603 [OCR3] 0000668B
19:27:04.807 [CTD ]  12.0888,  3.46776,    0.276, 2.9085, 2.5028
19:27:04.863 [ECO ] 99/99/99	99:99:99	700	51	595	50	680	49	548
19:27:04.868 [OWL ] SEAOWLA2K-0144	3945	81	365	365	1329	283	2340	2340	2627	2627	118	714	714
19:27:05.002 [DBG ] $STAT,RECORDING
19:27:05.003 [APLA] $UTC,20220707,192705.0038
19:27:05.006 [APLA] $GPZDA,192705.0038,07,07,2022,,*67
19:27:04.380 [OCR2] 0000668C
19:27:04.853 [OCR3] 0000668D
19:27:05.057 [CTD ]  12.0886,  3.46778,    0.280, 2.9091, 2.5016
19:27:05.305 [CTD ]  12.0885,  3.46776,    0.290, 2.9082, 2.5007
19:27:05.102 [OCR3] 0000668E
19:27:05.456 [APLA] $PASHR,192705.451,149.70,T,-2.34,4.98,-0.02,0.020,0.020,0.022,2,1*12
19:27:05.462 [APLA] $GPGGA,192705.451,4947.59744,N,06420.40901,W,4,08,1.3,0.68,M,,,0,0004*19
19:27:05.469 [APLA] $GPVTG,122.1,T,,M,0.8,N,1.5,K,D*04
19:27:05.555 [CTD ]  12.0884,  3.46773,    0.300, 2.9088, 2.5016
19:27:05.362 [OCR3] 0000668F
19:27:05.680 [OWL ] SEAOWLA2K-0144	3942	80	357	357	1329	266	2169	2169	2626	2626	118	711	711
19:27:05.805 [CTD ]  12.0881,  3.46773,    0.310, 2.9083, 2.5017
19:27:05.083 [OCR2] 00006690
19:27:05.611 [OCR3] 00006691
19:27:06.002 [DBG ] $STAT,RECORDING
19:27:06.003 [APLA] $UTC,20220707,192706.0038
19:27:06.006 [APLA] $GPZDA,192706.0038,07,07,2022,,*64
19:27:05.987 [ECO ] 99/99/99	99:99:99	700	51	595	50	680	44	548
19:27:04.800 [OCR1] 00006692
19:27:06.053 [CTD ]  12.0879,  3.46773,    0.322, 2.9083, 2.5021
19:27:05.961 [OCR3] 00006693
