####################
# TYPE: TEXT
# DATE: 2022/07/06
# TIME: 18:39:05
####################
#
20:26:50.002 [APLA] $UTC,20220706,202650.0024
20:26:50.009 [DBG ] $STAT,RECORDING
20:26:50.005 [APLA] $GPZDA,202650.0024,06,07,2022,,*60
20:26:50.147 [CTD ]  13.2985,  3.57050,    0.238, 3.0374, 2.5131
20:26:50.394 [CTD ]  13.2899,  3.56926,    0.235, 3.0372, 2.5138
20:26:50.460 [APLA] $PASHR,202650.455,200.44,T,-1.00,5.19,-0.02,0.024,0.024,0.020,2,1*1A
20:26:50.466 [APLA] $GPGGA,202650.455,4947.05646,N,06420.38973,W,2,32,0.8,0.56,M,,,6,0131*1F
20:26:50.473 [APLA] $GPVTG,215.1,T,,M,2.8,N,5.1,K,D*01
20:26:50.459 [ECO ] 99/99/99	99:99:99	700	51	595	50	680	47	548
20:26:50.245 [OCR3] 000089C4
20:26:50.652 [CTD ]  13.2776,  3.56813,    0.228, 3.0373, 2.5126
20:26:50.505 [OCR3] 000089C5
20:26:50.731 [OWL ] SEAOWLA2K-0144	3932	70	249	249	1319	252	2030	2030	2620	2620	132	843	843
20:26:50.908 [CTD ]  13.2648,  3.56796,    0.222, 3.0377, 2.5126
20:26:51.002 [APLA] $UTC,20220706,202651.0024
20:26:51.009 [DBG ] $STAT,RECORDING
20:26:51.005 [APLA] $GPZDA,202651.0024,06,07,2022,,*61
20:26:50.754 [OCR3] 000089C6
20:26:51.166 [CTD ]  13.2565,  3.56714,    0.219, 3.0377, 2.5131
20:26:50.017 [OCR1] 000089C7
20:26:51.417 [CTD ]  13.2476,  3.56605,    0.216, 3.0375, 2.5130
20:26:51.105 [OCR3] 000089C8
20:26:51.460 [APLA] $PASHR,202651.455,195.41,T,-1.65,4.88,0.03,0.024,0.024,0.020,2,1*3$GPGGA,202651.455,4947.05582,N,06420.39036,W,2,32,0.8,0.61,M,,,7,0131*19
20:26:51.472 [APLA] $GPVTG,207.9,T,,M,2.7,N,5.1,K,D*05
20:26:50.379 [OCR2] 000089C9
20:26:51.543 [OWL ] SEAOWLA2K-0144	3934	70	252	252	1319	252	2024	2024	2622	2622	132	851	851
20:26:51.583 [ECO ] 99/99/99	99:99:99	700	51	595	50	680	45	548
20:26:51.467 [OCR3] 000089CA
20:26:51.670 [CTD ]  13.2385,  3.56646,    0.219, 3.0395, 2.5122
20:26:51.715 [OCR3] 000089CB
20:26:51.929 [CTD ]  13.2359,  3.56753,    0.227, 3.0376, 2.5127
20:26:52.005 [DBG ] $STAT,RECORDING
20:26:52.002 [APLA] $UTC,20220706,202652.0025
20:26:52.005 [APLA] $GPZDA,202652.0025,06,07,2022,,*63
20:26:52.175 [CTD ]  13.2404,  3.56936,    0.238, 3.0385, 2.5129
20:26:51.965 [OCR3] 000089CC
20:26:52.355 [OWL ] SEAOWLA2K-0144	3931	69	247	247	1319	247	1978	1978	2621	2621	132	845	845
20:26:51.234 [OCR1] 000089CD
20:26:52.460 [APLA] $PASHR,202652.455,188.49,T,-2.32,4.89,-0.02,0.020.024,0.020,2,1*1C
20:26:52.466 [APLA] $GPGGA,202652.455,4947.05511,N,06420.39088,W,2,32,0.8,0.55,M,,,7,0131*12
20:26:52.433 [CTD ]  13.2545,  3.57184,    0.245, 3.0382, 2.5126
20:26:52.472 [APLA] $GPVTG,201.6,T,,M,3.0,N.5,K,D*0E
20:26:52.226 [OCR3] 000089CE
20:26:52.706 [ECO ] 99/99/99	99:99:99	700	51	595	50	680	46	548
20:26:52.689 [CTD ]  13.2767,  3.57277,    0.244, 3.0403, 2.5132
20:26:51.596 [OCR2] 000089CF
20:26:52.490 [OCR3] 000089D0
20:26:52.947 [CTD ]  13.2961,  3.57357,    0.236, 3.0391, 2.5129
20:26:53.005 [DBG ] $STAT,RECORDING
20:26:53.002 [APLA] $UTC,20220706,202653.0025
20:26:53.005 [APLA] $GPZDA,202653.0025,06,07,2022,,*62
20:26:52.824 [OCR3] 000089D1
20:26:53.167 [OWL ] SEAOWLA2K-0144	3934	70	252	252	1318	239	1901	1901	2620	2620	129	825	825
20:26:53.194 [CTD ]  13.3106,  3.57344,    0.228, 3.0385, 2.5129
20:26:53.186 [OCR3] 000089D2
20:26:53.460 [APLA] $PASHR,202653.455,180.73,T,-0.8774,0.02,0.024,0.024,0.020,2,1*3E
20:26:53.466 [APLA] $GPGGA,202653.455,4947.05432,N,06420.39126,W,2,32,0.8,0.58,M,,,7,0131*1B
20:26:53.472 [APLA] $GPVTG,192.8,T,,M,3.0,N,5.5,K,D*09
20:26:53.452 [CTD ]  13.3181,  3.57339,    0.221, 3.0397, 2.5122
20:26:53.435 [OCR3] 000089D3
20:26:53.708 [CTD ]  13.3218,  3.57374,    0.216, 3.0401, 2.5121
20:26:52.450 [OCR1] 000089D4
20:26:53.830 [ECO ] 99/99/99	99:99:99	700	51	595	50	680	46	548
20:26:53.684 [OCR3] 000089D5
20:26:54.005 [DBG ] $STAT,RECORDING
20:26:54.002 [APLA] $UTC,20220706,202654.0025
20:26:54.005 [APLA] $GPZDA,202654.0025,06,07022,,*65
20:26:53.966 [CTD ]  13.3253,  3.57454,    0.208, 3.0412, 2.5130
20:26:53.979 [OWL ] SEAOWLA2K-0144	3930	70	251	251	1318	232	1831	1831	2620	2620	129	816	816
20:26:52.812 [OCR2] 000089D6
20:26:53.946 [OCR3] 000089D7
20:26:54.212 [CTD ]  13.3290,  3.57427,    0.203, 3.0412, 2.5128
20:26:54.460 [APLA] $PASHR,202654.455,175.11,T,-1.30,4.26,0.02,0.024,0.024,0.020,2,1*3C
20:26:54.466 [APLA] $GPGGA,202654.455,4947.05351,N,06420.39146,W,2,32,0.8,0.58,M,,,4,0131*1B
20:26:54.472 [APLA] $GPVTG,185.6,T,,M,3.0,N,5.6,K,D*02
20:26:54.470 [CTD ]  13.3320,  3.57501,    0.210, 3.0418, 2.5120
20:26:54.196 [OCR3] 000089D8
20:26:54.727 [CTD ]  13.3371,  3.57614,    0.217, 3.0407, 2.5125
20:26:54.791 [OWL ] SEAOWLA2K-0144	3934	70	252	252	1318	233	1843	1843	2620	2620	129	816	816
20:26:54.545 [OCR3] 000089D9
20:26:54.954 [ECO ] 99/99/99	99:99:99	700	50	595	50	680	48	548
20:26:55.005 [DBG ] $STAT,RECORDING
20:26:55.002 [APLA] $UTC,20220706,202655.0025
20:26:55.005 [APLA] $GPZDA,202655.0025,06,07,2022,,*64
20:26:54.985 [CTD ]  13.3441,  3.57551,    0.224, 3.0417, 2.5135
20:26:53.768 [OCR1] 000089DA
20:26:54.907 [OCR3] 000089DB
20:26:55.231 [CTD ]  13.3458,  3.57514,    0.227, 3.0431, 2.5136
20:26:55.156 [OCR3] 000089DC
20:26:54.130 [OCR2] 000089DD
20:26:55.460 [APLA] $PASH202655.455,170.41,T,-1.44,5.12,-0.06,0.024,0.024,0.020,2,1
20:26:55.466 [APLA] $GPGGA,202655.455,4947.05263,N,06420.39154,W,2,32,0.8,0.49,M,,,5,0131*18
20:26:55.473 [APLA] $GPVTG,179.8,T,,M,3N,6.1,K,D*08
20:26:55.489 [CTD ]  13.3444,  3.57476,    0.228, 3.0416, 2.5132
20:26:55.602 [OWL ] SEAOWLA2K-0144	3929	70	251	251	1318	234	1847	1847	2619	2619	129	819	819
20:26:55.405 [OCR3] 000089DE
20:26:55.747 [CTD ]  13.3400,  3.57319,    0.221, 3.0431, 2.5134
20:26:55.669 [OCR3] 000089DF
20:26:56.005 [DBG ] $STAT,RECORDING
20:26:56.002 [APLA] $UTC,20220706,202656.0025
20:26:56.005 [APLA] $GPZDA,202656.0025,06,07,2022,,*67
20:26:56.004 [CTD ]  13.3301,  3.57209,    0.219, 3.0433, 2.5121
20:26:56.078 [ECO ] 99/99/99	99:99:99	700	50	595	50	680	46	548
20:26:55.917 [OCR3] 000089E0
20:26:56.250 [CTD ]  13.3186,  3.57179,    0.211, 3.0438, 2.5126
20:26:55.086 [OCR1] 000089E1
20:26:56.460 [APLA] $PASHR,202656.455,167.96,T,-1.40,5.00,0.00,0.024,0.024,0.020,2,1*32
20:26:56.466 [APLA] $GPGGA,202656.455,4947.05172,N,06420.39147,W,2,32,0.8,0.54,M,,,6,0131*15
20:26:56.414 [OWL ] SEAOWLA2K-0144	3933	70	249	249	1317	230	1812	1812	2619	2619	128	815	815
20:26:56.472 [APLA] $GPVTG,174.9,T,,M,3.3,N,6.1,K,D*04
20:26:56.508 [CTD ]  13.3096,  3.57092,    0.210, 3.0441, 2.5123
20:26:56.266 [OCR3] 000089E2
20:26:55.447 [OCR2] 000089E3
20:26:56.766 [CTD ]  13.3004,  3.57017,    0.214, 3.0434, 2.5129
20:26:56.627 [OCR3] 000089E4
20:26:57.005 [DBG ] $STAT,RECORDING
20:26:57.002 [APLA] $UTC,20220706,202657.0025
20:26:57.005 [APLA] $GPZDA,202657.0025,06,07,2022,,*66
20:26:57.013 [CTD ]  13.2915,  3.56973,    0.224, 3.0442, 2.5129
20:26:56.877 [OCR3] 000089E5
20:26:57.202 [ECO ] 99/99/99	99:99:99	700	50	595	50	680	49	548
20:26:57.226 [OWL ] SEAOWLA2K-0144	3929	69	247	247	1318	236	1867	1867	2620	2620	129	824	824
20:26:57.269 [CTD ]  13.2841,  3.56948,    0.224, 3.0438, 2.5123
20:26:57.127 [OCR3] 000089E6
20:26:57.460 [APLA] $PASH202657.455,167.22,T,-1.43,5.39,0.02,0.024,0.024,0.020,2,1*37
20:26:57.466 [APLA] $GPGGA,202657.455,4947.05080,N,06420.39131,W,2,32,0.8,0.55,M,,,7,0131*19
20:26:57.472 [APLA] $GPVTG,172.0,T,,M,3.3,N,6.2,K,D*08
20:26:56.302 [OCR1] 000089E7
20:26:57.527 [CTD ]  13.2785,  3.56908,    0.218, 3.0432, 2.5126
20:26:57.388 [OCR3] 000089E8
20:26:57.785 [CTD ]  13.2730,  3.56811,    0.218, 3.0441, 2.5126
20:26:56.664 [OCR2] 000089E9
20:26:57.638 [OCR3] 000089EA
20:26:58.005 [DBG ] $STAT,RECORDING
20:26:58.002 [APLA] $UTC,20220706,202658.0025
20:26:58.005 [APLA] $GPZDA,202658.0025,06,07,2022,,*69
20:26:58.031 [CTD ]  13.2650,  3.56704,    0.220, 3.0449, 2.5127
20:26:58.038 [OWL ] SEAOWLA2K-0144	3933	69	246	246	1317	235	1864	1864	2619	2619	128	809	809
20:26:58.289 [CTD ]  13.2555,  3.56723,    0.219, 3.0452, 2.5134
20:26:57.988 [OCR3] 000089EB
20:26:58.325 [ECO ] 99/99/99	99:99:99	700	50	595	50	680	45	548
20:26:58.460 [APLA] $PASHR,202658.455,168.12,T,-1.52,4.92,0.01,0.024,0.024,0.020,2,1*37
20:26:58.466 [APLA] $GPGGA,202658.455,4947.04988,N,06420.39110,W,2,32,0.8,0.54,M,,,7,0131*14
20:26:58.472 [APLA] $GPVTG,171.5,T,,M,3.4,N,6.2,K,D*09
20:26:58.546 [CTD ]  13.2501,  3.56706,    0.217, 3.0451, 2.5127
20:26:58.348 [OCR3] 000089EC
20:26:57.519 [OCR1] 000089ED
20:26:58.794 [CTD ]  13.2467,  3.56696,    0.219, 3.0454, 2.5129
20:26:58.599 [OCR3] 000089EE
20:26:58.850 [OWL ] SEAOWLA2K-0144	3928	70	248	248	1317	232	1829	1829	2621	2621	128	808	808
20:26:59.005 [DBG ] $STAT,RECORDING
20:26:59.002 [APLA] $UTC,20220706,202659.0026
20:26:59.005 [APLA] $GPZDA,202659.0026,06,07,2022,,*6B
20:26:57.881 [OCR2] 000089EF
20:26:59.052 [CTD ]  13.2455,  3.56850,    0.223, 3.0449, 2.5126
20:26:58.848 [OCR3] 000089F0
20:26:59.308 [CTD ]  13.2526,  3.56993,    0.228, 3.0465, 2.5130
20:26:59.108 [OCR3] 000089F1
20:26:59.460 [APLA] $PASHR,202659.455,169.64,T,-2.11,5.38,0.00,0.024,0.024,0.020,2,1*32
20:26:59.466 [APLA] $GPGGA,202659.455,4947.04895,N,06420.39091,W,2,32,0.8,0.53,M,,,7,0131*17
20:26:59.449 [ECO ] 99/99/99	99:99:99	700	50	595	50	680	45	548
20:26:59.473 [APLA] $GPVTG,173.4,T,,M,3.3,N,6.2,K,D*0D
20:26:59.566 [CTD ]  13.2658,  3.57182,    0.229, 3.0451, 2.5126
20:26:59.359 [OCR3] 000089F2
20:26:59.662 [OWL ] SEAOWLA2K-0144	3932	69	244	244	1315	220	1711	1711	2620	2620	126	786	786
20:26:59.813 [CTD ]  13.2832,  3.57302,    0.230, 3.0457, 2.5130
20:26:58.736 [OCR1] 000089F3
20:27:00.013 [DBG ] $STAT,RECORDING
20:27:00.002 [APLA] $UTC,20220706,202700.0026
20:27:00.005 [APLA] $GPZDA,202700.0026,06,07,2022,,*66
20:26:59.709 [OCR3] 000089F4
20:27:00.074 [CTD ]  13.3015,  3.57356,    0.236, 3.0449, 2.5131
20:26:59.098 [OCR2] 000089F5
20:27:00.069 [OCR3] 000089F6
20:27:00.327 [CTD ]  13.3170,  3.57356,    0.232, 3.0453, 2.5129
20:27:00.460 [APLA] $PASHR,202700.455,168.84,T,-2.58,4.77,0.01,0.024,0.024,0.020,2,1*36
20:27:00.466 [APLA] $GPGGA,202700.455,4947.04802,N,06420.39074,W,2,32,0.8,0.54,M,,,4,0131*1B
20:27:00.473 [APLA] $GPVTG,173.6,T,,M,3.4,N,6.2,K,D*08
20:27:00.474 [OWL ] SEAOWLA2K-0144	3927	69	237	237	1317	215	1659	1659	2619	2619	125	776	776
20:27:00.320 [OCR3] 000089F7
20:27:00.573 [ECO ] 99/99/99	99:99:99	700	50	595	50	680	46	548
20:27:00.585 [CTD ]  13.3251,  3.57312,    0.229, 3.0449, 2.5133
20:27:00.570 [OCR3] 000089F8
20:27:00.831 [CTD ]  13.3261,  3.57229,    0.231, 3.0440, 2.5128
20:27:01.005 [DBG ] $STAT,RECORDING
20:27:01.002 [APLA] $UTC,20220706,202701.0026
20:27:01.005 [APLA] $GPZDA,202701.0026,06,07,2022,,*67
20:27:00.830 [OCR3] 000089F9
20:27:01.089 [CTD ]  13.3218,  3.57187,    0.235, 3.0441, 2.5130
20:26:59.953 [OCR1] 000089FA
20:27:01.286 [OWL ] SEAOWLA2K-0144	3931	69	241	241	1316	222	1736	1736	2620	2620	125	786	786
20:27:01.346 [CTD ]  13.3173,  3.57152,    0.236, 3.0444, 2.5122
20:27:01.081 [OCR3] 000089FB
20:27:01.460 [APLA] $PASHR,202701.455,166.76,T,-1.78,5.53,-0.02,0.024,0.024,0.020,2,1*1C
20:27:01.466 [APLA] $GPGGA,202701.455,4947.04709,N,06420.39057,W,2,32,0.8,0.50,M,,,5,0131*1A
20:27:01.473 [APLA] $GPVTG,172.9,T,,M,3.4,N,6.3,K,D*07
20:27:00.315 [OCR2] 000089FC
20:27:01.604 [CTD ]  13.3144,  3.57072,    0.232, 3.0442, 2.5126
20:27:01.697 [ECO ] 99/99/99	99:99:99	700	50	595	50	680	44	548
20:27:01.432 [OCR3] 000089FD
20:27:01.850 [CTD ]  13.3101,  3.57007,    0.225, 3.0453, 2.5127
20:27:02.005 [DBG ] $STAT,RECORDING
20:27:02.002 [APLA] $UTC,20220706,202702.0026
20:27:02.005 [APLA] $GPZDA,202702.0026,06,07,2022,,*64
20:27:01.792 [OCR3] 000089FE
20:27:02.108 [CTD ]  13.3033,  3.56913,    0.217, 3.0457, 2.5124
20:27:02.098 [OWL ] SEAOWLA2K-0144	3927	69	243	243	1316	220	1711	1711	2619	2619	125	785	785
20:27:02.042 [OCR3] 000089FF
20:27:02.366 [CTD ]  13.2932,  3.56811,    0.216, 3.0457, 2.5126
20:27:02.460 [APLA] $PASHR,202702.455,165.16,T,-1.48,5.37,-0.00,0.024,0.024,0.020,2,1*19
20:27:02.466 [APLA] $GPGGA,202702.455,4947.04615,N,06420.39034,W,2,32,0.8,0.52,M,,,6,0131*11
20:27:02.473 [APLA] $GPVTG,170.4,T,,M,3.4,N,6.3,K,D*08
20:27:02.293 [OCR3] 00008A00
20:27:01.271 [OCR1] 00008A01
20:27:02.613 [CTD ]  13.2816,  3.56741,    0.218, 3.0447, 2.5130
20:27:02.553 [OCR3] 00008A02
20:27:02.821 [ECO ] 99/99/99	99:99:99	700	50	595	50	680	44	548
20:27:02.871 [CTD ]  13.2716,  3.56711,    0.217, 3.0457, 2.5132
20:27:01.632 [OCR2] 00008A03
20:27:02.909 [OWL ] SEAOWLA2K-0144	3930	69	243	243	1315	217	1676	1676	2620	2620	124	777	777
20:27:03.005 [DBG ] $STAT,RECORDING
20:27:03.002 [APLA] $UTC,20220706,202703.0026
20:27:03.005 [APLA] $GPZDA,202703.0026,06,07,2022,,*65
20:27:02.803 [OCR3] 00008A04
20:27:03.129 [CTD ]  13.2634,  3.56574,    0.208, 3.0452, 2.5123
20:27:03.385 [CTD ]  13.2520,  3.56378,    0.210, 3.0442, 2.5127
20:27:03.460 [APLA] $PASHR,202703.455,165.03,T,-1.40,4.62,-0.03,0.024,0.024,0.020,2,1*16
20:27:03.466 [APLA] $GPGGA,202703.455,4947.04521,N,06420.39008,W,2,32,0.8,0.49,M,,,7,0131*10
20:27:03.473 [APLA] $GPVTG,169.7,T,,M,3.5,N,6.4,K,D*05
20:27:03.154 [OCR3] 00008A05
20:27:03.633 [CTD ]  13.2387,  3.56290,    0.221, 3.0453, 2.5123
20:27:03.515 [OCR3] 00008A06
20:27:03.721 [OWL ] SEAOWLA2K-0144	3926	69	244	244	1315	221	1720	1720	2619	2619	127	796	796
20:27:02.589 [OCR1] 00008A07
20:27:03.891 [CTD ]  13.2275,  3.56181,    0.227, 3.0445, 2.5132
20:27:03.944 [ECO ] 99/99/99	99:99:99	700	50	595	50	680	49	548
20:27:04.005 [DBG ] $STAT,RECORDING
20:27:04.002 [APLA] $UTC,20220706,202704.0026
20:27:04.005 [APLA] $GPZDA,202704.0026,06,07,2022,,*62
20:27:03.764 [OCR3] 00008A08
20:27:02.949 [OCR2] 00008A09
20:27:04.148 [CTD ]  13.2167,  3.56052,    0.226, 3.0446, 2.5132
20:27:04.017 [OCR3] 00008A0A
20:27:04.394 [CTD ]  13.2050,  3.55951,    0.225, 3.0445, 2.5127
20:27:04.460 [APLA] $PASHR,202704.455,165.47,T,-2.05,6.23,0.02,0.024,0.024,0.020,2,1*38
20:27:04.466 [APLA] $GPGGA,202704.455,4947.04427,N,06420.38981,W,2,32,0.8,0.53,M,,,7,0131*12
20:27:04.473 [APLA] $GPVTG,169.7,T,,M,3.4,N,6.3,K,D*03
20:27:04.275 [OCR3] 00008A0B
20:27:04.533 [OWL ] SEAOWLA2K-0144	3930	69	243	243	1315	219	1698	1698	2618	2618	126	787	787
20:27:04.652 [CTD ]  13.1939,  3.55898,    0.226, 3.0440, 2.5132
20:27:04.524 [OCR3] 00008A0C
20:27:04.910 [CTD ]  13.1856,  3.55843,    0.227, 3.0445, 2.5126
20:27:05.005 [DBG ] $STAT,RECORDING
20:27:05.002 [APLA] $UTC,20220706,202705.0026
20:27:05.005 [APLA] $GPZDA,202705.0026,06,07,2022,,*63
20:27:03.804 [OCR1] 00008A0D
20:27:05.067 [ECO ] 99/99/99	99:99:99	700	50	595	50	680	45	548
20:27:05.156 [CTD ]  13.1776,  3.55735,    0.228, 3.0439, 2.5130
20:27:04.875 [OCR3] 00008A0E
20:27:04.166 [OCR2] 00008A0F
20:27:05.344 [OWL ] SEAOWLA2K-0144	3926	69	245	245	1315	219	1699	1699	2618	2618	125	781	781
20:27:05.415 [CTD ]  13.1674,  3.55595,    0.228, 3.0433, 2.5129
20:27:05.459 [APLA] $PASHR,202705.455,165.51,T,-2.16,5.31,0.04,0.024,0.024,0.020,2,1*3A
20:27:05.465 [APLA] $GPGGA,202705.455,4947.04335,N,06420.38953,W,2,32,0.8,0.55,M,,,7,0131*1E
20:27:05.472 [APLA] $GPVTG,169.2,T,,M,3.3,N,6.2,K,D*00
20:27:05.235 [OCR3] 00008A10
20:27:05.662 [CTD ]  13.1532,  3.55372,    0.219, 3.0444, 2.5129
20:27:05.487 [OCR3] 00008A11
20:27:05.920 [CTD ]  13.1322,  3.55164,    0.218, 3.0427, 2.5129
20:27:05.734 [OCR3] 00008A12
20:27:06.004 [DBG ] $STAT,RECORDING
20:27:06.002 [APLA] $UTC,20220706,202706.0027
20:27:06.004 [APLA] $GPZDA,202706.0027,06,07,2022,,*61
20:27:06.191 [ECO ] 99/99/99	99:99:99	700	50	595	50	680	49	548
20:27:06.156 [OWL ] SEAOWLA2K-0144	3929	69	240	240	1314	218	1692	1692	2619	2619	125	776	776
20:27:06.178 [CTD ]  13.1112,  3.55122,    0.219, 3.0419, 2.5124
20:27:05.022 [OCR1] 00008A13
20:27:05.995 [OCR3] 00008A14
20:27:06.459 [APLA] $PASHR,202706.455,165.93,T,-1.37,4.16,-0.07,0.024,0.024,0.020,2,1*1D
20:27:06.424 [CTD ]  13.0980,  3.55029,    0.220, 3.0411, 2.5126
20:27:06.465 [APLA] $GPGGA,202706.455,4947.04241,N,06420.38926,W,2,32,0.8,0.43,M,,,4,0131*19
20:27:06.472 [APLA] $GPVTG,170.7,T,,M,3.6,N,6.6,K,D*0C
20:27:06.244 [OCR3] 00008A15
20:27:05.382 [OCR2] 00008A16
20:27:06.682 [CTD ]  13.0877,  3.54869,    0.228, 3.0417, 2.5126
20:27:06.594 [OCR3] 00008A17
20:27:06.941 [CTD ]  13.0755,  3.54617,    0.234, 3.0403, 2.5122
20:27:07.004 [DBG ] $STAT,RECORDING
20:27:07.002 [APLA] $UTC,20220706,202707.0027
20:27:07.004 [APLA] $GPZDA,202707.0027,06,07,2022,,*60
20:27:06.968 [OWL ] SEAOWLA2K-0144	3924	69	243	243	1315	211	1618	1618	2619	2619	123	760	760
20:27:06.956 [OCR3] 00008A18
20:27:07.189 [CTD ]  13.0615,  3.54485,    0.234, 3.0404, 2.5126
20:27:07.315 [ECO ] 99/99/99	99:99:99	700	50	595	50	680	44	548
20:27:07.205 [OCR3] 00008A19
20:27:06.237 [OCR1] 00008A1A
20:27:07.459 [APLA] $PASHR,202707.455,167.32,T,-1.97,6.51,0.00,0.024,0.024,0.020,2,1*34
20:27:07.465 [APLA] $GPGGA,202707.455,4947.04143,N420.38901,W,2,32,,0.48,M,,,5,0131*16
20:27:07.472 [APLA] $GPVTG,170.5,T,,M,3.4,N,6.3,K,D*09
20:27:07.447 [CTD ]  13.0503,  3.54516,    0.225, 3.0389, 2.5130
20:27:07.454 [OCR3] 00008A1B
20:27:07.693 [CTD ]  13.0455,  3.54449,    0.222, 3.0395, 2.5124
20:27:06.599 [OCR2] 00008A1C
20:27:07.780 [OWL ] SEAOWLA2K-0144	3929	69	243	243	1314	211	1622	1622	2618	2618	123	764	764
20:27:07.716 [OCR3] 00008A1D
20:27:07.953 [CTD ]  13.0404,  3.54348,    0.221, 3.0387, 2.5106
20:27:08.004 [DBG ] $STAT,RECORDING
20:27:08.002 [APLA] $UTC,20220706,202708.0027
20:27:08.004 [APLA] $GPZDA,202708.0027,06,07,2022,,*6F
20:27:08.199 [CTD ]  13.0322,  3.54254,    0.223, 3.0382, 2.5114
20:27:07.965 [OCR3] 00008A1E
20:27:08.459 [APLA] $PASHR,202708.455,171.13,T,-2.23,4.64,0.04,0.024,0.024,0.020,2,1*33
20:27:08.438 [ECO ] 99/99/99	99:99:99	700	50	595	50	680	45	548
20:27:08.465 [APLA] $GPGGA,202708.455,4947.04050,N,06420.38875,W,2,32,0.8,0.53,M,,,6,0131*11
20:27:08.472 [APLA] $GPVTG,171.5,T,,M,3.4,N,6.3,K,D*08
20:27:08.457 [CTD ]  13.0210,  3.54009,    0.222, 3.0371, 2.5130
20:27:08.592 [OWL ] SEAOWLA2K-0144	3925	69	239	239	1314	206	1577	1577	2618	2618	122	752	752
20:27:08.315 [OCR3] 00008A1F
20:27:08.721 [CTD ]  13.0058,  3.53815,    0.221, 3.0362, 2.5132
20:27:07.457 [OCR1] 00008A20
20:27:08.677 [OCR3] 00008A21
20:27:09.004 [DBG ] $STAT,RECORDING
20:27:09.002 [APLA] $UTC,20220706,202709.0027
20:27:08.964 [CTD ]  12.9916,  3.53650,    0.230, 3.0356, 2.5129
20:27:09.004 [APLA] $GPZDA,202709.0027,06,07,2022,,*6E
20:27:07.816 [OCR2] 00008A22
20:27:08.926 [OCR3] 00008A23
20:27:09.222 [CTD ]  12.9824,  3.53908,    0.239, 3.0350, 2.5130
20:27:09.175 [OCR3] 00008A24
20:27:09.459 [APLA] $PASHR,202709.455,174.61,T,-2.54,6.37,-0.03,0.024,0.024,0.02,1*1C
20:27:09.404 [OWL ] SEAOWLA2K-0144	3928	69	238	238	1314	206	1569	1569	2619	2619	122	754	754
20:27:09.465 [APLA] $GPGGA,202709.455,4947.03955,N,06420.38860,W,2,32,0.8,0.45,M,,,7,0131*19
20:27:09.472 [APLA] $GPVTG,177.6,T,,M,3.4,N,6.3,K,D*0D
20:27:09.468 [CTD ]  13.0005,  3.55091,    0.246, 3.0344, 2.5132
20:27:09.562 [ECO ] 99/99/99	99:99:99	700	50	595	50	680	49	548
20:27:09.437 [OCR3] 00008A25
20:27:09.726 [CTD ]  13.0705,  3.56189,    0.244, 3.0343, 2.5115
20:27:10.004 [DBG ] $STAT,RECORDING
20:27:10.002 [APLA] $UTC,20220706,202710.0027
20:27:10.004 [APLA] $GPZDA,202710.0027,06,07,2022,,*66
20:27:09.984 [CTD ]  13.1696,  3.56649,    0.241, 3.0322, 2.5129
20:27:09.687 [OCR3] 00008A26
20:27:08.773 [OCR1] 00008A27
20:27:10.231 [CTD ]  13.2486,  3.56712,    0.236, 3.0318, 2.5138
20:27:10.215 [OWL ] SEAOWLA2K-0144	3925	69	240	240	1315	197	1486	1486	2619	2619	121	745	745
20:27:10.036 [OCR3] 00008A28
20:27:09.133 [OCR2] 00008A29
20:27:10.459 [APLA] $PASHR,202710.455,172.66,T,-3.28,4.78,0.03,0.024024,0.020,2,1*3B
20:27:10.465 [APLA] $GPGGA,202710.455,4947.03864,N,06420.38858,W,2,32.8,0.52,M,,,7,0131*1F
20:27:10.472 [APLA] $GPVTG,181.2,T,,M,3.2,N,6.0,K,D*05
20:27:10.489 [CTD ]  13.2937,  3.56569,    0.237, 3.0313, 2.5128
20:27:10.397 [OCR3] 00008A2A
20:27:10.686 [ECO ] 99/99/99	99:99:99	700	50	595	50	680	48	548
20:27:10.747 [CTD ]  13.3093,  3.56295,    0.244, 3.0312, 2.5133
20:27:10.648 [OCR3] 00008A2B
20:27:11.004 [DBG ] $STAT,RECORDING
20:27:11.002 [APLA] $UTC,20220706,202711.0027
20:27:11.004 [APLA] $GPZDA,202711.0027,06,07,2022,,*67
20:27:10.993 [CTD ]  13.3032,  3.56222,    0.240, 3.0304, 2.5130
20:27:11.027 [OWL ] SEAOWLA2K-0144	3928	68	236	236	1313	200	1515	1515	2619	2619	122	754	754
20:27:10.897 [OCR3] 00008A2C
20:27:11.251 [CTD ]  13.2949,  3.56390,    0.239, 3.0299, 2.5128
20:27:10.089 [OCR1] 00008A2D
20:27:11.158 [OCR3] 00008A2E
20:27:11.459 [APLA] $PASHR,202711.455,167.52,T,-1.66,5.49,0.01,0.024,0.024,0.020,2,1*30
20:27:11.465 [APLA] $GPGGA,202711.455,4947.03774,N,06420.388W,2,32,0.8,0.50,M,,,7,0131*1F
20:27:11.472 [APLA] $GPVTG,176.6,T,,M,3.2,N,5.9,K,D*03
20:27:11.509 [CTD ]  13.2957,  3.56325,    0.232, 3.0308, 2.5119
20:27:10.450 [OCR2] 00008A2F
20:27:11.409 [OCR3] 00008A30
20:27:11.756 [CTD ]  13.2938,  3.56110,    0.222, 3.0292, 2.5117
20:27:11.810 [ECO ] 99/99/99	99:99:99	700	50	595	50	680	46	548
20:27:11.839 [OWL ] SEAOWLA2K-0144	3923	69	240	240	1313	197	1482	1482	2618	2618	122	749	749
20:27:12.004 [DBG ] $STAT,RECORDING
20:27:12.002 [APLA] $UTC,20220706,202712.0028
20:27:12.004 [APLA] $GPZDA,202712.0028,06,07,2022,,*6B
20:27:12.014 [CTD ]  13.2818,  3.55940,    0.218, 3.0283, 2.5130
20:27:11.758 [OCR3] 00008A31
20:27:12.272 [CTD ]  13.2653,  3.55811,    0.216, 3.0268, 2.5132
20:27:12.118 [OCR3] 00008A32
20:27:12.459 [APLA] $PASHR,202712.455,164.17,T,-1.16,4.73,-0.02,0.024,0.024,0.020,2,1*10
20:27:12.465 [APLA] $GPGGA,202712.455,4947.03684,N,06420.38840,W,2,32,0.8,0.47,M,,,4,0131*13
20:27:12.472 [APLA] $GPVTG,173.3,T,,M,3.3,N,6.1,K,D*09
20:27:11.306 [OCR1] 00008A33
20:27:12.518 [CTD ]  13.2493,  3.55678,    0.224, 3.0257, 2.5131
20:27:12.369 [OCR3] 00008A34
20:27:12.651 [OWL ] SEAOWLA2K-0144	3928	68	237	237	1312	198	1491	1491	2618	2618	122	747	747
20:27:12.776 [CTD ]  13.2319,  3.55372,    0.226, 3.0259, 2.5129
20:27:12.619 [OCR3] 00008A35
20:27:11.667 [OCR2] 00008A36
20:27:12.934 [ECO ] 99/99/99	99:99:99	700	50	595	50	680	47	548
20:27:13.004 [DBG ] $STAT,RECORDING
20:27:13.002 [APLA] $UTC,20220706,202713.0028
20:27:13.004 [APLA] $GPZDA,202713.0028,06,07,2022,,*6A
20:27:13.034 [CTD ]  13.2071,  3.55092,    0.226, 3.0258, 2.5118
20:27:12.878 [OCR3] 00008A37
20:27:13.281 [CTD ]  13.1786,  3.54840,    0.222, 3.0238, 2.5125
20:27:13.459 [APLA] $PASHR,202713.455,162.15,T,-1.85,4.45,-0.01,0.024,0.024,0.020,2,1*19
20:27:13.465 [APLA] $GPGGA,202713.455,4947.03594,N,06420.38817,W,2,32,0.8,0.47,M,,,5,0131*13
20:27:13.472 [APLA] $GPVTG,168.6,T,,M,3.3,N,6.2,K,D*05
20:27:13.129 [OCR3] 00008A38
20:27:13.463 [OWL ] SEAOWLA2K-0144	3923	70	249	249	1313	197	1482	1482	2619	2619	122	754	754
20:27:13.539 [CTD ]  13.1510,  3.54825,    0.218, 3.0253, 2.5124
20:27:12.523 [OCR1] 00008A39
20:27:13.787 [CTD ]  13.1305,  3.54309,    0.222, 3.0224, 2.5130
20:27:13.487 [OCR3] 00008A3A
20:27:14.004 [DBG ] $STAT,RECORDING
20:27:14.002 [APLA] $UTC,20220706,202714.0028
20:27:14.004 [APLA] $GPZDA,202714.0028,06,07,2022,,*6D
20:27:14.058 [ECO ] 99/99/99	99:99:99	700	50	595	50	680	48	548
20:27:13.840 [OCR3] 00008A3B
20:27:14.045 [CTD ]  13.0922,  3.53477,    0.229, 3.0220, 2.5132
20:27:12.884 [OCR2] 00008A3C
20:27:14.275 [OWL ] SEAOWLA2K-0144	3927	69	239	239	1312	199	1508	1508	2617	2617	120	735	735
20:27:14.293 [CTD ]  13.0273,  3.53144,    0.230, 3.0215, 2.5126
20:27:14.090 [OCR3] 00008A3D
20:27:14.459 [APLA] $PASHR,202714.455,163.62,T,-1.73,6.41,-0.04,0.024,0.024,0.020,2,1*15
20:27:14.465 [APLA] $GPGGA,202714.455,4947.03501,N,06420.38784,W,2,32,0.8,0.43,M,,,6,0131*1A
20:27:14.472 [APLA] $GPVTG,166.9,T,,M,3.4,N,6.3,K,D*02
20:27:14.551 [CTD ]  12.9647,  3.53031,    0.228, 3.0199, 2.5131
20:27:14.343 [OCR3] 00008A3E
20:27:14.800 [CTD ]  12.9194,  3.52956,    0.224, 3.0176, 2.5124
20:27:14.601 [OCR3] 00008A3F
20:27:13.740 [OCR1] 00008A40
20:27:15.004 [DBG ] $STAT,RECORDING
20:27:15.002 [APLA] $UTC,20220706,202715.0028
20:27:15.004 [APLA] $GPZDA,202715.0028,06,07,2022,,*6C
20:27:15.058 [CTD ]  12.8905,  3.52591,    0.224, 3.0176, 2.5126
20:27:15.087 [OWL ] SEAOWLA2K-0144	3922	68	238	238	1313	198	1492	1492	2618	2618	120	735	735
20:27:14.851 [OCR3] 00008A41
20:27:15.181 [ECO ] 99/99/99	99:99:99	700	50	595	50	680	45	548
20:27:14.101 [OCR2] 00008A42
20:27:15.306 [CTD ]  12.8657,  3.52565,    0.226, 3.0159, 2.5131
20:27:15.459 [APLA] $PASHR,202715.455,167.48,T,-2.93,5.01,0.03,0.024,0.024,0.020,2,1*38
20:27:15.465 [APLA] $GPGGA,202715.455,4947.03410,N,06420.38751,W,2,32,0.8,0.49,M,,,7,0131*19
20:27:15.472 [APLA] $GPVTG,167.2,T,,M,3.3,N,6.2,K,D*0E
20:27:15.202 [OCR3] 00008A43
20:27:15.564 [CTD ]  12.8574,  3.52992,    0.230, 3.0144, 2.5129
20:27:15.562 [OCR3] 00008A44
20:27:15.812 [CTD ]  12.8764,  3.53322,    0.235, 3.0132, 2.5132
20:27:15.899 [OWL ] SEAOWLA2K-0144	3927	68	236	236	1312	199	1499	1499	2617	2617	121	746	746
20:27:16.004 [DBG ] $STAT,RECORDING
20:27:16.002 [APLA] $UTC,20220706,202716.0028
20:27:16.004 [APLA] $GPZDA,202716.0028,06,07,2022,,*6F
20:27:15.812 [OCR3] 00008A45
20:27:16.070 [CTD ]  12.9065,  3.53479,    0.239, 3.0125, 2.5131
20:27:14.957 [OCR1] 00008A46
20:27:16.063 [OCR3] 00008A47
20:27:16.305 [ECO ] 99/99/99	99:99:99	700	50	595	50	680	47	548
20:27:16.327 [CTD ]  12.9326,  3.53514,    0.242, 3.0107, 2.5127
20:27:16.459 [APLA] $PASHR,202716.455,171.95,T,-3.21,5.09,-0.00,0.024,0.024,0.020,2,1*12
20:27:16.465 [APLA] $GPGGA,202716.455,4947.03318,N,06420.38721,W,2,32,0.8,0.46,M,,,7,0131*1D
20:27:16.472 [APLA] $GPVTG,171.1,T,,M,3.3,N,6.2,K,D*0A
20:27:16.323 [OCR3] 00008A48
20:27:16.577 [CTD ]  12.9531,  3.54136,    0.245, 3.0100, 2.5117
20:27:15.319 [OCR2] 00008A49
20:27:16.711 [OWL ] SEAOWLA2K-0144	3923	68	234	234	1313	198	1492	1492	2619	2619	121	744	744
20:27:16.834 [CTD ]  12.9910,  3.54432,    0.250, 3.0079, 2.5121
20:27:16.572 [OCR3] 00008A4A
20:27:17.004 [DBG ] $STAT,RECORDING
20:27:17.002 [APLA] $UTC,20220706,202717.0028
20:27:17.004 [APLA] $GPZDA,202717.0028,06,07,2022,,*6E
20:27:17.081 [CTD ]  13.0283,  3.54425,    0.244, 3.0071, 2.5128
20:27:16.923 [OCR3] 00008A4B
20:27:17.342 [CTD ]  13.0490,  3.54306,    0.232, 3.0076, 2.5133
20:27:17.429 [ECO ] 99/99/99	99:99:99	700	50	595	50	680	47	548
20:27:17.459 [APLA] $PASHR,202717.455,175.26,T,-2.64,4.97,0.03,0.024,0.024,0.020,2,1*37
20:27:17.465 [APLA] $GPGGA,202717.455,4947.03227,N,06420.38706,W,2,32,0.8,0.49,M,,,7,0131*1B
20:27:17.472 [APLA] $GPVTG,176.4,T,,M,3.3,N,6.1,K,D*0B
20:27:17.284 [OCR3] 00008A4C
20:27:17.522 [OWL ] SEAOWLA2K-0144	3926	68	235	235	1312	196	1477	1477	2618	2618	120	732	732
20:27:16.275 [OCR1] 00008A4D
20:27:17.587 [CTD ]  13.0529,  3.54136,    0.230, 3.0036, 2.5133
20:27:17.534 [OCR3] 00008A4E
20:27:17.845 [CTD ]  13.0442,  3.53923,    0.232, 3.0028, 2.5138
20:27:16.636 [OCR2] 00008A4F
20:27:18.004 [DBG ] $STAT,RECORDING
20:27:18.002 [APLA] $UTC,20220706,202718.0028
20:27:18.004 [APLA] $GPZDA,202718.0028,06,07,2022,,*61
20:27:17.783 [OCR3] 00008A50
20:27:18.093 [CTD ]  13.0302,  3.54032,    0.238, 3.0020, 2.5127
20:27:18.045 [OCR3] 00008A51
20:27:18.351 [CTD ]  13.0270,  3.54232,    0.243, 2.9999, 2.5124
20:27:18.334 [OWL ] SEAOWLA2K-0144	3921	68	235	235	1312	201	1521	1521	2619	2619	120	734	734
20:27:18.459 [APLA] $PASHR,202718.455,175.29,T,-2.79,5.45,-0.03,0.024,0.024,0.020,2,1*18
20:27:18.465 [APLA] $GPGGA,202718.455,4947.03134,N,06420.38703,W,2,32,0.8,0.43,M,,,4,0131*19
20:27:18.472 [APLA] $GPVTG,180.9,T,,M,3.4,N,6.2,K,D*0B
20:27:18.553 [ECO ] 99/99/99	99:99:99	700	50	595	50	680	47	548
20:27:18.294 [OCR3] 00008A52
20:27:18.609 [CTD ]  13.0352,  3.54360,    0.243, 2.9996, 2.5122
20:27:17.591 [OCR1] 00008A53
20:27:18.856 [CTD ]  13.0469,  3.54379,    0.241, 2.9982, 2.5118
20:27:19.004 [DBG ] $STAT,RECORDING
20:27:19.002 [APLA] $UTC,20220706,202719.0029
20:27:19.004 [APLA] $GPZ,202719.0029,06,07,2022,,*61
20:27:18.643 [OCR3] 00008A54
20:27:19.115 [CTD ]  13.0529,  3.54093,    0.241, 2.9970, 2.5126
20:27:17.953 [OCR2] 00008A55
20:27:19.146 [OWL ] SEAOWLA2K-0144	3926	68	234	234	1311	197	1481	1481	2618	2618	121	740	740
20:27:19.016 [OCR3] 00008A56
20:27:19.362 [CTD ]  13.0434,  3.53905,    0.232, 2.9964, 2.5128
20:27:19.460 [APLA] $PASHR,202719.455,173.67,T,-1.96,5.42,0.02,0.024,0.024,0.020,2,1*3C
20:27:19.466 [APLA] $GPGGA,202719.455,4947.03042,N,06420.38704,W,2,32,0.8,0.47,M,,,5,0131*1A
20:27:19.472 [APLA] $GPVTG,180.3,T,,M,3.3,N,6.1,K,D*05
20:27:19.254 [OCR3] 00008A57
20:27:19.621 [CTD ]  13.0255,  3.53546,    0.230, 2.9957, 2.5121
20:27:19.677 [ECO ] 99/99/99	99:99:99	700	50	595	50	680	48	548
20:27:19.503 [OCR3] 00008A58
20:27:19.868 [CTD ]  12.9975,  3.53268,    0.227, 2.9951, 2.5128
20:27:20.004 [DBG ] $STAT,RECORDING
20:27:20.002 [APLA] $UTC,20220706,202720.0029
20:27:20.004 [APLA] $GPZDA,202720.0029,06,07,2022,,*6B
20:27:19.765 [OCR3] 00008A59
20:27:19.958 [OWL ] SEAOWLA2K-0144	3920	68	236	236	1312	197	1483	1483	2617	2617	121	739	739
20:27:18.810 [OCR1] 00008A5A
20:27:20.127 [CTD ]  12.9676,  3.53044,    0.222, 2.9936, 2.5125
20:27:20.016 [OCR3] 00008A5B
20:27:19.170 [OCR2] 00008A5C
20:27:20.375 [CTD ]  12.9407,  3.52868,    0.219, 2.9931, 2.5130
20:27:20.459 [APLA] $PASHR,202720.5,173.14,T,-1.32,5.22,-0.02,0.024,0.024,0.020,2,1*17
20:27:20.465 [APLA] $GPGGA,202720.455,4947.02948,N,06420.38703,W,2,32,0.8,0.43,M,,,6,0131*12
20:27:20.472 [APLA] $GPVTG,179.4,T,,M,3.4,N,6.4,K,D*06
20:27:20.633 [CTD ]  12.9167,  3.52862,    0.220, 2.9937, 2.5131
20:27:20.364 [OCR3] 00008A5D
20:27:20.800 [ECO ] 99/99/99	99:99:99	700	50	595	50	680	46	548
20:27:20.770 [OWL ] SEAOWLA2K-0144	3925	68	236	236	1310	205	1561	1561	2618	2618	119	728	728
20:27:20.881 [CTD ]  12.9029,  3.52920,    0.220, 2.9914, 2.5135
20:27:20.725 [OCR3] 00008A5E
20:27:21.004 [DBG ] $STAT,RECORDING
20:27:21.002 [APLA] $UTC,20220706,2721.0029
20:27:21.004 [APLA] $GPZDA,202721.0029,06,07,2022,,*6A
20:27:21.138 [CTD ]  12.8982,  3.52682,    0.221, 2.9906, 2.5133
20:27:20.976 [OCR3] 00008A5F
20:27:20.026 [OCR1] 00008A60
20:27:21.387 [CTD ]  12.8849,  3.52164,    0.224, 2.9902, 2.5132
20:27:21.460 [APLA] $PASHR,202721.455,175.31,T,-2.23,5.12,-0.01,0.024,0.024,0.020,2,1*14
20:27:21.466 [APLA] $GPGGA,202721.455,4947.02852,N,06420.38702,W,2,32,0.8,0.43,M,,,7,0131*19
20:27:21.472 [APLA] $GPVTG,180.7,T,,M,3.4,N,6.4,K,D*03
20:27:21.225 [OCR3] 00008A61
20:27:20.387 [OCR2] 00008A62
20:27:21.582 [OWL ] SEAOWLA2K-0144	3920	68	233	233	1311	197	1484	1484	2617	2617	120	738	738
20:27:21.646 [CTD ]  12.8513,  3.51425,    0.234, 2.9895, 2.5131
20:27:21.487 [OCR3] 00008A63
20:27:21.895 [CTD ]  12.7981,  3.50664,    0.239, 2.9891, 2.5124
20:27:21.924 [ECO ] 99/99/99	99:99:99	700	50	595	50	680	48	548
20:27:22.004 [DBG ] $STAT,RECORDING
20:27:22.002 [APLA] $UTC,20220706,202722.0029
20:27:22.004 [APLA] $GPZDA,202722.0029,06,07,2022,,*69
20:27:21.737 [OCR3] 00008A64
20:27:22.144 [CTD ]  12.7353,  3.50059,    0.238, 2.9893, 2.5126
20:27:22.086 [OCR3] 00008A65
20:27:22.401 [CTD ]  12.6741,  3.49663,    0.238, 2.9868, 2.5124
20:27:22.394 [OWL ] SEAOWLA2K-0144	3924	68	231	231	1311	198	1487	1487	2618	2618	120	730	730
20:27:21.244 [OCR1] 00008A66
20:27:22.459 [APLA] $PA2722.455,176.57,T,-2.65,5.88,-0.00,0.024,0.024,0.020,2,1*14
20:27:22.466 [APLA] $GPGGA,202722.455,4947.02757,N,06420.38705,W,2,32,0.8,0.44,M,,,7,0131*10
20:27:22.472 [APLA] $GPVTG,181.8,T,,M,6.3,K,D*0A
20:27:22.446 [OCR3] 00008A67
20:27:22.651 [CTD ]  12.6228,  3.49536,    0.237, 2.9861, 2.5131
20:27:21.604 [OCR2] 00008A68
20:27:22.900 [CTD ]  12.5904,  3.49468,    0.236, 2.9857, 2.5128
20:27:22.697 [OCR3] 00008A69
20:27:23.004 [DBG ] $STAT,RECORDING
20:27:23.002 [APLA] $UTC,20220706,202723.0029
20:27:23.004 [APLA] $GPZDA,202723.0029,06,07,2022,,*6
20:27:23.048 [ECO ] 99/99/99	99:99:99	700	50	595	50	680	47	548
20:27:23.159 [CTD ]  12.5653,  3.48753,    0.233, 2.9843, 2.5124
20:27:22.949 [OCR3] 00008A6A
20:27:23.206 [OWL ] SEAOWLA2K-0144	3920	69	241	241	1311	199	1504	1504	2616	2616	119	723	723
20:27:23.407 [CTD ]  12.5261,  3.48291,    0.230, 2.9831, 2.5129
20:27:23.209 [OCR3] 00008A6B
20:27:23.460 [APLA] $PASHR,202723.455,175.13,T,-2.50,4.84,0.02,0.024,0.024,0.020,2,1*32
20:27:23.466 [APLA] $GPGGA,202723.455,4947.02664,N,06420.38711,W,2,32,0.8,0.46,M,,,7,0131*1
20:27:23.472 [APLA] $GPVTG,183.2,T,,M,3.3,N,6.1,K,D*07
20:27:23.657 [CTD ]  12.4842,  3.47964,    0.238, 2.9814, 2.5116
20:27:22.460 [OCR1] 00008A6C
20:27:23.458 [OCR3] 00008A6D
20:27:23.906 [CTD ]  12.4451,  3.47554,    0.237, 2.9822, 2.5125
20:27:24.004 [DBG ] $STAT,RECORDING
20:27:24.002 [APLA] $UTC,20220706,202724.0029
20:27:24.004 [APLA] $GPZDA,202724.0029,06,07,2022,,*6F
20:27:24.017 [OWL ] SEAOWLA2K-0144	3924	70	250	250	1310	195	1467	1467	2617	2617	118	718	718
20:27:22.821 [OCR2] 00008A6E
20:27:23.809 [OCR3] 00008A6F
20:27:24.172 [ECO ] 99/99/99	99:99:99	700	50	595	50	680	46	548
20:27:24.156 [CTD ]  12.4060,  3.47273,    0.231, 2.9817, 2.5125
20:27:24.169 [OCR3] 00008A70
20:27:24.415 [CTD ]  12.3719,  3.47123,    0.225, 2.9788, 2.5120
20:27:24.460 [APLA] $PASHR,202724.455,172.78,T,-1.46,5.33,-0.01,0.024,0.024,0.020,2,1*18
20:27:24.466 [APLA] $GPGGA,202724.455,4947.02572,N,06420.38716,W,2,32,0.8,0.42,M,,,4,0131*14
20:27:24.472 [APLA] $GPVTG,180.9,T,,M,3.3,N,6.2,K,D*0C
20:27:24.419 [OCR3] 00008A71
20:27:24.665 [CTD ]  12.3465,  3.47038,    0.226, 2.9779, 2.5128
20:27:24.829 [OWL ] SEAOWLA2K-0144	3920	70	255	255	1311	195	1470	1470	2616	2616	118	717	717
20:27:24.670 [OCR3] 00008A72
20:27:24.913 [CTD ]  12.3292,  3.46987,    0.220, 2.9783, 2.5130
20:27:25.004 [DBG ] $STAT,RECORDING
20:27:25.002 [APLA] $UT20220706,202725.0030
20:27:25.004 [APLA] $GPZDA,202725.0030,06,07,2022,,*66
20:27:23.777 [OCR1] 00008A73
20:27:24.930 [OCR3] 00008A74
20:27:25.163 [CTD ]  12.3175,  3.46935,    0.220, 2.9758, 2.5124
20:27:25.295 [ECO ] 99/99/99	99:99:99	700	50	595	50	680	45	548
20:27:24.138 [OCR2] 00008A75
20:27:25.412 [CTD ]  12.3099,  3.46904,    0.221, 2.9760, 2.5126
20:27:25.179 [OCR3] 00008A76
20:27:25.460 [APLA] $PASHR,202725.455,172.48,T,-1.67,5.27,-0.02,0.024,0.024,0.020,2,1*1F
20:27:25.613 [APLA] $GPGGA,202725.455,4947.02477,N,06420.38715,W,2,32,0.8,0.41,M,,,5,0131*10
20:27:25.619 [APLA] $GPVTG,178.5,T,,M,3.5,N,6.4,K,D*07
20:27:25.641 [OWL ] SEAOWLA2K-0144	3924	70	253	253	1311	194	1457	1457	2617	2617	118	715	715
20:27:25.674 [CTD ]  12.3038,  3.46845,    0.223, 2.9743, 2.5128
20:27:25.531 [OCR3] 00008A77
20:27:25.935 [CTD ]  12.2981,  3.46807,    0.222, 2.9729, 2.5132
20:27:26.004 [DBG ] $STAT,RECORDING
20:27:26.003 [APLA] $UTC,20220706,202726.0030
20:27:26.004 [APLA] $GPZDA,202726.0030,06,07,2022,,*65
20:27:25.891 [OCR3] 00008A78
20:27:26.183 [CTD ]  12.2929,  3.46798,    0.223, 2.9719, 2.5124
20:27:25.095 [OCR1] 00008A79
20:27:26.141 [OCR3] 00008A7A
20:27:26.420 [ECO ] 99/99/99	99:99:99	700	50	595	50	680	47	548
20:27:26.461 [APLA] $PASHR,202726.455,173.95,T,-2.28,5.78,0.01,0.024,024,0.020,2,1*31
20:27:26.467 [APLA] $GPGGA,202726.455,4947.02383,N,06420.38711,W,2,32,0.8,0.44,M,,,6,0131*1D
20:27:26.433 [CTD ]  12.2898,  3.46798,    0.227, 2.9693, 2.5126
20:27:26.473 [APLA] $GPVTG,178.7,T,,M,3.3,N,6.2,K,D*05
20:27:26.454 [OWL ] SEAOWLA2K-0144	3919	70	254	254	1311	212	1631	1631	2616	2616	118	711	711
20:27:26.392 [OCR3] 00008A7B
20:27:25.455 [OCR2] 00008A7C
20:27:26.682 [CTD ]  12.2871,  3.46765,    0.231, 2.9689, 2.5123
20:27:26.652 [OCR3] 00008A7D
20:27:26.941 [CTD ]  12.2840,  3.46766,    0.234, 2.9676, 2.5125
20:27:27.005 [DBG ] $STAT,RECORDING
20:27:27.003 [APLA] $UTC,20220706,202727.0030
20:27:27.005 [APLA] $GPZDA,202727.0030,06,07,2022,,*64
20:27:27.191 [CTD ]  12.2815,  3.46758,    0.228, 2.9654, 2.5121
20:27:26.902 [OCR3] 00008A7E
20:27:27.266 [OWL ] SEAOWLA2K-0144	3923	70	251	251	1310	221	1723	1723	2617	2617	118	714	714
20:27:27.441 [CTD ]  12.2802,  3.46770,    0.229, 2.9642, 2.5126
20:27:26.313 [OCR1] 00008A7F
20:27:27.544 [ECO ] 99/99/99	99:99:99	700	50	595	50	680	46	548
20:27:27.252 [OCR3] 00008A80
20:27:27.461 [APLA] $PASHR,202727.455,176.08,T,-2.53,4.90,0.02,0.024,0.024,0.022,1*39
20:27:27.614 [APLA] $GPGGA,202727.455,4947.02291,N,06420.38710,W,2,32,0.8,0.45,M,,,7,0131*1F
20:27:27.620 [APLA] $GPVTG,181.2,T,,M,3.3,N,6.0,K,D*04
20:27:27.689 [CTD ]  12.2808,  3.46796,    0.238, 2.9625, 2.5129
20:27:27.613 [OCR3] 00008A81
20:27:26.673 [OCR2] 00008A82
20:27:27.939 [CTD ]  12.2843,  3.46823,    0.247, 2.9635, 2.5129
20:27:28.005 [DBG ] $STAT,RECORDING
20:27:28.003 [APLA] $UTC,20220706,202728.0030
20:27:28.005 [APLA] $GPZDA,202728.0030,06,07,2022,,*6B
20:27:27.863 [OCR3] 00008A83
20:27:28.078 [OWL ] SEAOWLA2K-0144	3918	71	260	260	1310	201	1524	1524	2618	2618	118	717	717
20:27:28.187 [CTD ]  12.2907,  3.46839,    0.245, 2.9580, 2.5127
20:27:28.112 [OCR3] 00008A84
20:27:28.461 [APLA] $PASHR,202728.455,176.23,T,-2.57,5.09,-0.00,0.024,0.024,0.020,2,1*15
20:27:28.467 [APLA] $GPGGA,202728.455,4947.02200,N,06420.38716,W,2,32,0.8,0.43,M,,,7,0131*18
20:27:28.473 [APLA] $GPVTG,182.6,T,,M,3.4,N,6.2,K,D*06
20:27:28.437 [CTD ]  12.2981,  3.46859,    0.241, 2.9583, 2.5134
20:27:28.374 [OCR3] 00008A85
20:27:28.668 [ECO ] 99/99/99	99:99:99	700	50	595	50	680	45	548
20:27:28.697 [CTD ]  12.3044,  3.46853,    0.236, 2.9577, 2.5133
20:27:27.530 [OCR1] 00008A86
20:27:28.890 [OWL ] SEAOWLA2K-0144	3923	70	256	256	1309	195	1458	1458	2617	2617	117	706	706
20:27:28.623 [OCR3] 00008A87
20:27:28.946 [CTD ]  12.3084,  3.46828,    0.235, 2.9559, 2.5123
20:27:29.005 [DBG ] $STAT,RECORDING
20:27:29.003 [APLA] $UTC,20220706,202729.0030
20:27:29.005 [APLA] $GPZDA,202729.0030,06,07,2022,,*6A
20:27:27.890 [OCR2] 00008A88
20:27:29.196 [CTD ]  12.3092,  3.46806,    0.237, 2.9543, 2.5129
20:27:28.972 [OCR3] 00008A89
20:27:29.461 [APLA] $PASHR,202729.455,174.80,T,-1.82,5.53,0.00,0.024,0.024,0.020,2,1*36
20:27:29.467 [APLA] $GPGGA,202729.455,4947.02108,N,06420.38722,W,2,32,0.8,0.42,M,,,7,0131*14
20:27:29.473 [APLA] $GPVTG,182.6,T,,M,3.3,N,6.1,K,D*02
20:27:29.446 [CTD ]  12.3072,  3.46781,    0.236, 2.9519, 2.5122
20:27:29.334 [OCR3] 00008A8A
20:27:29.694 [CTD ]  12.3032,  3.46722,    0.225, 2.9502, 2.5127
20:27:29.702 [OWL ] SEAOWLA2K-0144	3919	70	253	253	1311	194	1456	1456	2617	2617	118	715	715
20:27:29.792 [ECO ] 99/99/99	99:99:99	700	50	595	50	680	46	548
20:27:29.584 [OCR3] 00008A8B
20:27:28.746 [OCR1] 00008A8C
20:27:29.944 [CTD ]  12.2974,  3.46664,    0.223, 2.9491, 2.5116
20:27:30.011 [DBG ] $STAT,RECORDING
20:27:30.003 [APLA] $UTC,20220706,202730.0030
20:27:30.005 [APLA] $GPZDA,202730.0030,06,07,2022,,*62
20:27:29.833 [OCR3] 00008A8D
20:27:30.204 [CTD ]  12.2901,  3.46593,    0.225, 2.9487, 2.5124
20:27:29.108 [OCR2] 00008A8E
20:27:30.095 [OCR3] 00008A8F
20:27:30.461 [APLA] $PASHR,202730.455,172.63,T,-2.12,5.07,-0.01,0.024,0.024,0.020,2,1*12
20:27:30.467 [APLA] $GPGGA,202730.455,4947.02016,N,06420.38727,W,2,32,0.8,0.40,M,,,4,0131*16
20:27:30.473 [APLA] $GPVTG,180.8,T,,M,3.3,N,6.1,K,D*0E
20:27:30.454 [CTD ]  12.2824,  3.46556,    0.228, 2.9472, 2.5129
20:27:30.514 [OWL ] SEAOWLA2K-0144	3922	70	255	255	1310	195	1462	1462	2618	2618	118	711	711
20:27:30.345 [OCR3] 00008A90
20:27:30.702 [CTD ]  12.2761,  3.46523,    0.232, 2.9475, 2.5133
20:27:30.915 [ECO ] 99/99/99	99:99:99	700	50	595	50	680	46	548
20:27:30.952 [CTD ]  12.2704,  3.46455,    0.233, 2.9461, 2.5138
20:27:31.005 [DBG ] $STAT,RECORDING
20:27:31.003 [APLA] $UTC,20220706,202731.0030
20:27:31.005 [APLA] $GPZDA,202731.0030,06,07,2022,,*63
20:27:30.694 [OCR3] 00008A91
20:27:31.202 [CTD ]  12.2643,  3.46412,    0.227, 2.9440, 2.5128
20:27:29.965 [OCR1] 00008A92
20:27:31.054 [OCR3] 00008A93
20:27:31.326 [OWL ] SEAOWLA2K-0144	3918	71	259	259	1310	194	1452	1452	2617	2617	118	717	717
20:27:31.461 [APLA] $PASHR,202731.455,170.30,T,-1.83,5.42,0.01,0.024,0.024,0.020,2,1*30
20:27:31.467 [APLA] $GPGGA,202731.455,4947.01925,N,06420.38727,W,2,32,0.8,0.41,M,,,5,0131*1D
20:27:31.473 [APLA] $GPVTG,178.7,T,,M,3.3,N,6.0,K,D*07
20:27:31.450 [CTD ]  12.2591,  3.46382,    0.226, 2.9450, 2.5122
20:27:31.305 [OCR3] 00008A94
20:27:30.325 [OCR2] 00008A95
20:27:31.700 [CTD ]  12.2551,  3.46372,    0.224, 2.9420, 2.5128
20:27:31.554 [OCR3] 00008A96
20:27:32.005 [DBG ] $STAT,RECORDING
20:27:32.003 [APLA] $UTC,20220706,202732.0031
20:27:31.960 [CTD ]  12.2540,  3.46357,    0.222, 2.9413, 2.5127
20:27:32.005 [APLA] $GPZDA,202732.0031,06,07,2022,,*61
20:27:31.815 [OCR3] 00008A97
20:27:32.039 [ECO ] 99/99/99	99:99:99	700	50	595	50	680	46	548
20:27:32.138 [OWL ] SEAOWLA2K-0144	3923	70	260	260	1310	191	1429	1429	2617	2617	117	706	706
20:27:32.210 [CTD ]  12.2549,  3.46337,    0.226, 2.9416, 2.5126
20:27:32.066 [OCR3] 00008A98
20:27:32.461 [APLA] $PASHR,202732.455,169.30,T,-1.91,4.61,-0.06,0.024,0.024,0.020,2,1*12
20:27:32.467 [APLA] $GPGGA,202732.455,4947.01833,N,06420.38722,W,2,32,0.8,0.33,M,,,6,0131*1B
20:27:32.460 [CTD ]  12.2556,  3.46324,    0.231, 2.9393, 2.5128
20:27:31.283 [OCR1] 00008A99
20:27:32.473 [APLA] $GPVTG,176.9,T,,M,3.4,N,,K,D*03
20:27:32.708 [CTD ]  12.2565,  3.46327,    0.235, 2.9380, 2.5133
20:27:32.416 [OCR3] 00008A9A
20:27:31.642 [OCR2] 00008A9B
20:27:33.005 [DBG ] $STAT,RECORDING
20:27:33.003 [APLA] $UTC,20220706,202733.0031
20:27:32.958 [CTD ]  12.2594,  3.46276,    0.236, 2.9373, 2.5117
20:27:33.005 [APLA] $GPZDA,202733.0031,06,07,2022,,*60
20:27:32.951 [OWL ] SEAOWLA2K-0144	3918	70	258	258	1311	192	1431	1431	2616	2616	117	708	708
20:27:32.776 [OCR3] 00008A9C
20:27:33.163 [ECO ] 99/99/99	99:99:99	700	50	595	50	680	46	548
20:27:33.208 [CTD ]  12.2593,  3.46248,    0.234, 2.9376, 2.5132
20:27:33.026 [OCR3] 00008A9D
20:27:33.461 [APLA] $PASHR,202733.455,168.81,T,-2.30,5.79,0.03,0.024,0.024,0.020,2,1*30
20:27:33.467 [APLA] $GPGGA,202733.455,4947.01742,N,06420.38712,W,2,32,0.8,0.40,M,,,7,0131*15
20:27:33.473 [APLA] $GPVTG,174.7,T,,M,3.3,N,6.1,K,D*0A
20:27:33.456 [CTD ]  12.2566,  3.46251,    0.228, 2.9367, 2.5127
20:27:33.277 [OCR3] 00008A9E
20:27:33.706 [CTD ]  12.2573,  3.46180,    0.226, 2.9368, 2.5130
20:27:33.537 [OCR3] 00008A9F
20:27:32.599 [OCR1] 00008AA0
20:27:33.763 [OWL ] SEAOWLA2K-0144	3923	71	257	257	1310	191	1430	1430	2617	2617	117	707	707
20:27:34.005 [DBG ] $STAT,RECORDING
20:27:34.003 [APLA] $UTC,20220706,202734.0031
20:27:34.005 [APLA] $GPZDA,202734.0031,06,07,2022,,*67
20:27:33.966 [CTD ]  12.2583,  3.46167,    0.226, 2.9360, 2.5123
20:27:33.787 [OCR3] 00008AA1
20:27:32.959 [OCR2] 00008AA2
20:27:34.217 [CTD ]  12.2562,  3.46153,    0.231, 2.9337, 2.5127
20:27:34.287 [ECO ] 99/99/99	99:99:99	700	50	595	50	680	46	548
20:27:34.461 [APLA] $PASHR,202734.455,169.04,T,-1.83,5.04,-0.02,0.024,0.024,0.020,2,1*16
20:27:34.467 [APLA] $GPGGA,202734.455,4947.01652,N,06420.38700,W,2,32,0.8,0.36,M,,,7,0131*10
20:27:34.473 [APLA] $GPVTG,175.4,T,,M,3.3,N,6.1,K,D*08
20:27:34.138 [OCR3] 00008AA3
20:27:34.468 [CTD ]  12.2523,  3.46125,    0.231, 2.9340, 2.5129
20:27:34.575 [OWL ] SEAOWLA2K-0144	3919	70	257	257	1311	194	1454	1454	2616	2616	117	703	703
20:27:34.499 [OCR3] 00008AA4
20:27:34.715 [CTD ]  12.2462,  3.46102,    0.228, 2.9333, 2.5128
20:27:34.748 [OCR3] 00008AA5
20:27:35.005 [DBG ] $STAT,RECORDING
20:27:35.003 [APLA] $UTC,20220706,202735.0031
20:27:34.965 [CTD ]  12.2408,  3.46052,    0.233, 2.9327, 2.5132
20:27:35.005 [APLA] $GPZDA,202735.0031,06,07,2022,,*66
20:27:33.815 [OCR1] 00008AA6
20:27:34.999 [OCR3] 00008AA7
20:27:35.213 [CTD ]  12.2359,  3.46017,    0.227, 2.9327, 2.5126
20:27:34.176 [OCR2] 00008AA8
20:27:35.411 [ECO ] 99/99/99	99:99:99	700	50	595	50	680	47	548
20:27:35.387 [OWL ] SEAOWLA2K-0144	3923	70	252	252	1309	200	1509	1509	2618	2618	117	709	709
20:27:35.461 [APLA] $PASHR,202735.455,169.24,T,-2.11,5.24,0.00,0.024,0.024,0.020,2,30
20:27:35.467 [APLA] $GPGGA,202735.455,4947.01561,N,06420.38689,W,2,32,0.8,0.37,M,,,7,0131*13
20:27:35.473 [APLA] $GPVTG,175.6,T,,M,3.3,N,6.1,K,D*0A
20:27:35.259 [OCR3] 00008AA9
20:27:35.463 [CTD ]  12.2307,  3.46007,    0.225, 2.9315, 2.5127
20:27:35.713 [CTD ]  12.2255,  3.45992,    0.229, 2.9307, 2.5128
20:27:35.508 [OCR3] 00008AAA
20:27:36.005 [DBG ] $STAT,RECORDING
20:27:36.003 [APLA] $UTC,20220706,202736.0031
20:27:36.006 [APLA] $GPZDA,202736.0031,06,07,2022,,*65
20:27:35.973 [CTD ]  12.2205,  3.45977,    0.234, 2.9297, 2.5133
20:27:35.859 [OCR3] 00008AAB
20:27:35.033 [OCR1] 00008AAC
20:27:36.199 [OWL ] SEAOWLA2K-0144	3918	71	260	260	1310	211	1617	1617	2618	2618	118	716	716
20:27:36.223 [CTD ]  12.2169,  3.45964,    0.235, 2.9298, 2.5128
20:27:36.461 [APLA] $PASHR,202736.455,169.67,T,-2.28,5.50,0.03,0.024,0.024,0.020,2,1*3E
20:27:36.467 [APLA] $GPGGA,202736.455,4947.011,N,06420.38679,W,2,32,0.8,0.40,M,,,4,0131*1C
20:27:36.473 [APLA] $GPVTG,175.5,T,,M,3.3,N,6.0,K,D*08
20:27:36.220 [OCR3] 00008AAD
20:27:36.473 [CTD ]  12.2156,  3.45966,    0.233, 2.9290, 2.5127
20:27:36.535 [ECO ] 99/99/99	99:99:99	700	50	595	50	680	47	548
20:27:35.393 [OCR2] 00008AAE
20:27:36.488 [OCR3] 00008AAF
20:27:36.721 [CTD ]  12.2166,  3.45964,    0.230, 2.9284, 2.5121
20:27:36.719 [OCR3] 00008AB0
20:27:37.005 [DBG ] $STAT,RECORDING
20:27:37.003 [APLA] $UTC,20220706,202737.0031
20:27:37.006 [APLA] $GPZDA,202737.0031,06,07,2022,64
20:27:36.971 [CTD ]  12.2162,  3.45949,    0.230, 2.9283, 2.5126
20:27:37.011 [OWL ] SEAOWLA2K-0144	3923	71	262	262	1309	224	1750	1750	2618	2618	118	713	713
20:27:36.981 [OCR3] 00008AB1
20:27:37.221 [CTD ]  12.2117,  3.45916,    0.232, 2.9283, 2.5133
20:27:36.249 [OCR1] 00008AB2
20:27:37.461 [APLA] $PASHR,202737.455,169.71,T,-1.95,5.73,0.01,0.024,0.024,0.020,2,3E
20:27:37.467 [APLA] $GPGGA,202737.455,4947.01380,N,06420.38669,W,2,32,0.8,0.38,M,,,5,0131*1B
20:27:37.473 [APLA] $GPVTG,175.4,T,,M,3.2,N,6.0,K,D*08
20:27:37.469 [CTD ]  12.2040,  3.45886,    0.234, 2.9282, 2.5131
20:27:37.230 [OCR3] 00008AB3
20:27:37.658 [ECO ] 99/99/99	99:99:99	700	50	595	50	680	46	548
20:27:37.719 [CTD ]  12.1955,  3.45843,    0.226, 2.9269, 2.5127
20:27:36.609 [OCR2] 00008AB4
20:27:37.824 [OWL ] SEAOWLA2K-0144	3918	71	259	259	1310	206	1571	1571	2616	2616	118	712	712
20:27:37.580 [OCR3] 00008AB5
20:27:38.005 [DBG ] $STAT,RECORDING
20:27:38.003 [APLA] $UTC,20220706,202738.0031
20:27:38.006 [APLA] $GPZDA,202738.0031,06,07,2022,,*6B
20:27:37.969 [CTD ]  12.1871,  3.45790,    0.220, 2.9249, 2.5133
20:27:37.942 [OCR3] 00008AB6
20:27:38.229 [CTD ]  12.1814,  3.45729,    0.220, 2.9269, 2.5133
20:27:38.191 [OCR3] 00008AB7
20:27:38.461 [APLA] $PASHR,202738.455,169.44,T,-1.99,4.59,-0.01,0.024,0.024,0.020,2,1*1F
20:27:38.467 [APLA] $GPGGA02738.455,4947.01289,N,06420.38658,W,2,32,0.8,0.36,M,,,6,0131*13
20:27:38.473 [APLA] $GPVTG,175.9,T,,M,3.3,N,6.2,K,D*06
20:27:38.479 [CTD ]  12.1804,  3.45687,    0.226, 2.9275, 2.5135
20:27:38.636 [OWL ] SEAOWLA2K-0144	3922	71	257	257	1309	197	1488	1488	2619	2619	118	717	717
20:27:38.440 [OCR3] 00008AB8
20:27:38.729 [CTD ]  12.1818,  3.45675,    0.231, 2.9238, 2.5127
20:27:37.467 [OCR1] 00008AB9
20:27:38.782 [ECO ] 99/99/99	99:99:99	700	50	595	50	680	46	548
20:27:38.703 [OCR3] 00008ABA
20:27:39.005 [DBG ] $STAT,RECORDING
20:27:39.003 [APLA] $UTC,20220706,202739.0032
20:27:39.006 [APLA] $GPZDA,202739.0032,06,07,2022,,*69
20:27:38.979 [CTD ]  12.1821,  3.45650,    0.234, 2.9247, 2.5129
20:27:37.826 [OCR2] 00008ABB
20:27:39.227 [CTD ]  12.1805,  3.45629,    0.237, 2.9242, 2.5126
20:27:38.952 [OCR3] 00008ABC
20:27:39.461 [APLA] $PASHR,202739.455,168.96,T,-2.35,5.47,-0.03,0.024,0.024,0.020,2,1*19
20:27:39.467 [APLA] $GPGGA,202739.455,4947.01196,N,06420.38648,W,2,32,0.8,0.32,M,,,7,0131*1B
20:27:39.473 [APLA] $GPVTG,175.8,T,,M,3.4,N,6.2,K,D*00
20:27:39.448 [OWL ] SEAOWLA2K-0144	3918	70	256	256	1311	215	1660	1660	2618	2618	118	713	713
20:27:39.477 [CTD ]  12.1776,  3.45609,    0.237, 2.9234, 2.5126
20:27:39.312 [OCR3] 00008ABD
20:27:39.727 [CTD ]  12.1737,  3.45594,    0.238, 2.9229, 2.5131
20:27:39.662 [OCR3] 00008ABE
20:27:39.906 [ECO ] 99/99/99	99:99:99	700	50	595	50	680	48	548
20:27:40.005 [DBG ] $STAT,RECORDING
20:27:40.003 [APLA] $UTC,20220706,202740.0032
20:27:40.006 [APLA] $GPZDA,202740.0032,06,07,2022,,*67
20:27:39.977 [CTD ]  12.1689,  3.45584,    0.234, 2.9234, 2.5127
20:27:38.783 [OCR1] 00008ABF
20:27:39.913 [OCR3] 00008AC0
20:27:40.225 [CTD ]  12.1641,  3.45584,    0.231, 2.9220, 2.5125
20:27:40.260 [OWL ] SEAOWLA2K-0144	3923	71	263	263	1309	204	1549	1549	2619	2619	118	717	717
20:27:40.173 [OCR3] 00008AC1
20:27:39.144 [OCR2] 00008AC2
20:27:40.461 [APLA] $PAS202740.455,168.14,T,-1.98,5.37,-0.00,0.024,0.024,0.020,2,1*1D
20:27:40.467 [APLA] $GPGGA,202740.455,4947.01103,N,06420.38636,W,2,32,0.8,0.34,M,,,7,0131*16
20:27:40.473 [APLA] $GPVTG,174.3,T,,M,3,N,6.2,K,D*0D
20:27:40.475 [CTD ]  12.1593,  3.45572,    0.223, 2.9230, 2.5128
20:27:40.423 [OCR3] 00008AC3
20:27:40.725 [CTD ]  12.1552,  3.45539,    0.225, 2.9211, 2.5135
20:27:41.005 [DBG ] $STAT,RECORDING
20:27:41.003 [APLA] $UTC,20220706,202741.0032
20:27:41.006 [APLA] $GPZDA,202741.0032,06,07,2022,,*66
20:27:40.985 [CTD ]  12.1526,  3.45502,    0.225, 2.9191, 2.5124
20:27:40.674 [OCR3] 00008AC4
20:27:41.030 [ECO ] 99/99/99	99:99:99	700	50	595	50	680	47	548
20:27:41.073 [OWL ] SEAOWLA2K-0144	3917	71	259	259	1311	203	1541	1541	2616	2616	118	710	710
20:27:41.236 [CTD ]  12.1505,  3.45484,    0.227, 2.9207, 2.5129
20:27:40.100 [OCR1] 00008AC5
20:27:41.034 [OCR3] 00008AC6
20:27:41.461 [APLA] $PASHR,202741.455,168.06,T,-2.07,5.24,0.02,0.024,0.024,0.020,2,1*37
20:27:41.467 [APLA] $GPGGA,202741.455,4947.01012,N,06420.38623,W,2,32,0.8,0.36,M,,,7,0131*10
20:27:41.474 [APLA] $GPVTG,174.2,T,,M,3.3,N,6.1,K,D*0F
20:27:41.484 [CTD ]  12.1481,  3.45479,    0.223, 2.9205, 2.5127
20:27:41.384 [OCR3] 00008AC7
20:27:40.462 [OCR2] 00008AC8
20:27:41.734 [CTD ]  12.1440,  3.45481,    0.223, 2.9205, 2.5122
20:27:41.635 [OCR3] 00008AC9
20:27:41.885 [OWL ] SEAOWLA2K-0144	3923	71	262	262	1310	196	1472	1472	2618	2618	119	721	721
20:27:42.005 [DBG ] $STAT,RECORDING
20:27:42.003 [APLA] $UTC,20220706,202742.0032
20:27:42.006 [APLA] $GPZDA,202742.0032,06,07,2022,,*65
20:27:41.984 [CTD ]  12.1397,  3.45486,    0.224, 2.9196, 2.5123
20:27:41.895 [OCR3] 00008ACA
20:27:42.154 [ECO ] 99/99/99	99:99:99	700	50	595	50	680	44	548
20:27:42.234 [CTD ]  12.1352,  3.45428,    0.225, 2.9187, 2.5130
20:27:42.144 [OCR3] 00008ACB
20:27:42.461 [APLA] $PASHR,202742.455,168.70,T,-2.25,5.16,-0.01,0.024,0.024,0.020,1,1*19
20:27:42.467 [APLA] $GGA,202742.455,4947.00920,N,06420.38609,W,2,32,0.8,0.33,M,,,4,0131*14
20:27:42.473 [APLA] $GPVTG,174.2,T,,M,3.3,N,6.2,K,D*0C
20:27:42.484 [CTD ]  12.1327,  3.45448,    0.228, 2.9189, 2.5128
20:27:41.319 [OCR1] 00008ACC
20:27:42.394 [OCR3] 00008ACD
20:27:42.697 [OWL ] SEAOWLA2K-0144	3918	71	266	266	1311	197	1486	1486	2618	2618	118	710	710
20:27:42.732 [CTD ]  12.1345,  3.45401,    0.234, 2.9180, 2.5128
20:27:41.678 [OCR2] 00008ACE
20:27:43.005 [DBG ] $STAT,RECORDING
20:27:43.003 [APLA] $UTC,20220706,202743.0032
20:27:43.006 [APLA] $GPZDA,202743.0032,06,07,2022,,*64
20:27:42.985 [CTD ]  12.1395,  3.45330,    0.235, 2.9172, 2.5136
20:27:42.756 [OCR3] 00008ACF
20:27:43.232 [CTD ]  12.1415,  3.45315,    0.231, 2.9165, 2.5128
20:27:43.277 [ECO ] 99/99/99	99:99:99	700	50	595	50	680	46	548
20:27:43.106 [OCR3] 00008AD0
20:27:43.461 [APLA] $PASHR,202743.455,169.13,T,-2.24,5.28,0.03,0.024,0.024,0.020,2,1*3C
20:27:43.467 [APLA] $GPGGA,202743.455,4947.00830,N,06420.38596,W,2,32,0.8,0.38,M,,,5,0131*1A
20:27:43.473 [APLA] $GPVTG,175.1,T,,M,3.2,N,6.0,K,D*0D
20:27:43.482 [CTD ]  12.1405,  3.45300,    0.224, 2.9170, 2.5133
20:27:43.509 [OWL ] SEAOWLA2K-0144	3923	71	264	264	1310	196	1471	1471	2618	2618	118	710	710
20:27:43.355 [OCR3] 00008AD1
20:27:42.534 [OCR1] 00008AD2
20:27:43.732 [CTD ]  12.1421,  3.45280,    0.223, 2.9170, 2.5133
20:27:43.617 [OCR3] 00008AD3
20:27:44.005 [DBG ] $STAT,RECORDING
20:27:44.003 [APLA] $UTC,20220706,202744.0032
20:27:44.006 [APLA] $GPZDA,202744.0032,06,07,2022,,*63
20:27:43.992 [CTD ]  12.1468,  3.45271,    0.225, 2.9165, 2.5130
20:27:42.895 [OCR2] 00008AD4
20:27:43.867 [OCR3] 00008AD5
20:27:44.242 [CTD ]  12.1538,  3.45278,    0.229, 2.9166, 2.5127
20:27:44.322 [OWL ] SEAOWLA2K-0144	3918	71	264	264	1311	201	1528	1528	2617	2617	117	706	706
20:27:44.401 [ECO ] 99/99/99	99:99:99	700	50	595	50	680	46	548
20:27:44.461 [APLA] $PASHR,202744.455,168.69,T,-2.13,5.27,-0.04,0.024,0.024,0.020,2,1*16
20:27:44.467 [APLA] $GPGGA,202744.455,4947.00739,N,06420.38585,W,2,32,0.8,0.30,M,,,6,0131*12
20:27:44.473 [APLA] $GPVTG,175.1,T,,M,3.3,N,6.1,K,D*0D
20:27:44.116 [OCR3] 00008AD6
20:27:44.492 [CTD ]  12.1607,  3.45295,    0.237, 2.9164, 2.5133
20:27:44.742 [CTD ]  12.1679,  3.45298,    0.234, 2.9170, 2.5130
20:27:44.489 [OCR3] 00008AD7
20:27:43.753 [OCR1] 00008AD8
20:27:45.005 [DBG ] $STAT,RECORDING
20:27:45.003 [APLA] $UTC,20220706,202745.0033
20:27:45.006 [APLA] $GPZDA,202745.0033,06,07,2022,,*63
20:27:44.990 [CTD ]  12.1727,  3.45248,    0.232, 2.9158, 2.5128
20:27:44.829 [OCR3] 00008AD9
20:27:45.134 [OWL ] SEAOWLA2K-0144	3922	70	259	259	1310	193	1443	1443	2618	2618	118	711	711
20:27:45.240 [CTD ]  12.1746,  3.45308,    0.230, 2.9160, 2.5128
20:27:44.113 [OCR2] 00008ADA
20:27:45.089 [OCR3] 00008ADB
20:27:45.461 [APLA] $PASHR,202745.455,167.75,T,-2.16,5.42,0.01,0.024,0.024,0.020,2,1*3B
20:27:45.467 [APLA] $GPGGA,202745.455,4947.00647,N,06420.38572,W,2,32,0.8,0.34,M,,,7,0131*16
20:27:45.474 [APLA] $GPVTG,174.4,T,,M,3.3,N,6.1,K,D*09
20:27:45.490 [CTD ]  12.1781,  3.45325,    0.230, 2.9158, 2.5130
20:27:45.525 [ECO ] 99/99/99	99:99:99	700	50	595	50	680	48	548
20:27:45.339 [OCR3] 00008ADC
20:27:45.740 [CTD ]  12.1829,  3.45303,    0.226, 2.9159, 2.5127
20:27:45.590 [OCR3] 00008ADD
20:27:46.005 [DBG ] $STAT,RECORDING
20:27:46.003 [APLA] $UTC,20220706,202746.0033
20:27:45.946 [OWL ] SEAOWLA2K-0144	3919	71	265	265	1312	188	1399	1399	2619	2619	117	704	704
20:27:46.006 [APLA] $GPZDA,202746.0033,06,07,2022,,*60
20:27:45.990 [CTD ]  12.1871,  3.45285,    0.228, 2.9165, 2.5127
20:27:45.850 [OCR3] 00008ADE
20:27:46.238 [CTD ]  12.1897,  3.45250,    0.229, 2.9176, 2.5123
20:27:44.968 [OCR1] 00008ADF
20:27:46.461 [APLA] $PASHR,202746.455,166.96,T,-2.17,5.03,0.01,0.024,0.024,0.020,2,1*30
20:27:46.467 [APLA] $GPGGA,202746.455,4947.00558,N,06420.38558,W,2,32,0.8,0.34,M,,,7,0131*10
20:27:46.473 [APLA] $GPVTG,172.8,T,,M,3.2,N,6.0,K,D*03
20:27:46.488 [CTD ]  12.1895,  3.45190,    0.229, 2.9174, 2.5128
20:27:46.200 [OCR3] 00008AE0
20:27:45.330 [OCR2] 00008AE1
20:27:46.649 [ECO ] 99/99/99	99:99:99	700	50	595	50	680	47	548
20:27:46.738 [CTD ]  12.1856,  3.45177,    0.230, 2.9168, 2.5128
20:27:46.562 [OCR3] 00008AE2
20:27:46.758 [OWL ] SEAOWLA2K-0144	3923	71	262	262	1311	188	1401	1401	2617	2617	117	708	708
20:27:47.005 [DBG ] $STAT,RECORDING
20:27:47.003 [APLA] $UTC,20220706,202747.0033
20:27:47.006 [APLA] $GPZDA,202747.0033,06,07,2022,,*61
20:27:46.988 [CTD ]  12.1823,  3.45210,    0.228, 2.9181, 2.5126
20:27:46.812 [OCR3] 00008AE3
20:27:47.248 [CTD ]  12.1835,  3.45240,    0.231, 2.9164, 2.5125
20:27:47.061 [OCR3] 00008AE4
20:27:47.461 [APLA] $PASHR,202747.455,166.55,T,-2.22,5.59,0.01,0.024,0.024,0.020,2,1*37
20:27:47.467 [APLA] $GPGGA,202747.455,4947.00469,N,06420.38540,W,2,32,0.8,0.35,M,,,7,0131*1A
20:27:47.473 [APLA] $GPVTG,171.8,T,,M,3.2,N,5.9,K,D*0A
20:27:47.498 [CTD ]  12.1869,  3.45232,    0.232, 2.9175, 2.5128
20:27:47.323 [OCR3] 00008AE5
20:27:46.287 [OCR1] 00008AE6
20:27:47.570 [OWL ] SEAOWLA2K-0144	3919	71	264	264	1312	189	1405	1405	2618	2618	117	705	705
20:27:47.748 [CTD ]  12.1885,  3.45210,    0.230, 2.9171, 2.5130
20:27:47.773 [ECO ] 99/99/99	99:99:99	700	50	595	50	680	46	548
20:27:47.573 [OCR3] 00008AE7
20:27:46.647 [OCR2] 00008AE8
20:27:48.005 [DBG ] $STAT,RECORDING
20:27:48.003 [APLA] $UTC,20220706,202748.0033
20:27:48.006 [APLA] $GPZDA,202748.0033,06,07,2022,,*6E
20:27:47.998 [CTD ]  12.1870,  3.45147,    0.229, 2.9168, 2.5128
20:27:47.922 [OCR3] 00008AE9
20:27:48.248 [CTD ]  12.1809,  3.45119,    0.226, 2.9171, 2.5130
20:27:48.383 [OWL ] SEAOWLA2K-0144	3923	71	260	260	1311	185	1365	1365	2618	2618	118	712	712
20:27:48.461 [APLA] $PASHR,202748.455,166.30,T,-1.95,5.11,0.02,0.024,0.024,0.020,2,1*3B
20:27:48.467 [APLA] $GPGGA,202748.455,4947.00381,N,06420.38520,W,2,32,0.8,0.36,M,,,4,0131*12
20:27:48.474 [APLA] $GPVTG,171.9,T,,M,3.2,N,5.9,K,D*0B
20:27:48.283 [OCR3] 00008AEA
20:27:48.496 [CTD ]  12.1749,  3.45092,    0.223, 2.9180, 2.5130
20:27:48.535 [OCR3] 00008AEB
20:27:48.746 [CTD ]  12.1693,  3.45074,    0.227, 2.9165, 2.5138
20:27:47.603 [OCR1] 00008AEC
20:27:48.896 [ECO ] 99/99/99	99:99:99	700	50	595	50	680	48	548
20:27:49.005 [DBG ] $STAT,RECORDING
20:27:49.003 [APLA] $UTC,20220706,202749.0033
20:27:49.006 [APLA] $GPZDA,202749.0033,06,07,2022,,*6F
20:27:48.996 [CTD ]  12.1646,  3.45039,    0.226, 2.9165, 2.5127
20:27:48.784 [OCR3] 00008AED
20:27:47.964 [OCR2] 00008AEE
20:27:49.195 [OWL ] SEAOWLA2K-0144	3919	71	266	266	1312	183	1351	1351	2619	2619	116	697	697
20:27:49.246 [CTD ]  12.1610,  3.45029,    0.226, 2.9159, 2.5124
20:27:49.045 [OCR3] 00008AEF
20:27:49.461 [APLA] $PASHR,202749.455,166.31,T,-2.05,4.96,-0.03,0.024,0.024,0.020,2,1*13
20:27:49.467 [APLA] $GPGGA,202749.455,4947.00291,N,06420.38501,W,2,32,0.8,0.30,M,,,5,0131*17
20:27:49.474 [APLA] $GPVTG,171.3,T,,M,3.3,N,6.1,K,D*0B
20:27:49.496 [CTD ]  12.1594,  3.45107,    0.228, 2.9146, 2.5130
20:27:49.296 [OCR3] 00008AF0
20:27:49.746 [CTD ]  12.1651,  3.45202,    0.227, 2.9152, 2.5134
20:27:50.005 [DBG ] $STAT,RECORDING
20:27:50.003 [APLA] $UTC,20220706,202750.33
20:27:50.006 [APLA] $GPZDA,202750.0033,06,07,2022,,*67
20:27:49.656 [OCR3] 00008AF1
20:27:48.820 [OCR1] 00008AF2
20:27:49.994 [CTD ]  12.1757,  3.45222,    0.226, 2.9147, 2.5134
20:27:50.020 [ECO ] 99/99/99	99:99:99	700	50	595	50	680	45	548
20:27:50.007 [OWL ] SEAOWLA2K-0144	3923	71	268	268	1312	178	1302	1302	2618	2618	116	695	695
20:27:50.017 [OCR3] 00008AF3
20:27:50.244 [CTD ]  12.1832,  3.45167,    0.223, 2.9144, 2.5127
20:27:49.182 [OCR2] 00008AF4
20:27:50.461 [APLA] $PASHR,202750.455,169.12,T,-1.77,5.59,0.01,0.024,0.024,0.020,2,1*3E
20:27:50.467 [APLA] $GPGGA,202750.455,4947.00200,N,06420.38478,W,2,32,0.8,0.33,M,,,0131*18
20:27:50.474 [APLA] $GPVTG,170.7,T,,M,3.2,N,6.0,K,D*0E
20:27:50.257 [OCR3] 00008AF5
20:27:50.494 [CTD ]  12.1843,  3.45140,    0.222, 2.9140, 2.5131
20:27:50.517 [OCR3] 00008AF6
20:27:50.744 [CTD ]  12.1836,  3.45210,    0.221, 2.9132, 2.5131
20:27:50.819 [OWL ] SEAOWLA2K-0144	3920	71	261	261	1312	178	1301	1301	2619	2619	116	696	696
20:27:51.005 [DBG ] $STAT,RECORDING
20:27:51.003 [APLA] $UTC,20220706,202751.0033
20:27:51.006 [APLA] $GPZDA,202751.0033,06,07,2022,,*66
20:27:50.766 [OCR3] 00008AF7
20:27:51.004 [CTD ]  12.1864,  3.45180,    0.223, 2.9145, 2.5129
20:27:51.144 [ECO ] 99/99/99	99:99:99	700	50	595	50	680	47	548
20:27:50.038 [OCR1] 00008AF8
20:27:51.255 [CTD ]  12.1868,  3.45079,    0.230, 2.9122, 2.5120
20:27:51.017 [OCR3] 00008AF9
20:27:51.461 [APLA] $PASHR,202751.455,173.24,T,-3.20,4.80,0.02,0.024,0.024,0.020,2,1*37
20:27:51.467 [APLA] $GPGGA,202751.455,4947.00112,N,06420.38461,W,2,32,0.8,0.35,M,,,7,0131*16
20:27:51.474 [APLA] $GPVTG,176.3,T,,M,3.2,N,5.8,K,D*07
20:27:51.505 [CTD ]  12.1808,  3.44997,    0.236, 2.9122, 2.5128
20:27:50.399 [OCR2] 00008AFA
20:27:51.632 [OWL ] SEAOWLA2K-0144	3923	71	262	262	1312	185	1369	1369	2618	2618	116	693	693
20:27:51.379 [OCR3] 00008AFB
20:27:51.758 [CTD ]  12.1710,  3.44936,    0.244, 2.9113, 2.5129
20:27:51.728 [OCR3] 00008AFC
20:27:52.005 [DBG ] $STAT,RECORDING
20:27:52.003 [APLA] $UTC,20220706,2752.0034
20:27:52.006 [APLA] $GPZDA,202752.0034,06,07,2022,,*62
20:27:52.003 [CTD ]  12.1602,  3.44901,    0.245, 2.9108, 2.5133
20:27:51.977 [OCR3] 00008AFD
20:27:52.268 [ECO ] 99/99/99	99:99:99	700	50	595	50	680	46	548
20:27:52.253 [CTD ]  12.1517,  3.44941,    0.246, 2.9103, 2.5134
20:27:52.461 [APLA] $PASHR,202752.455,173.57,T,-2.92,4.68,-0.04,0.024,0.024,0.020,2,1*15
20:27:52.467 [APLA] $GPGGA,202752.455,4947.00023,N,06420.38458,W,2,32,0.8,0.29,M,,0131*11
20:27:52.474 [APLA] $GPVTG,179.2,T,,M,3.2,N,6.0,K,D*02
20:27:51.254 [OCR1] 00008AFE
20:27:52.240 [OCR3] 00008AFF
20:27:52.444 [OWL ] SEAOWLA2K-0144	3920	71	267	267	1312	189	1404	1404	2618	2618	117	699	699
20:27:52.503 [CTD ]  12.1510,  3.44971,    0.245, 2.9088, 2.5131
20:27:52.507 [OCR3] 00008B00
20:27:52.753 [CTD ]  12.1556,  3.44944,    0.242, 2.9101, 2.5131
20:27:51.616 [OCR2] 00008B01
20:27:53.005 [DBG ] $STAT,RECORDING
20:27:53.003 [APLA] $UTC,20220706,202753.0034
20:27:53.006 [APLA] $GPZDA,202753.0034,06,07,2022,,*63
20:27:53.003 [CTD ]  12.1583,  3.44896,    0.237, 2.9092, 2.5120
20:27:52.738 [OCR3] 00008B02
20:27:53.252 [CTD ]  12.1576,  3.44851,    0.229, 2.9074, 2.5135
20:27:53.255 [OWL ] SEAOWLA2K-0144	3924	71	263	263	1312	186	1380	1380	2619	2619	116	698	698
20:27:53.391 [ECO ] 99/99/99	99:99:99	700	50	595	50	680	44	548
