####################
# TYPE: TEXT
# DATE: 2022/07/05
# TIME: 10:57:32
####################
#
11:50:27.004 [APLA] $utc,20220705,115027.0043
11:50:27.010 [DBG ] $STAT,RECORDING
11:50:27.006 [APLA] $GPZDA,115027.0043,05,07,2022,,*61
11:50:27.266 [APLA] $PASHR,115027.261,312.14,T,2.90,2.50,0.01,0.021,0.021,0.022,2,1*1E
11:50:27.272 [APLA] $GPGGA,115027.261,4945.86460,N,06421.41089,W,4,09,1.1,1.94,M,,,1,0004*18
11:50:27.279 [APLA] $GPVTG,6.9,T,,M,0.8,N,1.5,K,D*0B
11:50:27.249 [CTD ]  12.3970,  3.46765,    0.139, 2.7467, 2.5225
11:50:27.411 [OWL ] SEAOWLA2K-0144	3941	70	248	248	1316	138	910	910	2627	2627	109	623	623
11:50:27.120 [OCR3] 0000591D
11:50:27.472 [ECO ] 99/99/99	99:99:99	700	50	595	50	680	49	548
11:50:27.495 [CTD ]  12.3984,  3.46344,    0.181, 2.7468, 2.5227
11:50:27.475 [OCR3] 0000591F
11:50:27.745 [CTD ]  12.4000,  3.46788,    0.244, 2.7470, 2.5217
11:50:27.739 [OCR3] 00005920
11:50:28.004 [APLA] $utc,20220705,115028.0043
11:50:28.011 [DBG ] $STAT,RECORDING
11:50:28.006 [APLA] $ZDA,115028.0043,05,07,2022,,*6E
11:50:28.005 [CTD ]  12.4012,  3.46785,    0.240, 2.7481, 2.5219
11:50:27.993 [OCR3] 00005921
11:50:28.267 [APLA] $PASHR,115028.261,329.49,T,-2.90,3.28,0.04,0.021,0.021,0.022,2,1*37
11:50:28.273 [APLA] $GPGGA,115028.261945.86494,N,01.41071,W,4,09,1.1,1.98,M,,,1,0004*17
11:50:28.221 [OWL ] SEAOWLA2K-0144	3943	68	236	236	1316	137	910	910	2627	2627	110	637	637
11:50:28.279 [APLA] $GPVTG,17.7,T,,M,1.8,N,3.4,K,D*37
11:50:27.073 [OCR2] 00005922
11:50:28.255 [CTD ]  12.4020,  3.46783,    0.184, 2.7480, 2.5210
11:50:28.247 [OCR3] 00005923
11:50:28.503 [CTD ]  12.4018,  3.46760,    0.192, 2.7460, 2.5209
11:50:28.596 [ECO ] 99/99/99	99:99:99	700	50	595	50	680	46	548
11:50:28.753 [CTD ]  12.4000,  3.46715,    0.277, 2.7468, 2.5216
11:50:28.512 [OCR3] 00005924
11:50:27.574 [OCR1] 00005925
11:50:29.004 [APLA] $utc,20220705,115029.0043
11:50:29.010 [DBG ] $STAT,RECORDING
11:50:29.006 [APLA] $GPZDA,115029.0043,05,07,2022,,*6F
11:50:29.001 [CTD ]  12.3958,  3.46637,    0.313, 2.7461, 2.5221
11:50:29.031 [OWL ] SEAOWLA2K-0144	3941	70	249	249	1316	142	947	947	2626	2626	109	628	628
11:50:28.866 [OCR3] 00005926
11:50:29.267 [APLA] $PASHR,115029.261,338.09,T,0.35,7.51,0.04,0.021,0.021,0.022,2,1*18
11:50:29.272 [APLA] $GPGGA,115029.261,4945.86551,N,06421.41041,W,4,09,1.1,1.97,M,,,1,0004*12
11:50:29.279 [APLA] $GPVTG,25.3,T,,M,2.5,N,4.7,K,D*38
11:50:29.251 [CTD ]  12.3893,  3.46632,    0.283, 2.7456, 2.5221
11:50:29.233 [OCR3] 00005927
11:50:28.297 [OCR2] 00005928
11:50:29.501 [CTD ]  12.3842,  3.46627,    0.229, 2.7455, 2.5209
11:50:29.488 [OCR3] 00005929
11:50:29.720 [ECO ] 99/99/99	99:99:99	700	50	595	50	680	46	548
11:50:29.761 [CTD ]  12.3811,  3.46604,    0.200, 2.7456, 2.5215
11:50:29.842 [OWL ] SEAOWLA2K-0144	3943	70	251	251	1316	140	932	932	2624	2624	111	643	643
11:50:30.004 [APLA] $utc,20220705,115030.0043
11:50:30.019 [DBG ] $STAT,RECORDING
11:50:30.006 [APLA] $GPZDA,115030.0043,05,07,2,,*67
11:50:29.743 [OCR3] 0000592A
11:50:30.011 [CTD ]  12.3788,  3.46594,    0.192, 2.7466, 2.5219
11:50:28.891 [OCR1] 0000592B
11:50:30.031 [OCR3] 0000592C
11:50:30.266 [APLA] $PASHR,115030.261,331.88,T,-3.14,6.76,-0.04,0.021,0.021,0.022,2,1*14GPGGA,115030.261,4945.86629,N,06421.40987,W,4,09,1.1.89,M,,,0,0004*1A
11:50:30.279 [APLA] $GPVTG,20.0,T,,M,3.1,N,5.7,K,D*3A
11:50:30.259 [CTD ]  12.3764,  3.46573,    0.194, 2.7455, 2.5219
11:50:30.509 [CTD ]  12.3736,  3.46558,    0.214, 2.7455, 2.5217
11:50:30.264 [OCR3] 0000592D
11:50:30.652 [OWL ] SEAOWLA2K-0144	3941	70	249	249	1316	142	958	958	2630	2630	110	638	638
11:50:29.507 [OCR2] 0000592E
11:50:30.759 [CTD ]  12.3711,  3.46536,    0.227, 2.7453, 2.5220
11:50:30.844 [ECO ] 99/99/99	99:99:99	700	50	595	50	680	41	548
11:50:30.629 [OCR3] 0000592F
11:50:31.004 [APLA] $utc,20220705,115031.0043
11:50:31.010 [DBG ] $STAT,RECORDING
11:50:31.006 [APLA] $GPZDA,115031.0043,05,07,2022,,*66
11:50:31.007 [CTD ]  12.3687,  3.46516,    0.227, 2.7457, 2.5227
11:50:30.983 [OCR3] 00005930
11:50:31.266 [APLA] $PASHR,115031.261,328.53,T,0.21,7.45,-0.07,0.021,0.021,0.022,2,1*31
11:50:31.272 [APLA] $GPGGA,115031.261,4945.86710,N,061.40963,W,4,09,1.1,1.85,M,,,1,0004*17
11:50:31.279 [APLA] $GPVTG,6.7,T,,M,2.9,N,5.4,K,D*03
11:50:31.257 [CTD ]  12.3658,  3.46488,    0.253, 2.7454, 2.5223
11:50:30.210 [OCR1] 00005931
11:50:31.248 [OCR3] 00005932
11:50:31.462 [OWL ] SEAOWLA2K-0144	3943	69	244	244	1316	141	939	939	2629	2629	109	624	624
11:50:31.517 [CTD ]  12.3632,  3.46470,    0.236, 2.7455, 2.5223
11:50:31.502 [OCR3] 00005933
11:50:31.767 [CTD ]  12.3604,  3.46452,    0.135, 2.7463, 2.5226
11:50:31.967 [ECO ] 99/99/99	99:99:99	700	50	595	50	680	48	548
11:50:32.004 [APLA] $utc,20220705,115032.0043
11:50:32.010 [DBG ] $STAT,RECORDING
11:50:32.006 [APLA] $GPZDA,115032.0043,05,07,2022,,*65
11:50:31.757 [OCR3] 00005934
11:50:30.724 [OCR2] 00005935
11:50:32.015 [CTD ]  12.3577,  3.46450,    0.098, 2.7467, 2.5216
11:50:32.266 [APLA] $PASHR,115032.261,331.15,T,0.02,5.77,0.04,0.021,0.021,0.022,2,1*14
11:50:32.272 [APLA] $GPGGA,115032.261,4945.86792,N,06421.40951,W,4,09,1.1,1.95,M,,,1,0004*1E
11:50:32.279 [APLA] $GPVTG,5.5,T,,M,3.1,N,5.7,K,D*08
11:50:32.265 [CTD ]  12.3564,  3.46453,    0.112, 2.7455, 2.5216
11:50:32.272 [OWL ] SEAOWLA2K-0144	3941	69	246	246	1316	139	923	923	2628	2628	110	637	637
11:50:32.022 [OCR3] 00005936
11:50:32.515 [CTD ]  12.3555,  3.46425,    0.207, 2.7457, 2.5225
11:50:31.426 [OCR1] 00005937
11:50:32.376 [OCR3] 00005938
11:50:32.765 [CTD ]  12.3546,  3.45325,    0.232, 2.7464, 2.5226
11:50:32.741 [OCR3] 00005939
11:50:33.004 [APLA] $utc,20220705,115033.0043
11:50:33.010 [DBG ] $STAT,RECORDING
11:50:33.006 [APLA] $GPZDA,115033.0043,07,2022,,*64
11:50:33.015 [CTD ]  12.3534,  3.43555,    0.231, 2.7453, 2.5219
11:50:33.091 [ECO ] 99/99/99	99:99:99	700	50	595	50	680	46	548
11:50:33.083 [OWL ] SEAOWLA2K-0144	3944	69	248	248	1316	140	930	930	2630	2630	110	638	638
11:50:32.994 [OCR3] 0000593A
11:50:33.267 [APLA] $PASHR,115033.261,330.90,T,-0.54,7.32,-0.04,0.021,0.021,0.022,2,1*19
11:50:33.273 [APLA] $GPGGA,115033.261,4945.86880,N,06421933,W,4,09,1.1,1.87,M,,,0,0004*15
11:50:33.279 [APLA] $GPVTG,11.1,T,,M,3.2,N,5.9,K,D*34
11:50:33.263 [CTD ]  12.3523,  3.45584,    0.239, 2.7452, 2.5221
11:50:32.041 [OCR2] 0000593B
11:50:33.248 [OCR3] 0000593C
11:50:33.513 [CTD ]  12.3516,  3.46145,    0.226, 2.7449, 2.5217
11:50:33.513 [OCR3] 0000593D
11:50:33.773 [CTD ]  12.3517,  3.46441,    0.148, 2.7459, 2.5201
11:50:32.643 [OCR1] 0000593E
11:50:33.893 [OWL ] SEAOWLA2K-0144	3941	69	240	240	1316	138	916	916	2628	2628	108	621	621
11:50:34.004 [APLA] $utc,20220705,115034.0044
11:50:34.010 [DBG ] $STAT,RECORDING
11:50:34.006 [APLA] $GPZDA,115034.0044,05,07,2022,,*64
11:50:34.024 [CTD ]  12.3527,  3.46339,    0.057, 2.7448, 2.5209
11:50:33.768 [OCR3] 0000593F
11:50:34.215 [ECO ] 99/99/99	99:99:99	700	50	595	50	680	50	548
11:50:34.266 [APLA] $PASHR,115034.261,329.58,T,-3.00,3.53,-0.17,0.021,0.021,0.022,2,1*11
11:50:34.273 [APLA] $GPGGA,115034.261,4945.86972,N,06421.40911,W,4,09,1.1,1.74,M,,,1,0004*13
11:50:34.279 [APLA] $GPVTG,1.5,T,,M,3.3,N,6.1,K,D*0B
11:50:34.272 [CTD ]  12.3550,  3.46483,    0.044, 2.7457, 2.5217
11:50:34.132 [OCR3] 00005940
11:50:34.522 [CTD ]  12.3589,  3.46400,    0.198, 2.7460, 2.5237
11:50:33.358 [OCR2] 00005941
11:50:34.487 [OCR3] 00005942
11:50:34.703 [OWL ] SEAOWLA2K-0144	3943	68	238	238	1315	137	904	904	2628	2628	109	628	628
11:50:34.772 [CTD ]  12.3640,  3.39919,    0.326, 2.7449, 2.5227
11:50:35.004 [APLA] $utc,20220705,115035.0044
11:50:35.010 [DBG ] $STAT,RECORDING
11:50:35.006 [APLA] $GPZDA,11500044,05,07,2022,,*65
11:50:34.753 [OCR3] 00005943
11:50:35.025 [CTD ]  12.3708,  3.29014,    0.264, 2.7442, 2.5225
11:50:33.861 [OCR1] 00005944
11:50:35.018 [OCR3] 00005945
11:50:35.267 [APLA] $PASHR,115035.261,328.80,T,3.45,4.81,0.02,0.021,0.021,0.022,2,1*19
11:50:35.273 [APLA] $GPGGA,115035.261,4945.87060,N421.40903,W,4,09,1.1,1.89,M,,,1,0004*18
11:50:35.279 [APLA] $GPVTG,3.5,T,,M,3.3,N,6.2,K,D*0A
11:50:35.278 [CTD ]  12.3760,  3.41398,    0.140, 2.7449, 2.5217
11:50:35.339 [ECO ] 99/99/99	99:99:99	700	50	595	50	680	41	548
11:50:35.262 [OCR3] 00005946
11:50:35.513 [OWL ] SEAOWLA2K-0144	3941	69	246	246	1316	138	915	915	2626	2626	109	628	628
11:50:35.530 [CTD ]  12.3778,  3.37080,    0.132, 2.7447, 2.5215
11:50:34.575 [OCR2] 00005947
11:50:35.783 [CTD ]  12.3770,  3.43562,    0.193, 2.7455, 2.5217
11:50:35.527 [OCR3] 00005948
11:50:36.004 [APLA] $utc,20220705,115036.0044
11:50:36.011 [DBG ] $STAT,RECORDING
11:50:36.006 [APLA] $GPZDA,115036.0044,05,07,2022,,*66
11:50:36.031 [CTD ]  12.3758,  3.38996,    0.246, 2.7445, 2.5230
11:50:35.883 [OCR3] 00005949
11:50:36.267 [APLA] $PASHR,115036.261,328.92,T,5.34,10.26,0.22,0.021,0.021,0.022,2,1*23
11:50:36.273 [APLA] $GPGGA,115036.261,4945.87154,N,021.40882,W,4,09,1.1,2.10,M,,,0,0004*17
11:50:36.279 [APLA] $GPVTG,13.4,T,,M,3.5,N,6.6,K,D*38
11:50:36.291 [CTD ]  12.3740,  3.45494,    0.106, 2.7456, 2.5217
11:50:36.324 [OWL ] SEAOWLA2K-0144	3943	69	249	249	1316	137	901	901	2627	2627	111	646	646
11:50:35.077 [OCR1] 0000594A
11:50:36.462 [ECO ] 99/99/99	99:99:99	700	50	595	50	680	49	548
11:50:36.248 [OCR3] 0000594B
11:50:36.540 [CTD ]  12.3720,  3.46135,    0.035, 2.7458, 2.5208
11:50:36.503 [OCR3] 0000594C
11:50:36.791 [CTD ]  12.3695,  3.45747,    0.033, 2.7449, 2.5207
11:50:37.004 [APLA] $utc,20220705,115037.0044
11:50:37.011 [DBG ] $STAT,RECORDING
11:50:37.006 [APLA] $GPZDA,115037.0044,057,2022,,*67
11:50:35.792 [OCR2] 0000594D
11:50:36.758 [OCR3] 0000594E
11:50:37.041 [CTD ]  12.3677,  3.46367,    0.093, 2.7459, 2.5220
11:50:37.134 [OWL ] SEAOWLA2K-0144	3941	69	244	244	1317	139	917	917	2628	2628	110	633	633
11:50:37.267 [APLA] $PASHR,115037.261,333.26,T,-6.55,8.13,-0.06,0.021,0.021,0.022,2,1*1A
11:50:37.273 [APLA] $GPGGA,115037.261,4945.87248,N,06421.40856,W,4,09,1.1,1.87,M,,,1,4*1D
11:50:37.279 [APLA] $GPVTG,4.7,T,,M,3.1,N,5.7,K,D*0B
11:50:37.024 [OCR3] 0000594F
11:50:37.291 [CTD ]  12.3675,  3.46291,    0.291, 2.7450, 2.5226
11:50:37.538 [CTD ]  12.3690,  3.45539,    0.329, 2.7457, 2.5226
11:50:37.586 [ECO ] 99/99/99	99:99:99	700	50	595	50	680	41	548
11:50:37.294 [OCR3] 00005950
11:50:36.395 [OCR1] 00005951
11:50:37.788 [CTD ]  12.3708,  3.45438,    0.220, 2.7456, 2.5225
11:50:37.643 [OCR3] 00005952
11:50:38.004 [APLA] $utc,20220705,115038.0044
11:50:37.944 [OWL ] SEAOWLA2K-0144	3943	69	246	246	1316	138	913	913	2629	2629	110	631	631
11:50:38.013 [DBG ] $STAT,RECORDING
11:50:38.006 [APLA] $GPZDA,115038.0044,05,07,2022,,*68
11:50:38.038 [CTD ]  12.3719,  3.46080,    0.146, 2.7462, 2.5220
11:50:37.019 [OCR2] 00005953
11:50:37.997 [OCR3] 00005954
11:50:38.267 [APLA] $PASHR,115038.261,337.81,T,4.08,7.09,0.01,0.021,0.021,0.022,2,1*15
11:50:38.273 [APLA] $GPGG115038.261,4945.87336,6421.40837,W,4,09,1.1,1.92,M,,,0,0004*18
11:50:38.279 [APLA] $GPVTG,13.6,T,,M,3.5,N,6.4,K,D*38
11:50:38.298 [CTD ]  12.3726,  3.46407,    0.158, 2.7461, 2.5218
11:50:38.262 [OCR3] 00005955
11:50:38.549 [CTD ]  12.3727,  3.46531,    0.166, 2.7458, 2.5221
11:50:38.710 [ECO ] 99/99/99	99:99:99	700	50	595	50	680	41	548
11:50:38.516 [OCR3] 00005956
11:50:38.755 [OWL ] SEAOWLA2K-0144	3941	69	241	241	1316	136	897	897	2629	2629	108	619	619
11:50:38.796 [CTD ]  12.3723,  3.46569,    0.062, 2.7465, 2.5223
11:50:37.711 [OCR1] 00005957
11:50:39.004 [APLA] $U,20220705,115039.0044
11:50:39.010 [DBG ] $STAT,RECORDING
11:50:39.006 [APLA] $GPZDA,115039.0044,05,07,2022,,*69
11:50:38.771 [OCR3] 00005958
11:50:39.046 [CTD ]  12.3715,  3.46523,    0.092, 2.7444, 2.5217
11:50:39.267 [APLA] $PASHR,115039.261,337.51,T,-5.71,4.54,-0.07,0.021,0.021,0.022,2,1*1B
11:50:39.273 [APLA] $GPGGA,115039.261,4945.87435,N,06421.40790,W,4,09,1.1,1.86,M,,,1,0004*1B
11:50:39.279 [APLA] $GPVTG,17.0,T,,M,3.7,N,6.9,K,D*35
11:50:39.296 [CTD ]  12.3707,  3.45531,    0.195, 2.7455, 2.5208
11:50:39.036 [OCR3] 00005959
11:50:38.226 [OCR2] 0000595A
11:50:39.546 [CTD ]  12.3694,  3.46092,    0.304, 2.7464, 2.5222
11:50:39.565 [OWL ] SEAOWLA2K-0144	3943	69	243	243	1316	137	905	905	2627	2627	109	624	624
11:50:39.390 [OCR3] 0000595B
11:50:39.794 [CTD ]  12.3687,  3.46271,    0.317, 2.7459, 2.5224
11:50:39.834 [ECO ] 99/99/99	99:99:99	700	50	595	50	680	49	548
11:50:40.004 [APLA] $utc,20220705,115040.0044
11:50:40.011 [DBG ] $STAT,RECORDING
11:50:40.006 [APLA] $GPZDA,115040.0044,05,0722,,*67
11:50:39.755 [OCR3] 0000595C
11:50:40.044 [CTD ]  12.3686,  3.45858,    0.247, 2.7457, 2.5222
11:50:38.929 [OCR1] 0000595D
11:50:40.018 [OCR3] 0000595E
11:50:40.267 [APLA] $PASHR,115040.261,332.03,T,2.03,7.25,-0.10,0.021,0.021,0.022,2,1*3B
11:50:40.273 [APLA] $GPGGA,115040.261,4945.87532,N,06421.407504,09,1.1,1.80,M,,,0,0004*18
11:50:40.279 [APLA] $GPVTG,12.9,T,,M,3.5,N,6.4,K,D*36
11:50:40.304 [CTD ]  12.3686,  3.46530,    0.128, 2.7470, 2.5223
11:50:40.375 [OWL ] SEAOWLA2K-0144	3941	69	250	250	1316	138	912	912	2628	2628	110	637	637
11:50:40.263 [OCR3] 0000595F
11:50:40.554 [CTD ]  12.3682,  3.46516,    0.112, 2.7463, 2.5219
11:50:40.528 [OCR3] 00005960
11:50:40.802 [CTD ]  12.3672,  3.46513,    0.154, 2.7450, 2.5232
11:50:39.543 [OCR2] 00005961
11:50:40.958 [ECO ] 99/99/99	99:99:99	700	50	595	50	680	43	548
11:50:41.004 [APLA] $utc,20220705,115041.0044
11:50:41.010 [DBG ] $STAT,RECORDING
11:50:41.006 [APLA] $GPZDA,115041.0044,05,07,2022,,*66
11:50:41.052 [CTD ]  12.3654,  3.45617,    0.261, 2.7466, 2.5223
11:50:40.782 [OCR3] 00005962
11:50:41.185 [OWL ] SEAOWLA2K-0144	3943	69	245	245	1316	139	922	922	2630	2630	109	622	622
11:50:41.267 [APLA] $PASHR,115041.261,330.98,T,2.43,8.95,-0.02,0.021,0.021,0.022,2,1*39
11:50:41.273 [APLA] $GPGGA,115041.261,4945.87619,N,06421.40729,W,4,09,1.1,1.83,M,,,1,0004*1F
11:50:41.279 [APLA] $GPVTG,12.5,T,,M,3.0,N,5.6,K,D*3E
11:50:41.302 [CTD ]  12.3642,  3.45031,    0.283, 2.7466, 2.5222
11:50:40.146 [OCR1] 00005963
11:50:41.147 [OCR3] 00005964
11:50:41.552 [CTD ]  12.3620,  3.45566,    0.151, 2.7468, 2.5222
11:50:41.503 [OCR3] 00005965
11:50:41.802 [CTD ]  12.3597,  3.46304,    0.088, 2.7468, 2.5210
11:50:42.004 [APLA] $utc,20220705,115042.0044
11:50:42.010 [DBG ] $STAT,RECORDING
11:50:42.006 [APLA] $GPZDA,115042.0044,05,07,2022,,*65
11:50:41.769 [OCR3] 00005966
11:50:41.996 [OWL ] SEAOWLA2K-0144	3942	69	246	246	1317	141	949	949	2628	2628	109	628	628
11:50:40.860 [OCR2] 00005967
11:50:42.050 [CTD ]  12.3569,  3.46377,    0.159, 2.7473, 2.5218
11:50:42.081 [ECO ] 99/99/99	99:99:99	700	50	595	50	680	44	548
11:50:42.267 [APLA] $PASHR,115042.261,333.68,T,0.57,7.38,0.11,0.021,0.021,0.022,2,1*16
11:50:42.272 [APLA] $GPGGA,115042.261,4945.87708,N,06421.40705,W,4,09,1.1,1.98,M,,,0,0004*1
11:50:42.279 [APLA] $GPVTG,12.2,T,,M,3.4,N,6.3,K,D*3B
11:50:42.024 [OCR3] 00005968
11:50:42.300 [CTD ]  12.3530,  3.46052,    0.205, 2.7477, 2.5220
11:50:42.294 [OCR3] 00005969
11:50:41.362 [OCR1] 0000596A
11:50:42.560 [CTD ]  12.3485,  3.46280,    0.148, 2.7486, 2.5228
11:50:42.810 [CTD ]  12.3450,  3.46316,    0.153, 2.7470, 2.5220
11:50:42.806 [OWL ] SEAOWLA2K-0144	3944	69	245	245	1316	137	903	903	2628	2628	110	641	641
11:50:42.545 [OCR3] 0000596B
11:50:43.004 [APLA] $utc,20220705,115043.0044
11:50:43.010 [DBG ] $STAT,RECORDING
11:50:43.006 [APLA] $GPZDA,115043.0044,05,07,2022,,*64
11:50:43.060 [CTD ]  12.3426,  3.46344,    0.204, 2.7487, 2.5219
11:50:43.205 [ECO ] 99/99/99	99:99:99	700	50	595	50	680	47	548
11:50:42.900 [OCR3] 0000596C
11:50:43.267 [APLA] $PASHR,115043.261,335.78,T,-4.77,4.63,-0.02,0.021,0.021,0.022,2,1*19
11:50:43.273 [APLA] $GPGGA,115043.261,4945.87801,N,06421.40684,W,4,09,1.1,1.M,,,1,0004*17$GPVTG,5.5,T,,M,3.5,N,6.4,K,D*0C
11:50:42.077 [OCR2] 0000596D
11:50:43.308 [CTD ]  12.3408,  3.46309,    0.284, 2.7483, 2.5218
11:50:43.264 [OCR3] 0000596E
11:50:43.558 [CTD ]  12.3397,  3.44678,    0.307, 2.7499, 2.5220
11:50:43.616 [OWL ] SEAOWLA2K-0144	3942	70	250	250	1317	142	951	951	2627	2627	109	631	631
11:50:43.519 [OCR3] 0000596F
11:50:43.808 [CTD ]  12.3386,  3.44568,    0.247, 2.7493, 2.5216
11:50:42.579 [OCR1] 00005970
11:50:44.004 [APLA] $utc,20220705,115044.0044
11:50:44.010 [DBG ] $STAT,RECORDING
11:50:44.006 [APLA] $GPZDA,115044.0044,05,07,2022,,*63
11:50:43.774 [OCR3] 00005971
11:50:44.058 [CTD ]  12.3383,  3.46324,    0.166, 2.7492, 2.5217
11:50:44.267 [APLA] $PASHR,115044.261,335.90,T,4.34,7.40,0.14,0.021,0.021,0.022,2,1*1A
11:50:44.273 [APLA] $GPGGA,115044.261,4945.87897,N,06421.40658,W,4,09,1.1,2.06,M,,,1,0004*1B
11:50:44.279 [APLA] $GPVTG,14.9,T,,M,3.7,N,6.9,K,D*3F
11:50:44.038 [OCR3] 00005972
11:50:44.309 [CTD ]  12.3378,  3.46329,    0.120, 2.7502, 2.5216
11:50:44.329 [ECO ] 99/99/99	99:99:99	700	50	595	50	680	47	548
11:50:44.426 [OWL ] SEAOWLA2K-0144	3944	69	239	239	1316	138	916	916	2627	2627	110	633	633
11:50:43.294 [OCR2] 00005973
11:50:44.557 [CTD ]  12.3370,  3.46324,    0.068, 2.7500, 2.5214
11:50:44.294 [OCR3] 00005974
11:50:44.817 [CTD ]  12.3363,  3.46058,    0.090, 2.7501, 2.5223
11:50:45.004 [APLA] $utc,20220705,115045.0044
11:50:45.019 [DBG ] $STAT,RECORDING
11:50:45.006 [APLA] $GPZDA,115045.0044,05,07,2022,,*62
11:50:44.658 [OCR3] 00005975
11:50:45.067 [CTD ]  12.3350,  3.45690,    0.180, 2.7489, 2.5230
11:50:43.896 [OCR1] 00005976
11:50:45.267 [APLA] $PASHR,115045.261,331.44,T,-4.66,7.47,-0.12,0.021,0.021,0.022,2,1*10
11:50:45.273 [APLA] $GPGGA,115045.261,4945.87994,N,06421.40627,4,09,1.1,1.81,,,0,0004*1D
11:50:45.279 [APLA] $GPVTG,7.4,T,,M,3.3,N,6.2,K,D*0F
11:50:45.031 [OCR3] 00005977
11:50:45.237 [OWL ] SEAOWLA2K-0144	3942	69	245	245	1317	137	902	902	2628	2628	109	631	631
11:50:45.315 [CTD ]  12.3329,  3.45044,    0.281, 2.7501, 2.5229
11:50:45.453 [ECO ] 99/99/99	99:99:99	700	50	595	50	680	44	548
11:50:45.294 [OCR3] 00005978
11:50:45.565 [CTD ]  12.3303,  3.43805,    0.290, 2.7493, 2.5227
11:50:44.510 [OCR2] 00005979
11:50:45.531 [OCR3] 0000597A
11:50:45.815 [CTD ]  12.3283,  3.44853,    0.255, 2.7494, 2.5228
11:50:46.004 [APLA] $utc,20220705,115046.0044
11:50:46.010 [DBG ] $STAT,RECORDING
11:50:46.006 [APLA] $GPZDA,115046.0044,05,07,2022,,*61
11:50:45.785 [OCR3] 0000597B
11:50:46.047 [OWL ] SEAOWLA2K-0144	3944	69	247	247	1316	142	948	948	2627	2627	110	636	636
11:50:46.065 [CTD ]  12.3264,  3.45747,    0.176, 2.7511, 2.5202
11:50:46.267 [APLA] $PASHR,115046.261,330.84,T,6.08,10.92,0.04,0.021,0.021,0.022,2,1*2D
11:50:46.273 [APLA] $GPGGA,115046.261,4945.88086,N,06421.40599,W,4,09,1.1,1.94,M,,,1,0004*18
11:50:46.279 [APLA] $GPVTG,15.1,T,,M,3.5,N,6.6,K,D*3B
11:50:46.315 [CTD ]  12.3254,  3.46221,    0.024, 2.7496, 2.5220
11:50:46.049 [OCR3] 0000597C
11:50:45.215 [OCR1] 0000597D
11:50:46.576 [ECO ] 99/99/99	99:99:99	700	50	595	50	680	49	548
11:50:46.569 [CTD ]  12.3247,  2.11273,   -0.018, 2.7508, 2.5227
11:50:46.404 [OCR3] 0000597E
11:50:46.829 [CTD ]  12.3247,  0.88949,   -0.012, 2.7515, 2.5219
11:50:46.857 [OWL ] SEAOWLA2K-0144	3942	69	247	247	1317	136	892	892	2629	2629	109	624	624
11:50:47.004 [APLA] $utc,20220705,115047.0044
11:50:47.010 [DBG ] $STAT,RECORDING
11:50:47.006 [APLA] $GPZDA,115047.0044,05,07,2022,,*60
11:50:46.769 [OCR3] 0000597F
11:50:45.727 [OCR2] 00005980
11:50:47.077 [CTD ]  12.3251,  1.13706,    0.265, 2.7511, 2.5223
11:50:47.267 [APLA] $PASHR,115047.261,330.41,T,-4.65,8.29,-0.08,0.021,0.021,0.022,2,1*19
11:50:47.273 [APLA] $GPGGA,115047.261,4945.88178,N,06421.40582,W,09,1.1,1.81,M,,,1,0004*17
11:50:47.279 [APLA] $GPVTG,3.4,T,,M,3.2,N,5.9,K,D*02
11:50:47.023 [OCR3] 00005981
11:50:47.335 [CTD ]  12.3254,  1.48848,    0.379, 2.7510, 2.5231
11:50:47.294 [OCR3] 00005982
11:50:47.588 [CTD ]  12.3253,  2.53719,    0.267, 2.7519, 2.5220
11:50:46.431 [OCR1] 00005983
11:50:47.700 [ECO ] 99/99/99	99:99:99	700	50	595	50	680	44	548
11:50:47.667 [OWL ] SEAOWLA2K-0144	3944	69	248	248	1316	142	952	952	2630	2630	110	637	637
11:50:47.542 [OCR3] 00005984
11:50:47.838 [CTD ]  12.3255,  3.10084,    0.160, 2.7532, 2.5218
11:50:48.004 [APLA] $utc,20220705,115048.0044
11:50:48.010 [DBG ] $STAT,RECORDING
11:50:48.006 [APLA] $GPZDA,115048.0044,05,07,2022,,*6F
11:50:48.090 [CTD ]  12.3253,  3.35915,    0.131, 2.7519, 2.5222
11:50:47.796 [OCR3] 00005985
11:50:48.267 [APLA] $PASHR,115048.262,325.70,T,1.61,6.93,0.06,0.021,0.021,0.022,2,1*13
11:50:48.273 [APLA] $GPGGA,115048.262,4945.88276,N,06421.40577,W,4,09,1.1,1.95,M,,,1,0004*19
11:50:48.279 [APLA] $GPVTG,358.6,T,,M,3.7,N,6.8,K,D*0A
11:50:47.049 [OCR2] 00005986
11:50:48.340 [CTD ]  12.3248,  3.43285,    0.099, 2.7524, 2.5232
11:50:48.162 [OCR3] 00005987
11:50:48.478 [OWL ] SEAOWLA2K-0144	3942	68	231	231	1317	141	942	942	2630	2630	109	629	629
11:50:48.592 [CTD ]  12.3242,  3.38989,    0.112, 2.7512, 2.5233
11:50:48.518 [OCR3] 00005988
11:50:48.824 [ECO ] 99/99/99	99:99:99	700	50	595	50	680	47	548
11:50:47.648 [OCR1] 00005989
11:50:48.842 [CTD ]  12.3231,  3.42369,    0.110, 2.7522, 2.5233
11:50:49.004 [APLA] $utc,20220705,115049.0044
11:50:49.010 [DBG ] $STAT,RECORDING
11:50:49.006 [APLA] $GPZDA,115049.0044,05,07,2022,,*6E
11:50:48.784 [OCR3] 0000598A
11:50:49.092 [CTD ]  12.3216,  3.45067,    0.122, 2.7529, 2.5227
11:50:49.267 [APLA] $PASHR,115049.262,328.43,T,-4.18,9.13,-0.07,0.021,0.021,0.022,2,1*12
11:50:49.273 [APLA] $GPGGA,115049.262,4945.88376,N,06421.40590,W,4,09,1.1,1.82,M,,,0,0004*17
11:50:49.279 [APLA] $GPVTG,352.0,T,,M,3.4,N,6.3,K,D*0E
11:50:49.040 [OCR3] 0000598B
11:50:49.288 [OWL ] SEAOWLA2K-0144	3944	69	246	246	1316	140	928	928	2629	2629	109	629	629
11:50:49.342 [CTD ]  12.3206,  3.45918,    0.209, 2.7538, 2.5231
11:50:49.295 [OCR3] 0000598C
11:50:48.361 [OCR2] 0000598D
11:50:49.590 [CTD ]  12.3203,  3.45969,    0.321, 2.7533, 2.5226
11:50:49.840 [CTD ]  12.3205,  3.45315,    0.300, 2.7539, 2.5213
11:50:49.561 [OCR3] 0000598E
11:50:49.948 [ECO ] 99/99/99	99:99:99	700	50	595	50	680	49	548
11:50:50.004 [APLA] $utc,20220705,115050.0044
11:50:50.010 [DBG ] $STAT,RECORDING
11:50:50.006 [APLA] $GPZDA,115050.0044,05,07,2022,,*66
11:50:48.866 [OCR1] 0000598F
11:50:50.090 [CTD ]  12.3208,  3.45971,    0.174, 2.7536, 2.5218
11:50:50.098 [OWL ] SEAOWLA2K-0144	3942	69	246	246	1317	140	927	927	2627	2627	110	640	640
11:50:50.267 [APLA] $PASHR,115050.262,328.97,T,4.56,7.66,0.07,0.021,0.021,0.022,2,1*15
11:50:50.273 [APLA] $GPGGA,115050.262,4945.88471,N,06421.40594,W,4,09,1.1,1.96,M,,,0,0004*1E
11:50:50.279 [APLA] $GPVTG,3,T,,M,3.7,N,6.9,K,D*05
11:50:49.916 [OCR3] 00005990
11:50:50.338 [CTD ]  12.3210,  3.46007,    0.084, 2.7536, 2.5216
11:50:50.294 [OCR3] 00005991
11:50:50.588 [CTD ]  12.3214,  3.46009,    0.103, 2.7536, 2.5221
11:50:50.534 [OCR3] 00005992
11:50:49.578 [OCR2] 00005993
11:50:50.838 [CTD ]  12.3216,  3.46009,    0.054, 2.7529, 2.5230
11:50:50.908 [OWL ] SEAOWLA2K-0144	3944	69	249	249	1316	138	921	921	2627	2627	109	631	631
11:50:51.004 [APLA] $utc,20220705,115051.0044
11:50:51.010 [DBG ] $STAT,RECORDING
11:50:51.006 [APLA] $GPZDA,115051.0044,05,07,2022,,*67
11:50:50.789 [OCR3] 00005994
11:50:51.071 [ECO ] 99/99/99	99:99:99	700	50	595	50	680	47	548
11:50:51.098 [CTD ]  12.3214,  3.46006,    0.078, 2.7535, 2.5226
11:50:51.267 [APLA] $PASHR,115051.262,331.30,T,-4.25,12.38,0.03,0.021,0.021,0.022,2,1*03
11:50:51.273 [APLA] $GPGGA,115051.262,4945.88573,N,06421.40575,W,4,09,1.1,1.93,M,,,1,0004*17
11:50:51.279 [APLA] $GPVTG,10.4,T,,M,3.4,N,6.3,K,D*3F
11:50:51.054 [OCR3] 00005995
11:50:51.348 [CTD ]  12.3210,  3.45981,    0.149, 2.7524, 2.5222
11:50:50.083 [OCR1] 00005996
11:50:51.598 [CTD ]  12.3193,  3.45941,    0.139, 2.7524, 2.5209
11:50:51.308 [OCR3] 00005997
11:50:51.719 [OWL ] SEAOWLA2K-0144	3942	69	243	243	1317	139	926	926	2628	2628	110	637	637
11:50:51.846 [CTD ]  12.3171,  3.45946,    0.204, 2.7518, 2.5217
11:50:52.004 [APLA] $utc,20220705,115052.0044
11:50:52.010 [DBG ] $STAT,RECORDING
11:50:52.006 [APLA] $GPZDA,115052.0044,05,07,2022,,*64
11:50:50.795 [OCR2] 00005998
11:50:51.673 [OCR3] 00005999
11:50:52.096 [CTD ]  12.3162,  3.45954,    0.362, 2.7526, 2.5223
11:50:52.195 [ECO ] 99/99/99	99:99:99	700	50	595	50	680	47	548
11:50:52.267 [APLA] $PASHR,115052.262,330.45,T,-1.53,6.66,-0.11,0.021,0.021,0.022,2,1*17
11:50:52.273 [APLA] $GPGGA,115052.262,4945.88663,N,06421.40563,W,4,09,1.1,1.77,M,,,0,0004*1A
11:50:52.279 [APLA] $GPVTG,3.0,T,,M,3.5,N,6.4,K,D*0F
11:50:52.027 [OCR3] 0000599A
11:50:52.346 [CTD ]  12.3153,  3.45949,    0.331, 2.7508, 2.5226
11:50:52.294 [OCR3] 0000599B
11:50:52.529 [OWL ] SEAOWLA2K-0144	3944	69	244	244	1317	140	930	930	2628	2628	111	647	647
11:50:52.596 [CTD ]  12.3143,  3.45931,    0.163, 2.7496, 2.5221
11:50:51.400 [OCR1] 0000599C
11:50:52.546 [OCR3] 0000599D
11:50:52.847 [CTD ]  12.3135,  3.45929,    0.086, 2.7492, 2.5220
11:50:53.004 [APLA] $utc,20220705,115053.0044
11:50:53.010 [DBG ] $STAT,RECORDING
11:50:53.006 [APLA] $GPZDA,115053.0044,05,07,2022,,*65
11:50:52.800 [OCR3] 0000599E
11:50:53.094 [CTD ]  12.3128,  3.45924,    0.048, 2.7477, 2.5215
11:50:52.019 [OCR2] 0000599F
11:50:53.267 [APLA] $PASHR,115053.262,326.38,T,0.23,5.87,0.03,0.021,0.021,0.022,2,1*12
11:50:53.273 [APLA] $GPGGA,115053.262,4945.88769,N,06421.406,W,4,09,1.1,1.91,M,,,1,0004*1F
11:50:53.279 [APLA] $GPVTG,357.5,T,,M,3.9,N,7.3,K,D*02
11:50:53.319 [ECO ] 99/99/99	99:99:99	700	50	595	50	680	50	548
11:50:53.354 [CTD ]  12.3126,  3.45936,    0.070, 2.7468, 2.5220
11:50:53.339 [OWL ] SEAOWLA2K-0144	3942	69	247	247	1317	139	919	919	2627	2627	109	629	629
11:50:53.065 [OCR3] 000059A0
11:50:53.605 [CTD ]  12.3126,  3.45931,    0.198, 2.7454, 2.5227
11:50:53.419 [OCR3] 000059A1
11:50:53.865 [CTD ]  12.3125,  3.45912,    0.227, 2.7434, 2.5238
11:50:52.716 [OCR1] 000059A2
11:50:54.004 [APLA] $utc,20220705,115054.0044
11:50:54.011 [DBG ] $STAT,RECORDING
11:50:54.006 [APLA] $GPZDA,115054.0044,05,07,2022,,*62
11:50:53.784 [OCR3] 000059A3
11:50:54.115 [CTD ]  12.3123,  3.45544,    0.158, 2.7419, 2.5229
11:50:54.150 [OWL ] SEAOWLA2K-0144	3945	69	248	248	1317	139	920	920	2628	2628	109	629	629
11:50:54.267 [APLA] $PASHR,115054.262,324.85,T,1.30,9.00,0.05,0.021,0.021,0.022,2,1*17
11:50:54.273 [APLA] $GPGGA,115054.262,4945.88874,N,06421.40565,W,4,09,1.1,1.94,M,,,0,0004*1F
11:50:54.279 [APLA] $GPVTG,355.3,T,,M,3.6,N,6.7,K,D*0C
11:50:54.038 [OCR3] 000059A4
11:50:54.365 [CTD ]  12.3124,  3.45255,    0.096, 2.7391, 2.5217
11:50:54.443 [ECO ] 99/99/99	99:99:99	700	50	595	50	680	45	548
11:50:53.229 [OCR2] 000059A5
11:50:54.294 [OCR3] 000059A6
11:50:54.613 [CTD ]  12.3128,  3.45833,    0.098, 2.7379, 2.5210
11:50:54.557 [OCR3] 000059A7
11:50:54.863 [CTD ]  12.3131,  3.45911,    0.122, 2.7363, 2.5219
11:50:55.004 [APLA] $utc,20220705,115055.0044
11:50:55.010 [DBG ] $STAT,RECORDING
11:50:55.006 [APLA] $GPZDA,115055.0044,05,07,2022,,*63
11:50:54.960 [OWL ] SEAOWLA2K-0144	3943	69	246	246	1317	140	931	931	2628	2628	111	644	644
11:50:53.934 [OCR1] 000059A8
11:50:55.123 [CTD ]  12.3133,  3.45912,    0.175, 2.7332, 2.5222
11:50:54.810 [OCR3] 000059A9
11:50:55.267 [APLA] $PASHR,115055.262,326.93,T,-2.46,10.29,-0.01,0.021,0.021,0.022,2,1*26
11:50:55.273 [APLA] $GPGGA,115055.262,4945.88967,N,06421.40582,W,4,09,1.1,1.88,M,,,1,0004*18
11:50:55.280 [APLA] $GPVTG,351.3,T,,M,3.1,N,5.8,K,D*03
11:50:55.373 [CTD ]  12.3132,  3.45908,    0.241, 2.7320, 2.5220
11:50:55.176 [OCR3] 000059AA
11:50:55.566 [ECO ] 99/99/99	99:99:99	700	50	595	50	680	47	548
11:50:55.623 [CTD ]  12.3130,  3.45144,    0.244, 2.7298, 2.5234
11:50:55.532 [OCR3] 000059AB
11:50:55.770 [OWL ] SEAOWLA2K-0144	3944	70	254	254	1317	137	910	910	2627	2627	109	622	622
11:50:54.546 [OCR2] 000059AC
11:50:55.873 [CTD ]  12.3129,  3.41086,    0.150, 2.7292, 2.5226
11:50:56.004 [APLA] $utc,20220705,115056.0044
11:50:56.011 [DBG ] $STAT,RECORDING
11:50:56.006 [APLA] $GPZDA,115056.0044,05,07,2022,,*60
11:50:55.798 [OCR3] 000059AD
11:50:56.123 [CTD ]  12.3128,  3.45891,    0.082, 2.7279, 2.5229
11:50:56.267 [APLA] $PASHR,115056.262,333.31,T,2.48,6.35,0.01,0.021,0.021,0.022,2,1*1D
11:50:56.273 [APLA] $GPGGA,115056.262,4945.89059,N,06421.40585,W,4,09,1.1,1.91,M,,,1,0004*11
11:50:56.279 [APLA] $GPVTG,4.9,T,,M,3.7,N,6.8,K,D*0F
11:50:56.053 [OCR3] 000059AE
11:50:55.151 [OCR1] 000059AF
11:50:56.373 [CTD ]  12.3133,  3.45914,    0.088, 2.7259, 2.5229
11:50:56.307 [OCR3] 000059B0
11:50:56.580 [OWL ] SEAOWLA2K-0144	3943	69	241	241	1317	142	952	952	2629	2629	109	627	627
11:50:56.623 [CTD ]  12.3143,  3.42874,    0.115, 2.7255, 2.5231
11:50:56.690 [ECO ] 99/99/99	99:99:99	700	50	595	50	680	45	548
11:50:56.875 [CTD ]  12.3151,  3.40604,    0.095, 2.7255, 2.5227
11:50:56.573 [OCR3] 000059B1
11:50:57.004 [APLA] $utc,20220705,115057.0044
11:50:57.011 [DBG ] $STAT,RECORDING
11:50:57.006 [APLA] $GPZDA,115057.0044,05,07,2022,,*61
11:50:55.862 [OCR2] 000059B2
11:50:57.134 [CTD ]  12.3160,  3.46010,    0.133, 2.7232, 2.5224
11:50:57.267 [APLA] $PASHR,115057.262,337.83,T,-3.69,8.71,-0.05,0.021,0.021,0.022,2,1*19
11:50:57.273 [APLA] $GPGGA,115057.262,4945.89164,N,06421.40556,W,4,09,1.1,1.85,M,,,0,0004*15
11:50:57.279 [APLA] $GPVTG,14.0,T,,M,3.8,N,7.1,K,D*30
11:50:56.929 [OCR3] 000059B3
11:50:57.384 [CTD ]  12.3166,  3.46007,    0.217, 2.7248, 2.5225
11:50:57.391 [OWL ] SEAOWLA2K-0144	3944	69	248	248	1317	139	925	925	2629	2629	110	635	635
11:50:57.294 [OCR3] 000059B4
11:50:56.368 [OCR1] 000059B5
11:50:57.634 [CTD ]  12.3169,  3.45999,    0.246, 2.7239, 2.5215
11:50:57.548 [OCR3] 000059B6
11:50:57.814 [ECO ] 99/99/99	99:99:99	700	50	595	50	680	45	548
11:50:57.884 [CTD ]  12.3165,  3.45992,    0.240, 2.7239, 2.5217
11:50:58.004 [APLA] $utc,20220705,115058.0044
11:50:58.011 [DBG ] $STAT,RECORDING
11:50:58.006 [APLA] $GPZDA,115058.0044,05,07,2022,,*6E
11:50:57.803 [OCR3] 000059B7
11:50:58.132 [CTD ]  12.3161,  3.45971,    0.229, 2.7236, 2.5221
11:50:58.201 [OWL ] SEAOWLA2K-0144	3943	69	243	243	1317	139	922	922	2628	2628	108	621	621
11:50:58.267 [APLA] $PASHR,115058.262,330.79,T,0.26,6.96,-0.08,0.021,0.021,0.022,2,1*3B
11:50:58.273 [APLA] $GPGGA,115058.262,4945.89265,N,06421.40529,W,4,09,1.1,1.79,M,,,1,0004*12
11:50:58.279 [APLA] $GPVTG,4.3,T,,M,3.8,N,7.0,K,D*03
11:50:57.080 [OCR2] 000059B8
11:50:58.068 [OCR3] 000059B9
11:50:58.382 [CTD ]  12.3154,  3.45971,    0.214, 2.7234, 2.5223
11:50:58.323 [OCR3] 000059BA
11:50:58.642 [CTD ]  12.3145,  3.45970,    0.156, 2.7236, 2.5216
11:50:57.585 [OCR1] 000059BB
11:50:58.892 [CTD ]  12.3140,  3.45969,    0.067, 2.7244, 2.5211
11:50:58.938 [ECO ] 99/99/99	99:99:99	700	50	595	49	680	47	548
11:50:59.004 [APLA] $utc,20220705,115059.0044
11:50:59.011 [DBG ] $STAT,RECORDING
11:50:59.006 [APLA] $GPZDA,115059.0044,05,07,2022,,*6F
11:50:58.688 [OCR3] 000059BC
11:50:59.011 [OWL ] SEAOWLA2K-0144	3944	68	241	241	1317	138	915	915	2628	2628	109	625	625
11:50:59.142 [CTD ]  12.3138,  3.45966,    0.030, 2.7244, 2.5221
11:50:59.267 [APLA] $PASHR,115059.262,329.10,T,3.04,8.55,0.11,0.021,0.021,0.022,2,1*1A
11:50:59.273 [APLA] $GPGGA,115059.262,4945.89374,N,06421.40519,W,4,09,1.1,1.99,M,,,1,0004*1F
11:50:59.279 [APLA] $GPVTG,1.6,T,,M,3.9,N,7.2,K,D*00
11:50:59.042 [OCR3] 000059BD
11:50:59.390 [CTD ]  12.3136,  3.45966,    0.034, 2.7258, 2.5229
11:50:58.296 [OCR2] 000059BE
11:50:59.307 [OCR3] 000059BF
11:50:59.646 [CTD ]  12.3135,  3.28639,    0.130, 2.7258, 2.5223
11:50:59.561 [OCR3] 000059C0
11:50:59.821 [OWL ] SEAOWLA2K-0144	3943	69	244	244	1317	141	941	941	2627	2627	110	633	633
11:50:59.898 [CTD ]  12.3134,  3.33886,    0.204, 2.7256, 2.5231
11:51:00.004 [APLA] $utc,20220705,115100.0044
11:51:00.020 [DBG ] $STAT,RECORDING
11:51:00.007 [APLA] $GPZDA,115100.0044,05,07,2022,,*62
11:50:59.815 [OCR3] 000059C1
11:51:00.061 [ECO ] 99/99/99	99:99:99	700	50	595	50	680	43	548
11:51:00.148 [CTD ]  12.3129,  3.40969,    0.108, 2.7259, 2.5235
11:50:58.901 [OCR1] 000059C2
11:51:00.267 [APLA] $PASHR,115100.262,331.56,T,-3.12,8.16,0.10,0.021,0.021,0.022,2,1*30
11:51:00.273 [APLA] $GPGGA,115100.262,4945.89476,N,06421.40509,W,4,09,1.1,2.02,M,,,1,0004*17
11:51:00.279 [APLA] $GPVTG,5.9,T,,M,3.5,N,6K,D*01
11:51:00.080 [OCR3] 000059C3
11:51:00.406 [CTD ]  12.3122,  3.19912,    0.078, 2.7253, 2.5222
11:51:00.632 [OWL ] SEAOWLA2K-0144	3945	70	250	250	1317	141	938	938	2628	2628	110	635	635
11:51:00.663 [CTD ]  12.3114,  3.19342,    0.198, 2.7278, 2.5218
11:50:59.513 [OCR2] 000059C4
11:51:00.434 [OCR3] 000059C5
11:51:00.915 [CTD ]  12.3104,  3.37630,    0.295, 2.7253, 2.5222
11:51:01.004 [APLA] $utc,20220705,115101.0044
11:51:01.011 [DBG ] $STAT,RECORDING
11:51:01.007 [APLA] $GPZDA,115101.0044,05,07,2022,,*63
11:51:00.799 [OCR3] 000059C6
11:51:01.165 [CTD ]  12.3088,  3.44758,    0.236, 2.7268, 2.5218
11:51:01.185 [ECO ] 99/99/99	99:99:99	700	50	595	50	680	46	548
11:51:01.267 [APLA] $PASHR,115101.262,328.55,T,2.28,0.65,-0.09,0.021,0.021,0.022,2,1*36
11:51:01.273 [APLA] $GPGGA,115101.262,4945.89547,N,06421.40480,W,4,09,1.1,1.83,M,,,0,0004*1E
11:51:01.279 [APLA] $GPVTG,24.9,T,,M,2.2,N,4.1,K,D*32
11:51:01.053 [OCR3] 000059C7
11:51:00.219 [OCR1] 000059C8
11:51:01.416 [CTD ]  12.3077,  3.45504,    0.110, 2.7262, 2.5218
11:51:01.442 [OWL ] SEAOWLA2K-0144	3943	69	250	250	1317	139	915	915	2629	2629	111	641	641
11:51:01.307 [OCR3] 000059C9
11:51:01.663 [CTD ]  12.3069,  3.44523,    0.082, 2.7273, 2.5214
11:51:01.572 [OCR3] 000059CA
11:51:01.913 [CTD ]  12.3062,  3.45262,    0.159, 2.7275, 2.5221
11:51:02.004 [APLA] $utc,20220705,115102.0044
11:51:02.011 [DBG ] $STAT,RECORDING
11:51:02.007 [APLA] $GPZDA,115102.0044,05,07,2022,,*60
11:51:00.730 [OCR2] 000059CB
11:51:01.826 [OCR3] 000059CC
11:51:02.163 [CTD ]  12.3058,  3.45411,    0.269, 2.7278, 2.5222
11:51:02.267 [APLA] $PASHR,115102.262,320.72,T,4.32,5.82,-0.04,0.021,0.021,0.022,2,1*34
11:51:02.273 [APLA] $GPGGA,115102.262,4945.89601,N,06421.40449,W,4,09,1.1,1.84,M,,,0,0004*1E
11:51:02.279 [APLA] $GPVTG,26.6,T,,M,2.3,N,4.2,K,D*3D
11:51:02.252 [OWL ] SEAOWLA2K-0144	3945	70	239	239	1317	136	892	892	2630	2630	109	630	630
11:51:02.309 [ECO ] 99/99/99	99:99:99	700	50	595	50	680	41	548
11:51:02.423 [CTD ]  12.3053,  3.45708,    0.253, 2.7287, 2.5229
11:51:02.191 [OCR3] 000059CD
11:51:01.436 [OCR1] 000059CE
11:51:02.674 [CTD ]  12.3044,  3.45760,    0.175, 2.7279, 2.5229
11:51:02.546 [OCR3] 000059CF
11:51:02.934 [CTD ]  12.3037,  3.45921,    0.141, 2.7284, 2.5228
11:51:02.811 [OCR3] 000059D0
11:51:02.047 [OCR2] 000059D2
11:51:02.654 [OCR1] 000059D4
14:14:51.001 [DBG ] $STAT,RECORDING
14:14:51.003 [APLA] $utc,20220705,141451.0032
14:14:51.005 [APLA] $GPZDA,141451.0032,05,07,2022,,*63
14:14:51.249 [CTD ]   9.7520,  3.26995,    0.153, 2.7116, 2.5231
14:14:51.296 [APLA] $PASHR,141451.290,251.09,T,1.72,11.57,-0.02,0.028,0.028,0.022,2,1*0A
14:14:51.302 [APLA] $GPGGA,141451.290,4947.79588,N,06420.72287,W,2,30,1.0,0.45,M,,,7,0131*1B
14:14:51.308 [APLA] $GPVTG,246.4,T,,M,4.8,N,8.9,K,D*01
14:14:51.162 [OCR3] 00013BC0
14:14:51.448 [ECO ] 99/99/99	99:99:99	700	52	595	50	680	50	549
14:14:51.447 [OWL ] SEAOWLA2K-0144	4042	65	205	205	1399	449	3983	3983	2650	2650	133	866	866
14:14:51.504 [CTD ]   9.7542,  3.26998,    0.132, 2.7122, 2.5239
14:14:51.208 [OCR2] 00013BC1
14:14:51.413 [OCR3] 00013BC2
14:14:51.758 [CTD ]   9.7539,  3.26946,    0.100, 2.7128, 2.5245
14:14:52.001 [DBG ] $STAT,RECORDING
14:14:52.003 [APLA] $utc,20220705,141452.0032
14:14:52.005 [APLA] $GPZDA,141452.0032,05,07,2022,,*60
14:14:51.348 [OCR1] 00013BC3
14:14:52.014 [CTD ]   9.7520,  3.26665,    0.157, 2.7124, 2.5247
14:14:51.773 [OCR3] 00013BC4
14:14:51.645 [OCR2] 00013BC5
14:14:52.295 [APLA] $PASHR,141452.290,258.72,T,-0.95,13.87,0.15,0.029,0.029,0.022,2,1*0D
14:14:52.301 [APLA] $GPGGA,141452.290,4947.79541,N,06420.72479,W,2,29,1.0,0.64,M,,,7,0131*11
14:14:52.268 [CTD ]   9.7511,  3.26884,    0.188, 2.7119, 2.5228
14:14:52.308 [APLA] $GPVTG,255.0,T,,M,4.5,N,8.4,K,D*07
14:14:52.260 [OWL ] SEAOWLA2K-0144	4040	65	201	201	1401	438	3873	3873	2652	2652	131	840	840
14:14:52.123 [OCR3] 00013BC6
14:14:52.524 [CTD ]   9.7522,  3.27009,    0.161, 2.7142, 2.5248
14:14:52.572 [ECO ] 99/99/99	99:99:99	700	52	595	50	680	40	549
14:14:52.373 [OCR3] 00013BC7
14:14:52.193 [OCR2] 00013BC8
14:14:52.052 [OCR1] 00013BC9
14:14:52.779 [CTD ]   9.7519,  3.26995,    0.114, 2.7122, 2.5239
14:14:52.634 [OCR3] 00013BCA
14:14:53.001 [DBG ] $STAT,RECORDING
14:14:53.003 [APLA] $utc,20220705,141453.0032
14:14:53.005 [APLA] $GPZDA,141453.0032,05,07,2022,,*61
14:14:53.033 [CTD ]   9.7489,  3.26941,    0.194, 2.7137, 2.5246
14:14:52.885 [OCR3] 00013BCB
14:14:53.072 [OWL ] SEAOWLA2K-0144	4043	68	233	233	1399	440	3886	3886	2651	2651	130	834	834
14:14:52.730 [OCR2] 00013BCC
14:14:53.296 [APLA] $PASHR,141453.290,261.85,T,-3.54,10.62,-0.08,0.029,0.029,0.022,2,1*29
14:14:53.302 [APLA] $GPGGA,141453.290,4947.79511,N,06420.72680,W,2,29,1.0,0.43,M,,,7,0131*14
14:14:53.308 [APLA] $GPVTG,260.1,T,,M,4.7,N,8.8,K,D*0E
14:14:53.289 [CTD ]   9.7444,  3.26689,    0.320, 2.7123, 2.5244
14:14:53.136 [OCR3] 00013BCD
14:14:52.757 [OCR1] 00013BCE
14:14:53.543 [CTD ]   9.7386,  3.26602,    0.303, 2.7133, 2.5238
14:14:53.178 [OCR2] 00013BCF
14:14:53.696 [ECO ] 99/99/99	99:99:99	700	52	595	50	680	49	549
14:14:53.799 [CTD ]   9.7334,  3.26277,    0.169, 2.7140, 2.5245
14:14:53.498 [OCR3] 00013BD0
14:14:53.885 [OWL ] SEAOWLA2K-0144	4040	66	218	218	1401	460	4080	4080	2651	2651	131	839	839
14:14:54.001 [DBG ] $STAT,RECORDING
14:14:54.003 [APLA] $utc,20220705,141454.0032
14:14:54.005 [APLA] $GPZDA,141454.0032,05,07,2022,,*66
14:14:53.616 [OCR2] 00013BD1
14:14:53.849 [OCR3] 00013BD2
14:14:54.054 [CTD ]   9.7285,  3.26783,    0.065, 2.7133, 2.5228
14:14:54.296 [APLA] $PASHR,141454.290,259.69,T,-3.90,5.07,-0.06,0.029,0.029,0.022,2,1*16
14:14:54.302 [APLA] $GPGGA,141454.290,4947.79488,N,06420.72877,W,2,29,1.0,0.46,M,,,7,0131*11
14:14:54.308 [APLA] $GPVTG,259.5,T,,M,5.3,N,9.8,K,D*04
14:14:54.308 [CTD ]   9.7241,  3.26764,    0.082, 2.7145, 2.5230
14:14:54.101 [OCR3] 00013BD3
14:14:53.561 [OCR1] 00013BD4
14:14:54.064 [OCR2] 00013BD5
14:14:54.564 [CTD ]   9.7198,  3.26428,    0.220, 2.7131, 2.5247
14:14:54.363 [OCR3] 00013BD6
14:14:54.697 [OWL ] SEAOWLA2K-0144	4043	68	239	239	1399	457	4060	4060	2651	2651	131	840	840
14:14:54.820 [ECO ] 99/99/99	99:99:99	700	52	595	51	680	47	549
14:14:54.614 [OCR3] 00013BD7
14:14:54.818 [CTD ]   9.7153,  3.25638,    0.301, 2.7135, 2.5255
14:14:55.001 [DBG ] $STAT,RECORDING
14:14:55.003 [APLA] $utc,20220705,141455.0032
14:14:55.005 [APLA] $GPZDA,141455.0032,05,07,2022,,*67
14:14:54.501 [OCR2] 00013BD8
14:14:54.365 [OCR1] 00013BD9
14:14:55.074 [CTD ]   9.7075,  3.25948,    0.259, 2.7140, 2.5251
14:14:54.864 [OCR3] 00013BDA
14:14:55.296 [APLA] $PASHR,141455.290,257.37,T,-1.065.11,0.17,0.029,0.029,0.022,2,1*04
14:14:55.302 [APLA] $GPGGA,141455.290,4947.79460,N,06420.73084,W,2,29,1.0,0.68,M,,,4,0131*1C
14:14:55.308 [APLA] $GPVTG,257.5,T,,M,4.6,N,8.6,K,D*01
14:14:55.329 [CTD ]   9.7000,  3.26362,    0.181, 2.7150, 2.5243
14:14:55.509 [OWL ] SEAOWLA2K-0144	4040	69	244	244	1401	439	3882	3882	2651	2651	130	835	835
14:14:55.226 [OCR3] 00013BDB
14:14:55.049 [OCR2] 00013BDC
14:14:55.583 [CTD ]   9.6939,  3.26437,    0.102, 2.7146, 2.5243
14:14:55.069 [OCR1] 00013BDD
14:14:55.577 [OCR3] 00013BDE
14:14:55.839 [CTD ]   9.6895,  3.26463,    0.091, 2.7146, 2.5255
14:14:55.944 [ECO ] 99/99/99	99:99:99	700	52	595	50	680	46	549
14:14:56.001 [DBG ] $STAT,RECORDING
14:14:56.003 [APLA] $utc,20220705,141456.0032
14:14:56.005 [APLA] $GPZDA,141456.0032,05,07,2022,,*64
14:14:55.587 [OCR2] 00013BDF
14:14:55.839 [OCR3] 00013BE0
14:14:56.096 [CTD ]   9.6860,  3.26489,    0.209, 2.7149, 2.5246
14:14:56.296 [APLA] $PASHR,141456.290,253.12,T,-4.28,16.11,0.05,0.029,0.029,0.022,2,1*0D
14:14:56.302 [APLA] $GPGGA,141456.290,4947.79428,N,06420.73283,W,2,29,1.0,0.58,M,,,6,0131*17
14:14:56.308 [APLA] $GPVTG,251.0,T,,M,4.3,N,7.9,K,D*07
14:14:56.090 [OCR3] 00013BE1
14:14:56.322 [OWL ] SEAOWLA2K-0144	4043	69	242	242	1399	457	4058	4058	2651	2651	132	855	855
14:14:56.348 [CTD ]   9.6818,  3.26110,    0.303, 2.7147, 2.5232
14:14:56.035 [OCR2] 00013BE2
14:14:55.773 [OCR1] 00013BE3
14:14:56.339 [OCR3] 00013BE4
14:14:56.604 [CTD ]   9.6814,  3.26232,    0.217, 2.7139, 2.5238
14:14:56.860 [CTD ]   9.6843,  3.25913,    0.089, 2.7155, 2.5238
14:14:56.472 [OCR2] 00013BE5
14:14:56.599 [OCR3] 00013BE6
14:14:57.001 [DBG ] $STAT,RECORDING
14:14:57.003 [APLA] $utc,20220705,141457.0032
14:14:57.005 [APLA] $GPZDA,141457.0032,05,07,2022,,*65
14:14:57.067 [ECO ] 99/99/99	99:99:99	700	52	595	50	680	52	549
14:14:57.114 [CTD ]   9.6872,  3.26602,    0.093, 2.7153, 2.5239
14:14:56.480 [OCR1] 00013BE7
14:14:57.134 [OWL ] SEAOWLA2K-0144	4040	68	229	229	1401	452	4008	4008	2651	2651	131	834	834
14:14:57.296 [APLA] $PASHR,141457.290,255.20,T,-3.49,10.37,-0.15,0.029,0.029,0.022,2,1*25
14:14:57.302 [APLA] $GPGGA,141457.290,4947.79385,N,06420.73470,W,2,29,1.0,0.38,M,,,7,0131*1B
14:14:57.308 [APLA] $GPVTG,247T,,M,4.7,N,8.7,K,D*0D
14:14:56.948 [OCR3] 00013BE8
14:14:56.920 [OCR2] 00013BE9
14:14:57.370 [CTD ]   9.6879,  3.26625,    0.200, 2.7150, 2.5237
14:14:57.323 [OCR3] 00013BEA
14:14:57.625 [CTD ]   9.6887,  3.26583,    0.318, 2.7141, 2.5238
14:14:57.559 [OCR3] 00013BEB
14:14:57.357 [OCR2] 00013BEC
14:14:57.879 [CTD ]   9.6898,  3.24883,    0.192, 2.7144, 2.5246
14:14:57.181 [OCR1] 00013BED
14:14:58.001 [DBG ] $STAT,RECORDING
14:14:58.003 [APLA] $utc,20220705,141458.0032
14:14:58.005 [APLA] $GPZDA,141458.0032,05,07,2022,,*6A
14:14:57.947 [OWL ] SEAOWLA2K-0144	4043	67	231	231	1399	438	3871	3871	2651	2651	132	850	850
14:14:57.809 [OCR3] 00013BEE
14:14:58.135 [CTD ]   9.6905,  3.24726,   -0.051, 2.7144, 2.5243
14:14:58.191 [ECO ] 99/99/99	99:99:99	700	52	595	50	680	48	549
14:14:58.296 [APLA] $PASHR,141458.290,264.07,T,-3.02,4.62,-0.04,0.029,0.029,0.022,2,1*17
14:14:58.302 [APLA] $GPGGA,141458.290,4947.79348,N,06420.73653,W,2,29,1.0,0.50,M,,,7,0131*18
14:14:58.308 [APLA] $GPVTG,258.1,T,,M,4.6,N,8.5,K,D*09
14:14:58.069 [OCR3] 00013BEF
14:14:58.394 [CTD ]   9.6897,  1.67858,    0.026, 2.7156, 2.5244
14:14:57.906 [OCR2] 00013BF0
14:14:58.323 [OCR3] 00013BF1
14:14:58.646 [CTD ]   9.6890,  1.66430,    0.303, 2.7146, 2.5238
14:14:57.985 [OCR1] 00013BF2
14:14:58.759 [OWL ] SEAOWLA2K-0144	4040	65	206	206	1402	450	3987	3987	2651	2651	129	821	821
14:14:58.444 [OCR2] 00013BF3
14:14:58.894 [CTD ]   9.6864,  1.99867,    0.329, 2.7140, 2.5245
14:14:59.001 [DBG ] $STAT,RECORDING
14:14:59.003 [APLA] $utc,20220705,141459.0032
14:14:59.005 [APLA] $GPZDA,141459.0032,05,07,2022,,*6B
14:14:58.667 [OCR3] 00013BF4
14:14:59.152 [CTD ]   9.6807,  2.44591,    0.207, 2.7145, 2.5235
14:14:59.028 [OCR3] 00013BF5
14:14:59.296 [APLA] $PASHR,141459.290,265.70,T,-3.74,6.34,0.09,0.029,0.029,0.022,2,1*37
14:14:59.302 [APLA] $GPGGA,141459.290,4947.79334,6420.73837,W,2,29,1.0,0.63,M,,,7,0131*1E
14:14:59.308 [APLA] $GPVTG,267.0,T,,M,4.4,N,8.2,K,D*01
14:14:59.315 [ECO ] 99/99/99	99:99:99	700	52	595	50	680	50	549
14:14:59.402 [CTD ]   9.6745,  3.08300,    0.192, 2.7152, 2.5230
14:14:58.789 [OCR1] 00013BF6
14:14:59.277 [OCR3] 00013BF7
14:14:58.891 [OCR2] 00013BF8
14:14:59.571 [OWL ] SEAOWLA2K-0144	4044	65	206	206	1400	444	3924	3924	2651	2651	128	817	817
14:14:59.658 [CTD ]   9.6684,  3.20219,    0.220, 2.7146, 2.5243
14:14:59.527 [OCR3] 00013BF9
14:14:59.904 [CTD ]   9.6642,  3.18141,    0.249, 2.7155, 2.5241
14:15:00.009 [DBG ] $STAT,RECORDING
14:15:00.003 [APLA] $utc,20220705,141500.0033
14:15:00.005 [APLA] $GPZDA,141500.0033,05,07,2022,,*67
14:14:59.787 [OCR3] 00013BFA
14:14:59.494 [OCR1] 00013BFB
14:15:00.160 [CTD ]   9.6627,  3.26070,    0.161, 2.7148, 2.5245
14:14:59.596 [OCR2] 00013BFC
14:15:00.296 [APLA] $PASHR,141500.290,260.37,T,-4.06,6.22,-0.00,0.029,0.02.022,2,1*1D
14:15:00.302 [APLA] $GPGGA,141500.290,4947.79328,N,06420.74029,W,2,29,1.0,0.56,M,,,7,0131*18
14:15:00.308 [APLA] $GPVTG,261.2,T,,M,4.8,N,8.9,K,D*02
14:15:00.038 [OCR3] 00013BFD
14:15:00.384 [OWL ] SEAOWLA2K-0144	4040	66	216	216	1401	443	3918	3918	2651	2651	131	835	835
14:15:00.414 [CTD ]   9.6621,  3.26190,    0.073, 2.7155, 2.5242
14:15:00.438 [ECO ] 99/99/99	99:99:99	700	52	595	50	680	44	549
14:15:00.670 [CTD ]   9.6626,  3.26376,    0.186, 2.7142, 2.5243
14:15:00.389 [OCR3] 00013BFE
14:15:00.198 [OCR1] 00013BFF
14:15:00.924 [CTD ]   9.6636,  3.26348,    0.282, 2.7149, 2.5248
14:15:00.750 [OCR3] 00013C00
14:15:01.013 [DBG ] $STAT,RECORDING
14:15:01.003 [APLA] $utc,20220705,141.0033
14:15:01.005 [APLA] $GPZDA,141501.0033,05,07,2022,,*66
14:15:00.301 [OCR2] 00013C01
14:15:01.180 [CTD ]   9.6641,  3.26315,    0.258, 2.7152, 2.5245
14:15:01.000 [OCR3] 00013C02
14:15:01.196 [OWL ] SEAOWLA2K-0144	4044	65	207	207	1400	445	3947	3947	2652	2652	131	846	846
14:15:01.296 [APLA] $PASHR,141501.290,258.96,T,1.28,11.52,-0.07,0.029,0.029,0.022,2,1*0E
14:15:01.302 [APLA] $GPGGA,141501.290,4947.79297,N,06420.74228,W,2,29,1.0,0.47,M,,,4,0131*1C
14:15:01.308 [APLA] $GPVTG,256.0,T,,M,4.7,N,8.7,K,D*05
14:15:01.435 [CTD ]   9.6626,  3.26197,    0.187, 2.7155, 2.5239
14:15:01.252 [OCR3] 00013C03
14:15:01.562 [ECO ] 99/99/99	99:99:99	700	52	595	50	680	44	549
14:15:00.902 [OCR1] 00013C04
14:15:01.691 [CTD ]   9.6588,  3.26376,    0.184, 2.7151, 2.5230
14:15:01.514 [OCR3] 00013C05
14:15:01.025 [OCR2] 00013C06
14:15:01.946 [CTD ]   9.6534,  3.26345,    0.104, 2.7151, 2.5226
14:15:02.001 [DBG ] $STAT,RECORDING
14:15:02.003 [APLA] $utc,20220705,141502.0033
14:15:02.005 [APLA] $GPZDA,141502.0033,05,07,2022,,*65
14:15:02.009 [OWL ] SEAOWLA2K-0144	4040	66	215	215	1402	436	3853	3853	2651	2651	128	808	808
14:15:01.765 [OCR3] 00013C07
14:15:02.199 [CTD ]   9.6485,  3.26293,    0.085, 2.7166, 2.5243
14:15:02.296 [APLA] $PASHR,141502.290,260.31,T,-3.03,4.46,0.09,0.029,0.029,0.022,2,1*3F
14:15:02.302 [APLA] $GPGGA,141502.290,4947.79269,N,06420.74413,W,2,29,1.0,0.66,M,,,6,0131*11
14:15:02.308 [APLA] $GPVTG,258.3,T,,M,4.7,N,8.8,K,D*07
14:15:01.607 [OCR1] 00013C08
14:15:02.127 [OCR3] 00013C09
14:15:02.455 [CTD ]   9.6446,  3.26270,    0.129, 2.7160, 2.5247
14:15:01.809 [OCR2] 00013C0A
14:15:02.686 [ECO ] 99/99/99	99:99:99	700	52	595	50	680	46	549
14:15:02.478 [OCR3] 00013C0B
14:15:02.710 [CTD ]   9.6388,  3.26275,    0.255, 2.7158, 2.5242
14:15:02.821 [OWL ] SEAOWLA2K-0144	4044	63	191	191	1400	439	3876	3876	2651	2651	130	834	834
14:15:02.729 [OCR3] 00013C0C
14:15:03.001 [DBG ] $STAT,RECORDING
14:15:03.003 [APLA] $utc,20220705,14150333
14:15:03.005 [APLA] $GPZDA,141503.0033,05,07,2022,,*64
14:15:02.966 [CTD ]   9.6309,  3.26253,    0.310, 2.7150, 2.5250
14:15:02.411 [OCR1] 00013C0D
14:15:02.991 [OCR3] 00013C0E
14:15:03.221 [CTD ]   9.6254,  3.26192,    0.237, 2.7156, 2.5235
14:15:03.296 [APLA] $PASHR,141503.290,267.36,T,-0.45,10.92,0.04,0.029,0.029,0.022,2,1*0E
14:15:03.302 [APLA] $GPGG41503.290,4947.79242,N6420.74599,W,2,30,1.0,0.61,M,,,7,0131*14
14:15:03.308 [APLA] $GPVTG,260.9,T,,M,4.6,N,8.4,K,D*0B
14:15:02.614 [OCR2] 00013C0F
14:15:03.242 [OCR3] 00013C10
14:15:03.474 [CTD ]   9.6213,  3.26122,    0.134, 2.7151, 2.5231
14:15:03.633 [OWL ] SEAOWLA2K-0144	4041	65	202	202	1402	454	4029	4029	2651	2651	130	833	833
14:15:03.730 [CTD ]   9.6182,  3.26230,    0.100, 2.7150, 2.5223
14:15:03.810 [ECO ] 99/99/99	99:99:99	700	52	595	50	680	40	549
14:15:03.492 [OCR3] 00013C11
14:15:03.215 [OCR1] 00013C12
14:15:04.001 [DBG ] $STAT,RECORDING
14:15:04.003 [APLA] $utc,20220705,141504.0033
14:15:04.005 [APLA] $GPZDA,141504.0033,05,07,2022,,*63
14:15:03.325 [OCR2] 00013C13
14:15:03.986 [CTD ]   9.6149,  3.26190,    0.193, 2.7140, 2.5239
14:15:03.854 [OCR3] 00013C14
14:15:04.242 [CTD ]   9.6107,  3.25687,    0.269, 2.7142, 2.5252
14:15:04.296 [APLA] $PASHR,141504.290,271.14,T,-4.53,10.35,-0.07,0.029,0.029,0.022,2,1*2E
14:15:04.302 [APLA] $GPGGA,141504.290,4947.79230,N,06420.74796,W,2,29,1.0,0.48,M,,,7,0131*18
14:15:04.308 [APLA] $GPVTG,267.6,T,,M,4.7,N,8.6,K,D*00
14:15:04.205 [OCR3] 00013C15
14:15:04.446 [OWL ] SEAOWLA2K-0144	4044	64	191	191	1401	439	3877	3877	2650	2650	131	837	837
14:15:04.496 [CTD ]   9.6065,  3.25976,    0.224, 2.7139, 2.5256
14:15:03.919 [OCR1] 00013C16
14:15:04.455 [OCR3] 00013C17
14:15:04.023 [OCR2] 00013C18
14:15:04.755 [CTD ]   9.6026,  3.26018,    0.217, 2.7145, 2.5255
14:15:04.933 [ECO ] 99/99/99	99:99:99	700	52	595	50	680	51	549
14:15:04.716 [OCR3] 00013C19
14:15:05.001 [DBG ] $STAT,RECORDING
14:15:05.003 [APLA] $utc,20220705,141505.0033
14:15:05.005 [APLA] $GPZDA,141505.0033,05,07,2022,,*62
14:15:05.005 [CTD ]   9.6007,  3.26155,    0.269, 2.7144, 2.5238
14:15:04.965 [OCR3] 00013C1A
14:15:05.295 [APLA] $PASHR,141505.290,263.11,T,1.34,15.42,0.12,0.029,0.029,0.022,2,1*2C
14:15:05.261 [CTD ]   9.6000,  3.26157,    0.302, 2.7146, 2.5251
14:15:05.301 [APLA] $GPGGA,141505.290,4947.79226,N,06420.74992,W,2,29,1.0,0.64,M,,,7,0131*1A
14:15:05.308 [APLA] $GPVTG,271.8,T,,M,4.3,N,8.0,K,D*0B
14:15:05.258 [OWL ] SEAOWLA2K-0144	4041	65	199	199	1402	442	3904	3904	2651	2651	129	817	817
14:15:04.624 [OCR1] 00013C1B
14:15:04.728 [OCR2] 00013C1C
14:15:05.517 [CTD ]   9.5979,  3.26136,    0.179, 2.7139, 2.5230
14:15:05.215 [OCR3] 00013C1D
14:15:05.773 [CTD ]   9.5948,  3.25990,    0.055, 2.7145, 2.5220
14:15:05.575 [OCR3] 00013C1E
14:15:06.001 [DBG ] $STAT,RECORDING
14:15:06.003 [APLA] $utc,20220705,141506.0033
14:15:06.005 [APLA] $GPZDA,141506.0033,05,07,2022,,*61
14:15:05.328 [OCR1] 00013C1F
14:15:06.026 [CTD ]   9.5914,  3.26084,    0.017, 2.7128, 2.5219
14:15:06.057 [ECO ] 99/99/99	99:99:99	700	52	595	50	680	44	549
14:15:06.071 [OWL ] SEAOWLA2K-0144	4045	66	208	208	1400	435	3843	3843	2652	2652	128	818	818
14:15:05.924 [OCR3] 00013C20
14:15:05.432 [OCR2] 00013C21
14:15:06.296 [APLA] ASHR,141506.290,252.43,T,-7.30,6.48,0.02,0.029,0.029,0.022,2,1*3C
14:15:06.302 [APLA] $GPGGA,141506.290,4947.79218,N,06420.75190,W,2,29,1.0,0.59,M,,,4,0131*12
14:15:06.308 [APLA] $GPVTG,256.0,T,,M,4.9,N,9.1,K,D*0C
14:15:06.282 [CTD ]   9.5875,  3.26084,    0.073, 2.7137, 2.5239
14:15:06.174 [OCR3] 00013C22
14:15:06.538 [CTD ]   9.5846,  3.24595,    0.237, 2.7126, 2.5242
14:15:06.434 [OCR3] 00013C23
14:15:06.033 [OCR1] 00013C24
14:15:06.793 [CTD ]   9.5825,  3.20841,    0.315, 2.7120, 2.5250
14:15:06.683 [OCR3] 00013C25
14:15:06.883 [OWL ] SEAOWLA2K-0144	4041	67	219	219	1402	440	3892	3892	2651	2651	129	821	821
14:15:07.001 [DBG ] $STAT,RECORDING
14:15:07.003 [APLA] $utc,20220705,141507.0033
14:15:07.005 [APLA] $GPZ,141507.0033,05,07,2022,,*60
14:15:06.236 [OCR2] 00013C26
14:15:07.043 [CTD ]   9.5797,  3.10050,    0.250, 2.7101, 2.5237
14:15:07.181 [ECO ] 99/99/99	99:99:99	700	52	595	50	680	45	549
14:15:06.933 [OCR3] 00013C27
14:15:07.296 [APLA] $PASHR,141507.290,250.88,T,0.03,9.95,-0.06,0.029,0.029,0.022,2,1*34
14:15:07.302 [APLA] $GPGGA,141507.290,4947.79178,N,06420.75376,W,2,30,1.0,0.49,M,5,0131*14
14:15:07.308 [APLA] $GPVTG,245.2,T,,M,4.6,N,8.5,K,D*06
14:15:07.299 [CTD ]   9.5763,  3.19800,    0.139, 2.7121, 2.5227
14:15:07.555 [CTD ]   9.5727,  3.24712,    0.094, 2.7112, 2.5241
14:15:06.837 [OCR1] 00013C28
14:15:07.294 [OCR3] 00013C29
14:15:07.040 [OCR2] 00013C2A
14:15:07.695 [OWL ] SEAOWLA2K-0144	4045	65	206	206	1401	447	3962	3962	2651	2651	126	794	794
14:15:07.811 [CTD ]   9.5694,  3.25253,    0.161, 2.7102, 2.5242
14:15:07.645 [OCR3] 00013C2B
14:15:08.001 [DBG ] $STAT,RECORDING
14:15:08.003 [APLA] $utc,20220705,141508.0033
14:15:08.005 [APLA] $GPZDA,141508.0033,05,07,2022,,*6F
14:15:08.068 [CTD ]   9.5665,  3.19210,    0.232, 2.7087, 2.5245
14:15:07.893 [OCR3] 00013C2C
14:15:08.296 [APLA] $PASHR,141508.290,256.73,T,0.92,11.91,0.07,0.029,0.029,0.022,2,1*20
14:15:08.302 [APLA] $GPGGA,141508.290,4947.79131,N,06420.75561,W,2,30,1.0,0.60,M,,,6,0131*1E
14:15:08.308 [APLA] $GPVTG,254.3,T,,M,4.5,N,8.3,K,D*02
14:15:08.304 [ECO ] 99/99/99	99:99:99	700	52	595	50	680	46	549
14:15:07.642 [OCR1] 00013C2D
14:15:08.323 [CTD ]   9.5632,  3.24949,    0.180, 2.7101, 2.5246
14:15:08.154 [OCR3] 00013C2E
14:15:07.745 [OCR2] 00013C2F
14:15:08.508 [OWL ] SEAOWLA2K-0144	4042	66	211	211	1403	444	3922	3922	2651	2651	132	846	846
14:15:08.579 [CTD ]   9.5600,  3.25882,    0.105, 2.7091, 2.5244
14:15:08.404 [OCR3] 00013C30
14:15:08.835 [CTD ]   9.5583,  3.25392,    0.177, 2.7080, 2.5235
14:15:09.001 [DBG ] $STAT,RECORDING
14:15:09.003 [APLA] $utc,20220705,141509.0033
14:15:09.005 [APLA] $GPZDA,141509.0033,05,07,2022,,*6E
14:15:08.656 [OCR3] 00013C31
14:15:08.346 [OCR1] 00013C32
14:15:09.089 [CTD ]   9.5569,  3.25840,    0.122, 2.7071, 2.5232
14:15:08.449 [OCR2] 00013C33
14:15:09.296 [APLA] $PASHR,141509.290,258.72,T,-6.95,6.20,0.07,0.029,0.029,0.022,2,1*3E
14:15:09.302 [APLA] $GPGGA,141509.290,4947.79106,N,06420.75754,W,2,30,1.0,0.64,M,,,7,0131*1A
14:15:09.308 [APLA] $GPVTG,259.2,T,,M,4.8,N,9.0,K,D*01
14:15:09.017 [OCR3] 00013C34
14:15:09.320 [OWL ] SEAOWLA2K-0144	4046	67	227	227	1402	437	3858	3858	2652	2652	127	806	806
14:15:09.343 [CTD ]   9.5570,  3.25917,    0.071, 2.7069, 2.5238
14:15:09.428 [ECO ] 99/99/99	99:99:99	700	52	595	50	680	50	549
14:15:09.368 [OCR3] 00013C35
14:15:09.599 [CTD ]   9.5570,  3.25929,    0.173, 2.7059, 2.5248
14:15:09.050 [OCR1] 00013C36
14:15:09.154 [OCR2] 00013C37
14:15:09.619 [OCR3] 00013C38
14:15:09.854 [CTD ]   9.5563,  3.25840,    0.318, 2.7052, 2.5247
14:15:10.001 [DBG ] $STAT,RECORDING
14:15:10.003 [APLA] $utc,20220705,141510.0033
14:15:10.005 [APLA] $GPZDA,141510.0033,05,07,2022,,*66
14:15:09.881 [OCR3] 00013C39
14:15:10.109 [CTD ]   9.5528,  3.25321,    0.353, 2.7050, 2.5254
14:15:10.133 [OWL ] SEAOWLA2K-0144	4042	65	206	206	1403	460	4078	4078	2651	2651	128	805	805
14:15:10.296 [APLA] $PASHR,141510.290,253.11,T,-0.83,15.90,-0.05,0.029,0.029,0.022,2,1*2F
14:15:10.302 [APLA] $GPGGA,141510.290,4947.79073,N,06420.75956,W,2,30,1.0,0.48,M,,,7,0131*13
14:15:10.308 [APLA] $GPVTG,252.9,T,,M,4.3,N,7.9,K,D*0D
14:15:10.132 [OCR3] 00013C3A
14:15:10.364 [CTD ]   9.5479,  3.25652,    0.241, 2.7054, 2.5237
14:15:09.756 [OCR1] 00013C3B
14:15:10.552 [ECO ] 99/99/99	99:99:99	700	52	595	50	680	42	549
14:15:09.857 [OCR2] 00013C3C
14:15:10.620 [CTD ]   9.5416,  3.25713,    0.182, 2.7037, 2.5228
14:15:10.383 [OCR3] 00013C3D
14:15:10.876 [CTD ]   9.5345,  3.25739,    0.088, 2.7038, 2.5228
14:15:11.001 [DBG ] $STAT,RECORDING
14:15:11.003 [APLA] $utc,20220705,141511.0033
14:15:11.005 [APLA] $GPZDA,141511.0033,05,07,2022,,*67
14:15:10.945 [OWL ] SEAOWLA2K-0144	4046	68	235	235	1401	440	3888	3888	2651	2651	129	824	824
14:15:10.745 [OCR3] 00013C3E
14:15:11.130 [CTD ]   9.5290,  3.25767,    0.028, 2.7039, 2.5231
14:15:10.460 [OCR1] 00013C3F
14:15:11.296 [APLA] $PASHR,141511.290,245.30,T,-3.45,6.17,-0.06,0.029,0.029,0.022,1,1*1E
14:15:11.302 [APLA] $GPGGA,141511.290,4947.79033,N,06420.76144,W,2,30,1.0,0.49,M,,,7,0131*1F
14:15:11.308 [APLA] $GPVTG,246.2,T,,M,4.9,N,9.0,K,D*0E
14:15:11.097 [OCR3] 00013C40
14:15:11.386 [CTD ]   9.5274,  3.25776,    0.102, 2.7034, 2.5229
14:15:10.662 [OCR2] 00013C41
14:15:11.358 [OCR3] 00013C42
14:15:11.642 [CTD ]   9.5279,  3.25234,    0.250, 2.7026, 2.5252
14:15:11.675 [ECO ] 99/99/99	99:99:99	700	52	595	50	680	48	549
14:15:11.758 [OWL ] SEAOWLA2K-0144	4043	68	224	224	1404	424	3742	3742	2651	2651	127	802	802
14:15:11.609 [OCR3] 00013C43
14:15:11.897 [CTD ]   9.5298,  3.24899,    0.290, 2.7020, 2.5252
14:15:12.001 [DBG ] $STAT,RECORDING
14:15:12.003 [APLA] $utc,20220705,141512.0033
14:15:12.005 [APLA] $GPZDA,141512.0033,05,07,2022,,*64
14:15:11.263 [OCR1] 00013C44
14:15:11.859 [OCR3] 00013C45
14:15:11.466 [OCR2] 00013C46
14:15:12.153 [CTD ]   9.5295,  3.23890,    0.186, 2.7007, 2.5247
14:15:12.296 [APLA] $PASHR,141512.290,242.70,T,0.35,10.41,0.03,0.029,0.029,0.022,2,1*28
14:15:12.302 [APLA] $GPGGA,141512.290,4947.78969,N,06420.76322,W,2,30,1.0,0.58,M,,,4,0131*1A
14:15:12.308 [APLA] $GPVTG,240.5,T,,M,4.7,N,8.8,K,D*08
14:15:12.408 [CTD ]   9.5267,  3.25704,    0.091, 2.7010, 2.5227
14:15:12.120 [OCR3] 00013C47
14:15:12.570 [OWL ] SEAOWLA2K-0144	4046	63	174	174	1401	453	4019	4019	2652	2652	128	814	814
14:15:12.662 [CTD ]   9.5254,  3.25047,    0.171, 2.7011, 2.5237
14:15:12.067 [OCR1] 00013C48
14:15:12.799 [ECO ] 99/99/99	99:99:99	700	52	595	50	680	48	549
14:15:12.470 [OCR3] 00013C49
14:15:12.170 [OCR2] 00013C4A
14:15:12.918 [CTD ]   9.5261,  3.25028,    0.147, 2.7005, 2.5233
14:15:13.001 [DBG ] $STAT,RECORDING
14:15:13.003 [APLA] $utc,20220705,141513.0033
14:15:12.832 [OCR3] 00013C4B
14:15:13.006 [APLA] $GPZDA,141513.0033,05,07,2022,,*65
14:15:13.174 [CTD ]   9.5244,  3.25685,    0.119, 2.7015, 2.5236
14:15:13.296 [APLA] $PASHR,141513.290,249.43,T,-2.86,6.70,-0.11,0.029,0.029,0.022,2,1*1E
14:15:13.302 [APLA] $GPGGA,141513.290,4947.78903,N,06420.76503,W,2,30,1.0,0.46,M,,,5,0131*1C
14:15:13.308 [APLA] $GPVTG,241.8,T,,M,5.2,N,9.6,K,D*0F
14:15:13.083 [OCR3] 00013C4C
14:15:13.382 [OWL ] SEAOWLA2K-0144	4043	65	208	208	1403	429	3787	3787	2651	2651	130	825	825
14:15:12.771 [OCR1] 00013C4D
14:15:13.431 [CTD ]   9.5205,  3.25746,    0.173, 2.7014, 2.5256
14:15:12.874 [OCR2] 00013C4E
14:15:13.332 [OCR3] 00013C4F
14:15:13.685 [CTD ]   9.5201,  3.25791,    0.236, 2.6995, 2.5256
14:15:13.593 [OCR3] 00013C50
14:15:13.923 [ECO ] 99/99/99	99:99:99	700	52	595	50	680	49	549
14:15:13.939 [CTD ]   9.5213,  3.25800,    0.226, 2.6997, 2.5250
14:15:14.001 [DBG ] $STAT,RECORDING
14:15:14.003 [APLA] $utc,20220705,141514.0033
14:15:14.005 [APLA] $GPZDA,141514.0033,05,07,2022,,*62
14:15:13.476 [OCR1] 00013C51
14:15:13.842 [OCR3] 00013C52
14:15:14.195 [CTD ]   9.5232,  3.25814,    0.192, 2.7011, 2.5225
14:15:14.195 [OWL ] SEAOWLA2K-0144	4046	65	206	206	1402	438	3868	3868	2652	2652	128	806	806
14:15:13.578 [OCR2] 00013C53
14:15:14.296 [APLA] SHR,141514.290,253.16,T,-1.88,7.42,0.01,0.029,0.029,0.022,2,1*33
14:15:14.302 [APLA] $GPGGA,141514.290,4947.78846,N,06420.76692,W,2,30,1.0,0.57,M,,,6,0131*13
14:15:14.308 [APLA] $GPVTG,250.1,T,,M,5.2,N,9.6,K,D*06
14:15:14.449 [CTD ]   9.5249,  3.25863,    0.152, 2.6997, 2.5233
14:15:14.191 [OCR3] 00013C54
14:15:14.705 [CTD ]   9.5272,  3.25889,    0.188, 2.6998, 2.5246
14:15:14.551 [OCR3] 00013C55
14:15:14.180 [OCR1] 00013C56
14:15:15.001 [DBG ] $STAT,RECORDING
14:15:15.003 [APLA] $utc,20220705,141515.0033
14:15:14.960 [CTD ]   9.5288,  3.25877,    0.246, 2.7002, 2.5231
14:15:15.006 [APLA] $GPZDA,141515.0033,05,07,2022,,*63
14:15:14.801 [OCR3] 00013C57
14:15:15.007 [OWL ] SEAOWLA2K-0144	4043	66	211	211	1404	451	4000	4000	2652	2652	130	831	831
14:15:15.046 [ECO ] 99/99/99	99:99:99	700	52	595	50	680	45	549
14:15:14.282 [OCR2] 00013C58
14:15:15.216 [CTD ]   9.5284,  3.25833,    0.244, 2.6997, 2.5245
14:15:15.296 [APLA] $PASHR,141515.290,251.07,T,-3.33,12.30,0.06,0.029,0.029,0.022,2,1*04
14:15:15.302 [APLA] $GPGGA,141515.290,4947.78796,N,06420.76896,W,2,30,1.0,0.62,M,,,7,0131*1D
14:15:15.050 [OCR3] 00013C59
14:15:15.308 [APLA] $GPVTG,248.3,T,,M,5.1,N,9.4,K,D*0C
14:15:15.470 [CTD ]   9.5261,  3.25807,    0.195, 2.7008, 2.5253
14:15:15.318 [OCR3] 00013C5A
14:15:14.885 [OCR1] 00013C5B
14:15:15.726 [CTD ]   9.5229,  3.25805,    0.123, 2.6996, 2.5242
14:15:15.820 [OWL ] SEAOWLA2K-0144	4047	66	221	221	1402	450	3992	3992	2651	2651	128	803	803
14:15:15.086 [OCR2] 00013C5C
14:15:15.560 [OCR3] 00013C5D
14:15:16.001 [DBG ] $STAT,RECORDING
14:15:16.003 [APLA] $utc,20220705,141516.0033
14:15:16.005 [APLA] $GPZDA,141516.0033,05,07,2022,,*60
14:15:15.982 [CTD ]   9.5179,  3.25805,    0.080, 2.6982, 2.5241
14:15:16.170 [ECO ] 99/99/99	99:99:99	700	52	595	50	680	48	549
14:15:15.910 [OCR3] 00013C5E
14:15:16.237 [CTD ]   9.5118,  3.25802,    0.152, 2.6991, 2.5257
14:15:16.296 [APLA] $PASHR,141516.290,299,T,-2.95,13.93,-0.03,0.029,0.029,0.022,2,1*2E
14:15:16.302 [APLA] $GPGGA,141516.290,4947.78746,N,06420.77098,W,2,30,1.0,0.54,M,,,7,0131*11
14:15:16.308 [APLA] $GPVTG,246.9,T,,M,4.3,N,8.0,K,D*0E
14:15:15.688 [OCR1] 00013C5F
14:15:16.270 [OCR3] 00013C60
14:15:16.491 [CTD ]   9.5059,  3.25783,    0.282, 2.6989, 2.5253
14:15:15.891 [OCR2] 00013C61
14:15:16.632 [OWL ] SEAOWLA2K-0144	4044	66	211	211	1404	436	3843	3843	2651	2651	128	817	817
14:15:16.520 [OCR3] 00013C62
14:15:16.747 [CTD ]   9.4996,  3.24175,    0.246, 2.6985, 2.5243
14:15:17.001 [DBG ] $STAT,RECORDING
14:15:17.003 [APLA] $utc,20220705,141517.0033
14:15:17.005 [APLA] $GPZDA,141517.0033,05,07,2022,,*61
14:15:16.770 [OCR3] 00013C63
14:15:17.003 [CTD ]   9.4941,  3.25183,    0.079, 2.6988, 2.5232
14:15:16.491 [OCR1] 00013C64
14:15:17.032 [OCR3] 00013C65
14:15:16.595 [OCR2] 00013C66
14:15:17.296 [APLA] $PASHR,1417.290,254.45,T,-0,-0.21,-0.23,0.029,0.029,0.022,2,1*33
14:15:17.258 [CTD ]   9.4895,  3.25685,    0.085, 2.6989, 2.5260
14:15:17.302 [APLA] $GPGGA,141517.290,4947.78704,N,06420.77245,W,2,30,1.0,0.33,M,,,7,0131*15
14:15:17.308 [APLA] $GPVTG,245.5,T,,M,3.6,.7,K,D*0A
14:15:17.294 [ECO ] 99/99/99	99:99:99	700	52	595	50	680	45	549
